sep=,
CUSTOM.date [local], CUSTOM.updateTime [local], OSD.flyTime, OSD.flyTime [s], OSD.latitude, OSD.longitude, OSD.height [ft], OSD.heightMax [ft], OSD.vpsHeight [ft], OSD.altitude [ft], OSD.hSpeed [MPH], OSD.hSpeedMax [MPH], OSD.xSpeed [MPH], OSD.xSpeedMax [MPH], OSD.ySpeed [MPH], OSD.ySpeedMax [MPH], OSD.zSpeed [MPH], OSD.zSpeedMax [MPH], OSD.pitch, OSD.roll, OSD.yaw, OSD.yaw [360], OSD.flycState, OSD.flycCommand, OSD.flightAction, OSD.gpsNum, OSD.gpsLevel, OSD.isGPSUsed, OSD.nonGPSCause, OSD.droneType, OSD.isSwaveWork, OSD.waveError, OSD.goHomeStatus, OSD.batteryType, OSD.ctrlDevice, OSD.isOnGround, OSD.isMotorOn, OSD.isMotorBlocked, OSD.motorStartFailedCause, OSD.motorFailReason, OSD.isImuPreheated, OSD.imuInitFailReason, OSD.isAcceletorOverRange, OSD.isBarometerDeadInAir, OSD.isCompassError, OSD.isGoHomeHeightModified, OSD.canIOCWork, OSD.isNotEnoughForce, OSD.isOutOfLimit, OSD.isPropellerCatapult, OSD.isVibrating, OSD.isVisionUsed, OSD.voltageWarning, GIMBAL.mode, GIMBAL.pitch, GIMBAL.roll, GIMBAL.yaw, GIMBAL.yaw [360], GIMBAL.isPitchAtLimit, GIMBAL.isRollAtLimit, GIMBAL.isYawAtLimit, GIMBAL.isStuck, CAMERA.isPhoto, CAMERA.isVideo, CAMERA.filename, CAMERA.sdCardIsInserted, CAMERA.sdCardState, RC.downlinkSignal, RC.uplinkSignal, RC.aileron, RC.elevator, RC.throttle, RC.rudder, RC.mode, RC.goHomeDepressed, RC.recordDepressed, RC.shutterDepressed, RC.playbackDepressed, RC.wheelDepressed, RC.wheelOffset, RC.custom1Depressed, RC.custom2Depressed, RC.custom3Depressed, RC.custom4Depressed, BATTERY.chargeLevel, BATTERY.currentPV [V], BATTERY.currentCapacity [mAh], BATTERY.fullCapacity [mAh], BATTERY.voltage [V], BATTERY.isCellVoltageEstimated, BATTERY.cellVoltage1 [V], BATTERY.cellVoltage2 [V], BATTERY.cellVoltage3 [V], BATTERY.cellVoltage4 [V], BATTERY.cellVoltage5 [V], BATTERY.cellVoltage6 [V], BATTERY.maxCellVoltageDeviation, BATTERY.isCellVoltageDeviationHigh, BATTERY.isVoltageLow, BATTERY.current [A], BATTERY.temperature [F], BATTERY.minTemperature [F], BATTERY.maxTemperature [F], BATTERY.usefulTime [s], BATTERY.goHomeTime [s], BATTERY.landTime [s], BATTERY.goHomeBattery, BATTERY.landBattery, BATTERY.safeFlyRadius, BATTERY.volumeConsume, BATTERY.status, BATTERY.goHomeStatus, BATTERY.goHomeCountdown, BATTERY.lowWarning, BATTERY.lowWarningGoHome, BATTERY.seriousLowWarning, BATTERY.seriousLowWarningLanding, BATTERY.timesCharged, MC.failSafeAction, HOME.latitude, HOME.longitude, HOME.distance [ft], HOME.height [ft], HOME.heightLimit [ft], HOME.isHomeRecord, HOME.goHomeMode, HOME.aircraftHeadDirection, HOME.isDynamicHomePointEnabled, HOME.isReachedLimitDistance, HOME.isReachedLimitHeight, HOME.isCompassCeleing, HOME.compassCeleStatus, HOME.isMultipleFlightModeEnabled, HOME.isBeginnerMode, HOME.isIOCEnabled, HOME.iocMode, HOME.goHomeHeight [ft], HOME.courseLockAngle, HOME.forceLandingHeight [ft], HOME.wind, HOME.dataRecorderFileIndex, RECOVER.appType, RECOVER.appVersion, RECOVER.aircraftName, RECOVER.aircraftSerial, RECOVER.cameraSerial, RECOVER.rcSerial, RECOVER.batterySerial, DETAILS.totalTime [s], DETAILS.totalDistance [ft], DETAILS.maxHeight [ft], DETAILS.maxHorizontalSpeed [MPH], DETAILS.maxVerticalSpeed [MPH], DETAILS.photoNum, DETAILS.videoTime [s], DETAILS.aircraftName, DETAILS.aircraftSerial, DETAILS.cameraSerial, DETAILS.rcSerial, DETAILS.batterySerial, DETAILS.appName, DETAILS.appType, DETAILS.appVersion, APPGPS.latitude, APPGPS.longitude, APPGPS.accuracy, APP.message, APP.tip, APP.warning
6/20/2018,3:16:54.01 PM,0m 1.1s,1.1,39.96120272,-106.21645738,0,0,0.3,8128,0,0,0,0,0,0,0,0,1.4,-4.7,-145.5,214.5,P-GPS,Auto Fly,Takeoff (App Auto),17,5,True,,Inspire 1,True,False,,Smart,RC,False,True,False,,Other (230),True,,False,False,False,False,True,False,False,False,False,False,0,FPV,0,0,-145.4,214.6,False,False,False,False,False,False,,True,Normal,,,1024,1024,1024,1024,2,False,False,False,False,False,0,False,False,False,False,98,25.799,4115,4199,25.658,False,4.298,4.302,4.303,4.305,4.305,4.295,0.01,False,False,64.702,59.3,59.3,59.3,0,0,0,19,14,0.0,0.00,,Idle,0,30,False,10,True,10,Go Home,39.96120269,-106.21645688,0.0,8154.5,,True,1,1,False,False,False,False,0,True,False,False,Course Lock,65.6,,,Calm,13,Android, 3.1.38,RGP Craft,0410059536,,03LD015147,6781073611,199.307,7175.5,183.4,51.1,9.2,0,0,RGP Craft,0410059536,,03LD015147,6781073611,,Android, 3.1.38,,,,Data Recorder File Index is 13.,,
6/20/2018,3:16:54.13 PM,0m 1.3s,1.3,39.96120262,-106.21645747,0,0,0.3,8128,0,0,0,0,0,0,0,0,1.4,-4.8,-145.5,214.5,P-GPS,Auto Fly,Takeoff (App Auto),17,5,True,,Inspire 1,True,False,,Smart,RC,False,True,False,,Other (230),True,,False,False,False,False,True,False,False,False,False,False,0,FPV,0,0,-145.4,214.6,False,False,False,False,False,False,,True,Normal,,,1024,1024,1024,1024,2,False,False,False,False,False,0,False,False,False,False,98,25.799,4115,4199,25.658,False,4.298,4.302,4.303,4.305,4.305,4.295,0.01,False,False,64.702,59.3,59.3,59.3,0,0,0,19,14,0.0,0.00,,Idle,0,30,False,10,True,10,Go Home,39.96120269,-106.21645688,0.0,8154.5,,True,1,1,False,False,False,False,0,True,False,False,Course Lock,65.6,,,Calm,13,Android, 3.1.38,RGP Craft,0410059536,,03LD015147,6781073611,199.307,7175.5,183.4,51.1,9.2,0,0,RGP Craft,0410059536,,03LD015147,6781073611,,Android, 3.1.38,,,,,,
6/20/2018,3:16:54.23 PM,0m 1.4s,1.4,39.96120261,-106.21645746,0,0,0.3,8128,0,0,0,0,0,0,0,0,1.4,-4.8,-145.5,214.5,P-GPS,Auto Fly,Takeoff (App Auto),17,5,True,,Inspire 1,True,False,,Smart,RC,False,True,False,,Other (230),True,,False,False,False,False,True,False,False,False,False,False,0,FPV,0,0,-145.4,214.6,False,False,False,False,False,False,,True,Normal,,,1024,1024,1024,1024,2,False,False,False,False,False,0,False,False,False,False,98,25.799,4115,4199,25.658,False,4.298,4.302,4.303,4.305,4.305,4.295,0.01,False,False,64.702,59.3,59.3,59.3,0,0,0,19,14,0.0,0.00,,Idle,0,30,False,10,True,10,Go Home,39.96120269,-106.21645688,0.0,8154.5,,True,1,1,False,False,False,False,0,True,False,False,Course Lock,65.6,,,Calm,13,Android, 3.1.38,RGP Craft,0410059536,,03LD015147,6781073611,199.307,7175.5,183.4,51.1,9.2,0,0,RGP Craft,0410059536,,03LD015147,6781073611,,Android, 3.1.38,,,,,,
6/20/2018,3:16:54.33 PM,0m 1.5s,1.5,39.96120261,-106.21645747,0,0,0.3,8128,0,0,0,0,0,0,0,0,1.4,-4.8,-145.5,214.5,P-GPS,Auto Fly,Takeoff (App Auto),17,5,True,,Inspire 1,True,False,,Smart,RC,False,True,False,,Other (230),True,,False,False,False,False,True,False,False,False,False,False,0,FPV,0,0,-145.4,214.6,False,False,False,False,False,False,,True,Normal,,,1024,1024,1024,1024,2,False,False,False,False,False,0,False,False,False,False,98,25.799,4115,4199,25.658,False,4.298,4.302,4.303,4.305,4.305,4.295,0.01,False,False,64.702,59.3,59.3,59.3,0,0,0,19,14,0.0,0.00,,Idle,0,30,False,10,True,10,Go Home,39.96120269,-106.21645688,0.0,8154.5,,True,1,1,False,False,False,False,0,True,False,False,Course Lock,65.6,,,Calm,13,Android, 3.1.38,RGP Craft,0410059536,,03LD015147,6781073611,199.307,7175.5,183.4,51.1,9.2,0,0,RGP Craft,0410059536,,03LD015147,6781073611,,Android, 3.1.38,,,,,,
6/20/2018,3:16:54.43 PM,0m 1.6s,1.6,39.9612026,-106.21645755,0,0,0.3,8128,0,0,0,0,0,0,0,0,1.4,-4.9,-145.5,214.5,P-GPS,Auto Fly,Takeoff (App Auto),17,5,True,,Inspire 1,True,False,,Smart,RC,False,True,False,,Other (230),True,,False,False,False,False,True,False,False,False,False,False,0,FPV,0,0,-145.4,214.6,False,False,False,False,False,False,,True,Normal,,,1024,1024,1024,1024,2,False,False,False,False,False,0,False,False,False,False,98,25.799,4115,4199,25.658,False,4.298,4.302,4.303,4.305,4.305,4.295,0.01,False,False,64.702,59.3,59.3,59.3,0,0,0,19,14,0.0,0.00,,Idle,0,30,False,10,True,10,Go Home,39.96120269,-106.21645688,0.3,8154.5,,True,1,1,False,False,False,False,0,True,False,False,Course Lock,65.6,,,Calm,13,Android, 3.1.38,RGP Craft,0410059536,,03LD015147,6781073611,199.307,7175.5,183.4,51.1,9.2,0,0,RGP Craft,0410059536,,03LD015147,6781073611,,Android, 3.1.38,,,,,,
6/20/2018,3:16:54.53 PM,0m 1.8s,1.8,39.9612026,-106.21645755,0,0,0.3,8128,0,0,0,0,0,0,0,0,1.4,-4.8,-145.5,214.5,P-GPS,Auto Fly,Takeoff (App Auto),17,5,True,,Inspire 1,True,False,,Smart,RC,False,True,False,,Other (230),True,,False,False,False,False,True,False,False,False,False,False,0,FPV,0,0,-145.4,214.6,False,False,False,False,False,False,,True,Normal,,,1024,1024,1024,1024,2,False,False,False,False,False,0,False,False,False,False,98,25.799,4115,4199,25.658,False,4.298,4.302,4.303,4.305,4.305,4.295,0.01,False,False,64.702,59.3,59.3,59.3,0,0,0,19,14,0.0,0.00,,Idle,0,30,False,10,True,10,Go Home,39.96120269,-106.21645688,0.3,8154.5,,True,1,1,False,False,False,False,0,True,False,False,Course Lock,65.6,,,Calm,13,Android, 3.1.38,RGP Craft,0410059536,,03LD015147,6781073611,199.307,7175.5,183.4,51.1,9.2,0,0,RGP Craft,0410059536,,03LD015147,6781073611,,Android, 3.1.38,,,,,,
6/20/2018,3:16:54.64 PM,0m 1.9s,1.9,39.9612026,-106.21645755,0,0,0.3,8128,0,0,0,0,0,0,0,0,1.4,-4.8,-145.5,214.5,P-GPS,Auto Fly,Takeoff (App Auto),17,5,True,,Inspire 1,True,False,,Smart,RC,False,True,False,,Other (230),True,,False,False,False,False,True,False,False,False,False,False,0,FPV,0,0,-145.4,214.6,False,False,False,False,False,False,,True,Normal,,,1024,1024,1024,1024,2,False,False,False,False,False,0,False,False,False,False,98,25.799,4115,4199,25.658,False,4.298,4.302,4.303,4.305,4.305,4.295,0.01,False,False,64.702,59.3,59.3,59.3,0,0,0,19,14,0.0,0.00,,Idle,0,30,False,10,True,10,Go Home,39.96120269,-106.21645688,0.3,8154.5,,True,1,1,False,False,False,False,0,True,False,False,Course Lock,65.6,,,Calm,13,Android, 3.1.38,RGP Craft,0410059536,,03LD015147,6781073611,199.307,7175.5,183.4,51.1,9.2,0,0,RGP Craft,0410059536,,03LD015147,6781073611,,Android, 3.1.38,,,,,,
6/20/2018,3:16:54.74 PM,0m 2.0s,2.0,39.9612025,-106.21645756,0,0,0.3,8128,0,0,0,0,0,0,0,0,1.4,-4.8,-145.5,214.5,Auto Takeoff,Auto Fly,Takeoff (App Auto),17,5,True,,Inspire 1,True,False,,Smart,RC,False,True,False,,Other (230),True,,False,False,False,False,True,False,False,False,False,False,0,FPV,0,0,-145.4,214.6,False,False,False,False,False,False,,True,Normal,,,1024,1024,1024,1024,2,False,False,False,False,False,0,False,False,False,False,98,25.799,4115,4199,25.658,False,4.298,4.302,4.303,4.305,4.305,4.295,0.01,False,False,64.702,59.3,59.3,59.3,0,0,0,19,14,0.0,0.00,,Idle,0,30,False,10,True,10,Go Home,39.96120269,-106.21645688,0.4,8154.5,,True,1,1,False,False,False,False,0,True,False,False,Course Lock,65.6,,,Calm,13,Android, 3.1.38,RGP Craft,0410059536,,03LD015147,6781073611,199.307,7175.5,183.4,51.1,9.2,0,0,RGP Craft,0410059536,,03LD015147,6781073611,,Android, 3.1.38,,,,,,Battery temperature is below 15 degrees Celsius. Warm up the battery temperature to above 25 degree Celsius to ensure a safe flight.
6/20/2018,3:16:54.84 PM,0m 2.1s,2.1,39.9612025,-106.21645755,0,0,0.3,8128,0,0,0,0,0,0,0,0,1.4,-4.8,-145.5,214.5,Auto Takeoff,Auto Fly,Takeoff (App Auto),17,5,True,,Inspire 1,True,False,,Smart,RC,False,True,False,,Other (230),True,,False,False,False,False,True,False,False,False,False,False,0,FPV,0,0,-145.4,214.6,False,False,False,False,False,False,,True,Normal,,,1024,1024,1024,1024,2,False,False,False,False,False,0,False,False,False,False,98,25.799,4115,4199,25.658,False,4.298,4.302,4.303,4.305,4.305,4.295,0.01,False,False,64.702,59.3,59.3,59.3,0,0,0,19,14,0.0,0.00,,Idle,0,30,False,10,True,10,Go Home,39.96120269,-106.21645688,0.4,8154.5,,True,1,1,False,False,False,False,0,True,False,False,Course Lock,65.6,,,Calm,13,Android, 3.1.38,RGP Craft,0410059536,,03LD015147,6781073611,199.307,7175.5,183.4,51.1,9.2,0,0,RGP Craft,0410059536,,03LD015147,6781073611,,Android, 3.1.38,,,,RTH Altitude: 65FT.,,
6/20/2018,3:16:54.94 PM,0m 2.2s,2.2,39.9612025,-106.21645764,0,0,0.3,8128,0,0,0,0,0,0,0,0,1.3,-4.8,-145.6,214.4,Auto Takeoff,Auto Fly,Takeoff (App Auto),17,5,True,,Inspire 1,True,False,,Smart,RC,False,True,False,,Other (230),True,,False,False,False,False,True,False,False,False,False,False,0,FPV,0,0,-145.4,214.6,False,False,False,False,False,False,,True,Normal,,,1024,1024,1024,1024,2,False,False,False,False,False,0,False,False,False,False,98,25.799,4115,4199,25.658,False,4.298,4.302,4.303,4.305,4.305,4.295,0.01,False,False,64.702,59.3,59.3,59.3,0,0,0,19,14,0.0,0.00,,Idle,0,30,False,10,True,10,Go Home,39.96120269,-106.21645688,0.4,8154.5,,True,1,1,False,False,False,False,0,True,False,False,Course Lock,65.6,,,Calm,13,Android, 3.1.38,RGP Craft,0410059536,,03LD015147,6781073611,199.307,7175.5,183.4,51.1,9.2,0,0,RGP Craft,0410059536,,03LD015147,6781073611,,Android, 3.1.38,,,,,Taking off.,
6/20/2018,3:16:55.04 PM,0m 2.3s,2.3,39.9612025,-106.21645762,0,0,0.3,8128,0,0,0,0,0,0,0,0,1.3,-4.8,-145.7,214.3,Auto Takeoff,Auto Fly,Takeoff (App Auto),17,5,True,,Inspire 1,True,False,,Smart,RC,False,True,False,,Other (28),True,,False,False,False,False,True,False,False,False,False,False,0,FPV,0,0,-145.4,214.6,False,False,False,False,False,False,,True,Normal,,,1024,1024,1024,1024,2,False,False,False,False,False,0,False,False,False,False,98,25.799,4115,4199,25.468,False,4.299,4.301,4.298,4.305,4.298,4.29,0.015,False,False,64.702,59.3,59.3,59.3,0,0,0,19,14,0.0,0.00,,Idle,0,30,False,10,True,10,Go Home,39.96120269,-106.21645688,0.4,8154.5,,True,1,1,False,False,False,False,0,True,False,False,Course Lock,65.6,,,Calm,13,Android, 3.1.38,RGP Craft,0410059536,,03LD015147,6781073611,199.307,7175.5,183.4,51.1,9.2,0,0,RGP Craft,0410059536,,03LD015147,6781073611,,Android, 3.1.38,,,,,,
6/20/2018,3:16:55.15 PM,0m 2.4s,2.4,39.9612024,-106.21645762,0,0,0.3,8128,0,0,0,0,0,0,0,0,1.3,-4.8,-145.6,214.4,Auto Takeoff,Auto Fly,Takeoff (App Auto),17,5,True,,Inspire 1,True,False,,Smart,RC,False,True,False,,Other (28),True,,False,False,False,False,True,False,False,False,False,False,0,FPV,0,0,-145.4,214.6,False,False,False,False,False,False,,True,Normal,,,1024,1024,1024,1024,2,False,False,False,False,False,0,False,False,False,False,98,25.799,4115,4199,25.468,False,4.299,4.301,4.298,4.305,4.298,4.29,0.015,False,False,64.702,59.3,59.3,59.3,0,0,0,19,14,0.0,0.00,,Idle,0,30,False,10,True,10,Go Home,39.96120269,-106.21645688,0.4,8154.5,,True,1,1,False,False,False,False,0,True,False,False,Course Lock,65.6,,,Calm,13,Android, 3.1.38,RGP Craft,0410059536,,03LD015147,6781073611,199.307,7175.5,183.4,51.1,9.2,0,0,RGP Craft,0410059536,,03LD015147,6781073611,,Android, 3.1.38,,,,,,
6/20/2018,3:16:55.25 PM,0m 2.5s,2.5,39.96120239,-106.21645761,0,0,0.3,8128,0,0,0,0,0,0,0,0,1.2,-4.8,-145.6,214.4,Auto Takeoff,Auto Fly,Takeoff (App Auto),17,5,True,,Inspire 1,True,False,,Smart,RC,False,True,False,,Other (28),True,,False,False,False,False,True,False,False,False,False,False,0,FPV,0,0,-145.4,214.6,False,False,False,False,False,False,,True,Normal,,,1024,1024,1024,1024,2,False,False,False,False,False,0,False,False,False,False,98,25.799,4115,4199,25.468,False,4.299,4.301,4.298,4.305,4.298,4.29,0.015,False,False,64.702,59.3,59.3,59.3,0,0,0,19,14,0.0,0.00,,Idle,0,30,False,10,True,10,Go Home,39.96120269,-106.21645688,0.4,8154.5,,True,1,1,False,False,False,False,0,True,False,False,Course Lock,65.6,,,Calm,13,Android, 3.1.38,RGP Craft,0410059536,,03LD015147,6781073611,199.307,7175.5,183.4,51.1,9.2,0,0,RGP Craft,0410059536,,03LD015147,6781073611,,Android, 3.1.38,,,,,,
6/20/2018,3:16:55.35 PM,0m 2.6s,2.6,39.96120237,-106.2164576,0,0,0.3,8128,0,0,0,0,0,0,0,0,1.2,-4.9,-145.6,214.4,Auto Takeoff,Auto Fly,Takeoff (App Auto),17,5,True,,Inspire 1,True,False,,Smart,RC,False,True,False,,Other (28),True,,False,False,False,False,True,False,False,False,False,False,0,FPV,0,0,-145.4,214.6,False,False,False,False,False,False,,True,Normal,,,1024,1024,1024,1024,2,False,False,False,False,False,0,False,False,False,False,98,25.799,4115,4199,25.468,False,4.299,4.301,4.298,4.305,4.298,4.29,0.015,False,False,64.702,59.3,59.3,59.3,0,0,0,19,14,0.0,0.00,,Idle,0,30,False,10,True,10,Go Home,39.96120269,-106.21645688,0.3,8154.5,,True,1,1,False,False,False,False,0,True,False,False,Course Lock,65.6,,,Calm,13,Android, 3.1.38,RGP Craft,0410059536,,03LD015147,6781073611,199.307,7175.5,183.4,51.1,9.2,0,0,RGP Craft,0410059536,,03LD015147,6781073611,,Android, 3.1.38,,,,,,
6/20/2018,3:16:55.45 PM,0m 2.7s,2.7,39.96120236,-106.21645759,0,0,0.3,8128,0,0,0,0,0,0,0,0,1.1,-4.9,-145.7,214.3,Auto Takeoff,Auto Fly,Takeoff (App Auto),17,5,True,,Inspire 1,True,False,,Smart,RC,False,True,False,,Other (28),True,,False,False,False,False,True,False,False,False,False,False,0,FPV,0,0,-145.4,214.6,False,False,False,False,False,False,,True,Normal,,,1024,1024,1024,1024,2,False,False,False,False,False,0,False,False,False,False,98,25.799,4115,4199,25.468,False,4.299,4.301,4.298,4.305,4.298,4.29,0.015,False,False,64.702,59.3,59.3,59.3,0,0,0,19,14,0.0,0.00,,Idle,0,30,False,10,True,10,Go Home,39.96120269,-106.21645688,0.4,8154.5,,True,1,1,False,False,False,False,0,True,False,False,Course Lock,65.6,,,Calm,13,Android, 3.1.38,RGP Craft,0410059536,,03LD015147,6781073611,199.307,7175.5,183.4,51.1,9.2,0,0,RGP Craft,0410059536,,03LD015147,6781073611,,Android, 3.1.38,,,,,,
6/20/2018,3:16:55.56 PM,0m 2.8s,2.8,39.96120223,-106.21645766,0,0,0.3,8128,0,0,0,0,0,0,0,0,1,-4.9,-145.8,214.2,Auto Takeoff,Auto Fly,Takeoff (App Auto),17,5,True,,Inspire 1,True,False,,Smart,RC,False,True,False,,Other (28),True,,False,False,False,False,True,False,False,False,False,False,0,FPV,0,0,-145.4,214.6,False,False,False,False,False,False,,True,Normal,,,1024,1024,1024,1024,2,False,False,False,False,False,0,False,False,False,False,98,25.799,4115,4199,25.468,False,4.299,4.301,4.298,4.305,4.298,4.29,0.015,False,False,64.702,59.3,59.3,59.3,0,0,0,19,14,0.0,0.00,,Idle,0,30,False,10,True,10,Go Home,39.96120269,-106.21645688,0.4,8154.5,,True,1,1,False,False,False,False,0,True,False,False,Course Lock,65.6,,,Calm,13,Android, 3.1.38,RGP Craft,0410059536,,03LD015147,6781073611,199.307,7175.5,183.4,51.1,9.2,0,0,RGP Craft,0410059536,,03LD015147,6781073611,,Android, 3.1.38,,,,,,
6/20/2018,3:16:55.66 PM,0m 2.9s,2.9,39.96120221,-106.21645762,0,0,0.3,8128,0,0,0,0,0,0,0,0,0.7,-4.9,-145.7,214.3,Auto Takeoff,Auto Fly,Takeoff (App Auto),17,5,True,,Inspire 1,True,False,,Smart,RC,False,True,False,,Other (28),True,,False,False,False,False,True,False,False,False,False,False,0,FPV,0,0,-145.4,214.6,False,False,False,False,False,False,,True,Normal,,,1024,1024,1024,1024,2,False,False,False,False,False,0,False,False,False,False,98,25.799,4115,4199,25.468,False,4.299,4.301,4.298,4.305,4.298,4.29,0.015,False,False,64.702,59.3,59.3,59.3,0,0,0,19,14,0.0,0.00,,Idle,0,30,False,10,True,10,Go Home,39.96120269,-106.21645688,0.4,8154.5,,True,1,1,False,False,False,False,0,True,False,False,Course Lock,65.6,,,Calm,13,Android, 3.1.38,RGP Craft,0410059536,,03LD015147,6781073611,199.307,7175.5,183.4,51.1,9.2,0,0,RGP Craft,0410059536,,03LD015147,6781073611,,Android, 3.1.38,,,,,,
6/20/2018,3:16:55.76 PM,0m 3.0s,3.0,39.96120213,-106.21645751,0,0,0.3,8128,0,0,-0.2,0,0.2,0.2,0,0,0.5,-4.8,-145.4,214.6,Auto Takeoff,Auto Fly,Takeoff (App Auto),17,5,True,,Inspire 1,True,False,,Smart,RC,False,True,False,,Other (28),True,,False,False,False,False,True,False,False,False,False,False,0,FPV,0,0,-145.4,214.6,False,False,False,False,False,False,,True,Normal,,,1024,1024,1024,1024,2,False,False,False,False,False,0,False,False,False,False,98,25.799,4115,4199,25.468,False,4.299,4.301,4.298,4.305,4.298,4.29,0.015,False,False,64.702,59.3,59.3,59.3,0,0,0,19,14,0.0,0.00,,Idle,0,30,False,10,True,10,Go Home,39.96120269,-106.21645688,0.4,8154.5,,True,1,1,False,False,False,False,0,True,False,False,Course Lock,65.6,,,Calm,13,Android, 3.1.38,RGP Craft,0410059536,,03LD015147,6781073611,199.307,7175.5,183.4,51.1,9.2,0,0,RGP Craft,0410059536,,03LD015147,6781073611,,Android, 3.1.38,,,,,,
6/20/2018,3:16:55.86 PM,0m 3.1s,3.1,39.96120202,-106.21645735,0,0,0.3,8128,0,0,-0.2,0,0.5,0.5,-0.2,0,0,-4.4,-145,215,Auto Takeoff,Auto Fly,Takeoff (App Auto),17,5,True,,Inspire 1,True,False,,Smart,RC,False,True,False,,Other (28),True,,False,False,False,False,True,False,False,False,False,False,0,FPV,0,0,-145.4,214.6,False,False,False,False,False,False,,True,Normal,,,1024,1024,1024,1024,2,False,False,False,False,False,0,False,False,False,False,98,25.799,4115,4199,25.468,False,4.299,4.301,4.298,4.305,4.298,4.29,0.015,False,False,64.702,59.3,59.3,59.3,0,0,0,19,14,0.0,0.00,,Idle,0,30,False,10,True,10,Go Home,39.96120269,-106.21645688,0.0,8154.5,,True,1,1,False,False,False,False,0,True,False,False,Course Lock,65.6,,,Calm,13,Android, 3.1.38,RGP Craft,0410059536,,03LD015147,6781073611,199.307,7175.5,183.4,51.1,9.2,0,0,RGP Craft,0410059536,,03LD015147,6781073611,,Android, 3.1.38,,,,,,
6/20/2018,3:16:55.96 PM,0m 3.2s,3.2,39.96120165,-106.21645703,0,0,0.3,8128,1.5,1.5,-0.5,0,0.5,0.5,-0.5,0,-0.9,-4,-144.7,215.3,Auto Takeoff,Auto Fly,Takeoff (App Auto),17,5,True,,Inspire 1,True,False,,Smart,RC,False,True,False,,Other (28),True,,False,False,False,False,True,False,False,False,False,False,0,FPV,0,0,-145.4,214.6,False,False,False,False,False,False,,True,Normal,,,1024,1024,1024,1024,2,False,False,False,False,False,0,False,False,False,False,98,25.799,4115,4199,25.468,False,4.299,4.301,4.298,4.305,4.298,4.29,0.015,False,False,64.702,59.3,59.3,59.3,0,0,0,19,14,0.0,0.00,,Idle,0,30,False,10,True,10,Go Home,39.96120269,-106.21645688,0.4,8154.5,,True,1,1,False,False,False,False,0,True,False,False,Course Lock,65.6,,,Calm,13,Android, 3.1.38,RGP Craft,0410059536,,03LD015147,6781073611,199.307,7175.5,183.4,51.1,9.2,0,0,RGP Craft,0410059536,,03LD015147,6781073611,,Android, 3.1.38,,,,,,
6/20/2018,3:16:56.07 PM,0m 3.3s,3.3,39.96120134,-106.21645667,0,0,0.3,8128,1.1,1.5,-0.7,0,0.7,0.7,-0.5,0,-2.1,-3.3,-144.4,215.6,Auto Takeoff,Auto Fly,Takeoff (App Auto),17,5,True,,Inspire 1,True,False,,Smart,RC,False,True,False,,Other (83),True,,False,False,False,False,True,False,False,False,False,False,0,FPV,0,0,-145.4,214.6,False,False,False,False,False,False,,True,Normal,,,1024,1024,1024,1024,2,False,False,False,False,False,0,False,False,False,False,98,25.751,4115,4199,24.328,False,4.288,4.29,4.293,4.295,4.294,4.286,0.015,False,False,64.413,59.3,59.3,59.3,0,0,0,19,14,0.0,0.00,,Idle,0,30,False,10,True,10,Go Home,39.96120269,-106.21645688,0.4,8154.5,,True,1,1,False,False,False,False,0,True,False,False,Course Lock,65.6,,,Calm,13,Android, 3.1.38,RGP Craft,0410059536,,03LD015147,6781073611,199.307,7175.5,183.4,51.1,9.2,0,0,RGP Craft,0410059536,,03LD015147,6781073611,,Android, 3.1.38,,,,,,
6/20/2018,3:16:56.18 PM,0m 3.4s,3.4,39.96120078,-106.21645625,0,0,0.7,8128,1.5,1.5,-0.9,0,0.7,0.7,-0.7,0,-2.8,-2,-144.3,215.7,Auto Takeoff,Auto Fly,Takeoff (App Auto),17,5,True,,Inspire 1,True,False,,Smart,RC,False,True,False,,Other (83),True,,False,False,False,False,True,False,False,False,False,False,0,FPV,0,0,-145.4,214.6,False,False,False,False,False,False,,True,Normal,,,1024,1024,1024,1024,2,False,False,False,False,False,0,False,False,False,False,98,25.751,4115,4199,24.328,False,4.288,4.29,4.293,4.295,4.294,4.286,0.015,False,False,64.413,59.3,59.3,59.3,0,0,0,19,14,0.0,0.00,,Idle,0,30,False,10,True,10,Go Home,39.96120269,-106.21645688,0.8,8154.5,,True,1,1,False,False,False,False,0,True,False,False,Course Lock,65.6,,,Calm,13,Android, 3.1.38,RGP Craft,0410059536,,03LD015147,6781073611,199.307,7175.5,183.4,51.1,9.2,0,0,RGP Craft,0410059536,,03LD015147,6781073611,,Android, 3.1.38,,,,,,
6/20/2018,3:16:56.28 PM,0m 3.5s,3.5,39.96120029,-106.21645586,0.3,0.3,0.7,8128,1.5,1.5,-1.1,0,0.7,0.7,-0.7,0,-3.1,-0.3,-144.4,215.6,Auto Takeoff,Auto Fly,Takeoff (App Auto),17,5,True,,Inspire 1,True,False,,Smart,RC,False,True,False,,Other (83),True,,False,False,False,False,True,False,False,False,False,False,0,FPV,0,0,-145.4,214.6,False,False,False,False,False,False,,True,Normal,,,1024,1024,1024,1024,2,False,False,False,False,False,0,False,False,False,False,98,25.751,4115,4199,24.328,False,4.288,4.29,4.293,4.295,4.294,4.286,0.015,False,False,64.413,59.3,59.3,59.3,0,0,0,19,14,0.0,0.00,,Idle,0,30,False,10,True,10,Go Home,39.96120269,-106.21645688,1.0,8154.5,,True,1,1,False,False,False,False,0,True,False,False,Course Lock,65.6,,,Calm,13,Android, 3.1.38,RGP Craft,0410059536,,03LD015147,6781073611,199.307,7175.5,183.4,51.1,9.2,0,0,RGP Craft,0410059536,,03LD015147,6781073611,,Android, 3.1.38,,,,,,
6/20/2018,3:16:56.38 PM,0m 3.6s,3.6,39.96119956,-106.21645552,0.3,0.3,0.7,8128,2.1,2.1,-1.3,0,0.7,0.7,-0.9,0,-2.4,1.1,-144.5,215.5,Auto Takeoff,Auto Fly,Takeoff (App Auto),17,5,True,,Inspire 1,True,False,,Smart,RC,False,True,False,,Other (83),True,,False,False,False,False,True,False,False,False,False,False,0,FPV,0,0,-145.4,214.6,False,False,False,False,False,False,,True,Normal,,,1024,1024,1024,1024,2,False,False,False,False,False,0,False,False,False,False,98,25.751,4115,4199,24.328,False,4.288,4.29,4.293,4.295,4.294,4.286,0.015,False,False,64.413,59.3,59.3,59.3,0,0,0,19,14,0.0,0.00,,Idle,0,30,False,10,True,10,Go Home,39.96120269,-106.21645688,1.2,8154.5,,True,1,1,False,False,False,False,0,True,False,False,Course Lock,65.6,,,Calm,13,Android, 3.1.38,RGP Craft,0410059536,,03LD015147,6781073611,199.307,7175.5,183.4,51.1,9.2,0,0,RGP Craft,0410059536,,03LD015147,6781073611,,Android, 3.1.38,,,,,,
6/20/2018,3:16:56.48 PM,0m 3.7s,3.7,39.96119898,-106.21645517,0.3,0.3,1.0,8128,2.1,2.1,-1.3,0,0.5,0.7,-0.9,0,-1.2,2.4,-144.6,215.4,Auto Takeoff,Auto Fly,Takeoff (App Auto),17,5,True,,Inspire 1,True,False,,Smart,RC,False,True,False,,Other (83),True,,False,False,False,False,True,False,False,False,False,False,0,FPV,0,0,-145.4,214.6,False,False,False,False,False,False,,True,Normal,,,1024,1024,1024,1024,2,False,False,False,False,False,0,False,False,False,False,98,25.751,4115,4199,24.328,False,4.288,4.29,4.293,4.295,4.294,4.286,0.015,False,False,64.413,59.3,59.3,59.3,0,0,0,19,14,0.0,0.00,,Idle,0,30,False,10,True,10,Go Home,39.96120269,-106.21645688,1.4,8154.5,,True,1,1,False,False,False,False,0,True,False,False,Course Lock,65.6,,,Calm,13,Android, 3.1.38,RGP Craft,0410059536,,03LD015147,6781073611,199.307,7175.5,183.4,51.1,9.2,0,0,RGP Craft,0410059536,,03LD015147,6781073611,,Android, 3.1.38,,,,,,
6/20/2018,3:16:56.58 PM,0m 3.8s,3.8,39.96119821,-106.21645505,0.7,0.7,1.0,8129,1.8,2.1,-1.3,0,0.5,0.7,-0.7,0,0,3.4,-144.6,215.4,Auto Takeoff,Auto Fly,Takeoff (App Auto),17,5,True,,Inspire 1,True,False,,Smart,RC,False,True,False,,Other (83),True,,False,False,False,False,True,False,False,False,False,False,0,FPV,0,0,-145.4,214.6,False,False,False,False,False,False,,True,Normal,,,1024,1024,1024,1024,2,False,False,False,False,False,0,False,False,False,False,98,25.751,4115,4199,24.328,False,4.288,4.29,4.293,4.295,4.294,4.286,0.015,False,False,64.413,59.3,59.3,59.3,0,0,0,19,14,0.0,0.00,,Idle,0,30,False,10,True,10,Go Home,39.96120269,-106.21645688,1.7,8154.5,,True,1,1,False,False,False,False,0,True,False,False,Course Lock,65.6,,,Calm,13,Android, 3.1.38,RGP Craft,0410059536,,03LD015147,6781073611,199.307,7175.5,183.4,51.1,9.2,0,0,RGP Craft,0410059536,,03LD015147,6781073611,,Android, 3.1.38,,,,,,
6/20/2018,3:16:56.69 PM,0m 3.9s,3.9,39.96119762,-106.21645481,0.7,0.7,1.0,8129,1.8,2.1,-1.3,0,0.2,0.7,-0.7,0,1.2,4.6,-144.4,215.6,Auto Takeoff,Auto Fly,Takeoff (App Auto),17,5,True,,Inspire 1,True,False,,Smart,RC,False,True,False,,Other (83),True,,False,False,False,False,True,False,False,False,False,False,0,FPV,0,0,-145.4,214.6,False,False,False,False,False,False,,True,Normal,,,1024,1024,1024,1024,2,False,False,False,False,False,0,False,False,False,False,98,25.751,4115,4199,24.328,False,4.288,4.29,4.293,4.295,4.294,4.286,0.015,False,False,64.413,59.3,59.3,59.3,0,0,0,19,14,0.0,0.00,,Idle,0,30,False,10,True,10,Go Home,39.96120269,-106.21645688,1.9,8154.5,,True,1,1,False,False,False,False,0,True,False,False,Course Lock,65.6,,,Calm,13,Android, 3.1.38,RGP Craft,0410059536,,03LD015147,6781073611,199.307,7175.5,183.4,51.1,9.2,0,0,RGP Craft,0410059536,,03LD015147,6781073611,,Android, 3.1.38,,,,,,
6/20/2018,3:16:56.79 PM,0m 4.0s,4.0,39.961197,-106.21645503,0.7,0.7,1.0,8129,1.5,2.1,-1.1,0,0,0.7,-0.7,0,2.2,5.7,-144.4,215.6,Auto Takeoff,Auto Fly,Takeoff (App Auto),17,5,True,,Inspire 1,True,False,,Smart,RC,False,True,False,,Other (83),True,,False,False,False,False,True,False,False,False,False,False,0,FPV,0,0,-145.4,214.6,False,False,False,False,False,False,,True,Normal,,,1024,1024,1024,1024,2,False,False,False,False,False,0,False,False,False,False,98,25.751,4115,4199,24.328,False,4.288,4.29,4.293,4.295,4.294,4.286,0.015,False,False,64.413,59.3,59.3,59.3,0,0,0,19,14,0.0,0.00,,Idle,0,30,False,10,True,10,Go Home,39.96120269,-106.21645688,2.2,8154.5,,True,1,1,False,False,False,False,0,True,False,False,Course Lock,65.6,,,Calm,13,Android, 3.1.38,RGP Craft,0410059536,,03LD015147,6781073611,199.307,7175.5,183.4,51.1,9.2,0,0,RGP Craft,0410059536,,03LD015147,6781073611,,Android, 3.1.38,,,,,,
6/20/2018,3:16:56.89 PM,0m 4.1s,4.1,39.96119653,-106.2164551,0.7,0.7,1.3,8129,1.5,2.1,-0.9,0,0,0.7,-0.7,0,2.9,5.8,-144.5,215.5,Auto Takeoff,Auto Fly,Takeoff (App Auto),17,5,True,,Inspire 1,True,False,,Smart,RC,False,True,False,,Other (83),True,,False,False,False,False,True,False,False,False,False,False,0,FPV,0,0,-145.4,214.6,False,False,False,False,False,False,,True,Normal,,,1024,1024,1024,1024,2,False,False,False,False,False,0,False,False,False,False,98,25.751,4115,4199,24.328,False,4.288,4.29,4.293,4.295,4.294,4.286,0.015,False,False,64.413,59.3,59.3,59.3,0,0,0,19,14,0.0,0.00,,Idle,0,30,False,10,True,10,Go Home,39.96120269,-106.21645688,2.3,8154.5,,True,1,1,False,False,False,False,0,True,False,False,Course Lock,65.6,,,Calm,13,Android, 3.1.38,RGP Craft,0410059536,,03LD015147,6781073611,199.307,7175.5,183.4,51.1,9.2,0,0,RGP Craft,0410059536,,03LD015147,6781073611,,Android, 3.1.38,,,,,,
6/20/2018,3:16:56.99 PM,0m 4.2s,4.2,39.96119608,-106.21645518,1.0,1.0,1.3,8129,1.5,2.1,-0.9,0,0,0.7,-0.7,0,3.1,5,-144.7,215.3,Auto Takeoff,Auto Fly,Takeoff (App Auto),17,5,True,,Inspire 1,True,False,,Smart,RC,False,True,False,,Other (83),True,,False,False,False,False,True,False,False,False,False,False,0,FPV,0,0,-145.4,214.6,False,False,False,False,False,False,,True,Normal,,,1024,1024,1024,1024,2,False,False,False,False,False,0,False,False,False,False,98,25.751,4115,4199,24.328,False,4.288,4.29,4.293,4.295,4.294,4.286,0.015,False,False,64.413,59.3,59.3,59.3,0,0,0,19,14,0.0,0.00,,Idle,0,30,False,10,True,10,Go Home,39.96120269,-106.21645688,2.5,8154.5,,True,1,1,False,False,False,False,0,True,False,False,Course Lock,65.6,,,Calm,13,Android, 3.1.38,RGP Craft,0410059536,,03LD015147,6781073611,199.307,7175.5,183.4,51.1,9.2,0,0,RGP Craft,0410059536,,03LD015147,6781073611,,Android, 3.1.38,,,,,,
6/20/2018,3:16:57.09 PM,0m 4.3s,4.3,39.96119574,-106.2164552,1.0,1.0,1.6,8129,1.5,2.1,-0.7,0,0,0.7,-0.9,0,2.7,4.4,-144.8,215.2,Auto Takeoff,Auto Fly,Takeoff (App Auto),17,5,True,,Inspire 1,True,False,,Smart,RC,False,True,False,,Other (137),True,,False,False,False,False,True,False,False,False,False,False,0,FPV,0,0,-145.4,214.6,False,False,False,False,False,False,,True,Normal,,,1024,1024,1024,1024,2,False,False,False,False,False,0,False,False,False,False,98,25.474,4115,4199,23.463,False,4.164,4.102,4.266,4.282,4.253,4.266,0.18,True,False,60.397,59.3,59.3,59.3,0,0,0,19,14,0.0,0.00,,Idle,0,30,False,10,True,10,Go Home,39.96120269,-106.21645688,2.6,8154.5,,True,1,1,False,False,False,False,0,True,False,False,Course Lock,65.6,,,Calm,13,Android, 3.1.38,RGP Craft,0410059536,,03LD015147,6781073611,199.307,7175.5,183.4,51.1,9.2,0,0,RGP Craft,0410059536,,03LD015147,6781073611,,Android, 3.1.38,,,,,,
6/20/2018,3:16:57.20 PM,0m 4.4s,4.4,39.96119566,-106.21645551,1.3,1.3,1.6,8129,0,2.1,-0.5,0,0,0.7,-0.7,0,2,3.3,-145.1,214.9,Auto Takeoff,Auto Fly,Takeoff (App Auto),17,5,True,,Inspire 1,True,False,,Smart,RC,False,True,False,,Other (137),True,,False,False,False,False,True,False,False,False,False,False,0,FPV,0,0,-145.4,214.6,False,False,False,False,False,False,,True,Normal,,,1024,1024,1024,1024,2,False,False,False,False,False,0,False,False,False,False,98,25.474,4115,4199,23.463,False,4.164,4.102,4.266,4.282,4.253,4.266,0.18,True,False,60.397,59.3,59.3,59.3,0,0,0,19,14,0.0,0.00,,Idle,0,30,False,10,True,10,Go Home,39.96120269,-106.21645688,2.6,8154.5,,True,1,1,False,False,False,False,0,True,False,False,Course Lock,65.6,,,Calm,13,Android, 3.1.38,RGP Craft,0410059536,,03LD015147,6781073611,199.307,7175.5,183.4,51.1,9.2,0,0,RGP Craft,0410059536,,03LD015147,6781073611,,Android, 3.1.38,,,,,,
6/20/2018,3:16:57.30 PM,0m 4.5s,4.5,39.96119543,-106.21645558,1.3,1.3,1.6,8129,0,2.1,-0.5,0,0,0.7,-0.7,0,1,2,-145.5,214.5,Auto Takeoff,Auto Fly,Takeoff (App Auto),17,5,True,,Inspire 1,True,False,,Smart,RC,False,True,False,,Other (137),True,,False,False,False,False,True,False,False,False,False,False,0,FPV,0,0,-145.4,214.6,False,False,False,False,False,False,,True,Normal,,,1024,1024,1024,1024,2,False,False,False,False,False,0,False,False,False,False,98,25.474,4115,4199,23.463,False,4.164,4.102,4.266,4.282,4.253,4.266,0.18,True,False,60.397,59.3,59.3,59.3,0,0,0,19,14,0.0,0.00,,Idle,0,30,False,10,True,10,Go Home,39.96120269,-106.21645688,2.7,8154.5,,True,1,1,False,False,False,False,0,True,False,False,Course Lock,65.6,,,Calm,13,Android, 3.1.38,RGP Craft,0410059536,,03LD015147,6781073611,199.307,7175.5,183.4,51.1,9.2,0,0,RGP Craft,0410059536,,03LD015147,6781073611,,Android, 3.1.38,,,,,,
6/20/2018,3:16:57.40 PM,0m 4.6s,4.6,39.96119526,-106.2164556,1.3,1.3,1.6,8129,0,2.1,-0.5,0,0,0.7,-0.7,0,0.2,1.8,-145.7,214.3,Auto Takeoff,Auto Fly,Takeoff (App Auto),17,5,True,,Inspire 1,True,False,,Smart,RC,False,True,False,,Other (137),True,,False,False,False,False,True,False,False,False,False,False,0,FPV,0,0,-145.4,214.6,False,False,False,False,False,False,,True,Normal,,,1024,1024,1024,1024,2,False,False,False,False,False,0,False,False,False,False,98,25.474,4115,4199,23.463,False,4.164,4.102,4.266,4.282,4.253,4.266,0.18,True,False,60.397,59.3,59.3,59.3,0,0,0,19,14,0.0,0.00,,Idle,0,30,False,10,True,10,Go Home,39.96120269,-106.21645688,2.8,8154.5,,True,1,1,False,False,False,False,0,True,False,False,Course Lock,65.6,,,Calm,13,Android, 3.1.38,RGP Craft,0410059536,,03LD015147,6781073611,199.307,7175.5,183.4,51.1,9.2,0,0,RGP Craft,0410059536,,03LD015147,6781073611,,Android, 3.1.38,,,,,,
6/20/2018,3:16:57.50 PM,0m 4.7s,4.7,39.96119508,-106.21645557,1.3,1.3,1.6,8129,0,2.1,-0.5,0,0,0.7,-0.7,0,-0.2,1.8,-145.8,214.2,Auto Takeoff,Auto Fly,Takeoff (App Auto),17,5,True,,Inspire 1,True,False,,Smart,RC,False,True,False,,Other (137),True,,False,False,False,False,True,False,False,False,False,False,0,FPV,0,0,-145.4,214.6,False,False,False,False,False,False,,True,Normal,,,1024,1024,1024,1024,2,False,False,False,False,False,0,False,False,False,False,98,25.474,4115,4199,23.463,False,4.164,4.102,4.266,4.282,4.253,4.266,0.18,True,False,60.397,59.3,59.3,59.3,0,0,0,19,14,0.0,0.00,,Idle,0,30,False,10,True,10,Go Home,39.96120269,-106.21645688,2.8,8154.5,,True,1,1,False,False,False,False,0,True,False,False,Course Lock,65.6,,,Calm,13,Android, 3.1.38,RGP Craft,0410059536,,03LD015147,6781073611,199.307,7175.5,183.4,51.1,9.2,0,0,RGP Craft,0410059536,,03LD015147,6781073611,,Android, 3.1.38,,,,,,
6/20/2018,3:16:57.61 PM,0m 4.8s,4.8,39.96119489,-106.21645581,1.3,1.3,1.6,8129,0,2.1,-0.5,0,0,0.7,-0.7,0,0.3,1.6,-145.7,214.3,Auto Takeoff,Auto Fly,Takeoff (App Auto),17,5,True,,Inspire 1,True,False,,Smart,RC,False,True,False,,Other (137),True,,False,False,False,False,True,False,False,False,False,False,0,FPV,0,0,-145.4,214.6,False,False,False,False,False,False,,True,Normal,,,1024,1024,1024,1024,2,False,False,False,False,False,0,False,False,False,False,98,25.474,4115,4199,23.463,False,4.164,4.102,4.266,4.282,4.253,4.266,0.18,True,False,60.397,59.3,59.3,59.3,0,0,0,19,14,0.0,0.00,,Idle,0,30,False,10,True,10,Go Home,39.96120269,-106.21645688,2.9,8154.5,,True,1,1,False,False,False,False,0,True,False,False,Course Lock,65.6,,,Calm,13,Android, 3.1.38,RGP Craft,0410059536,,03LD015147,6781073611,199.307,7175.5,183.4,51.1,9.2,0,0,RGP Craft,0410059536,,03LD015147,6781073611,,Android, 3.1.38,,,,,,
6/20/2018,3:16:57.71 PM,0m 4.9s,4.9,39.96119468,-106.21645592,1.6,1.6,2.0,8130,0,2.1,-0.5,0,-0.2,0.7,-0.9,0,1.3,1.4,-145.7,214.3,Auto Takeoff,Auto Fly,Takeoff (App Auto),17,5,True,,Inspire 1,True,False,,Smart,RC,False,True,False,,Other (137),True,,False,False,False,False,True,False,False,False,False,False,0,FPV,0,0,-145.4,214.6,False,False,False,False,False,False,,True,Normal,,,1024,1024,1024,1024,2,False,False,False,False,False,0,False,False,False,False,98,25.474,4115,4199,23.463,False,4.164,4.102,4.266,4.282,4.253,4.266,0.18,True,False,60.397,59.3,59.3,59.3,0,0,0,19,14,0.0,0.00,,Idle,0,30,False,10,True,10,Go Home,39.96120269,-106.21645688,3.0,8154.5,,True,1,1,False,False,False,False,0,True,False,False,Course Lock,65.6,,,Calm,13,Android, 3.1.38,RGP Craft,0410059536,,03LD015147,6781073611,199.307,7175.5,183.4,51.1,9.2,0,0,RGP Craft,0410059536,,03LD015147,6781073611,,Android, 3.1.38,,,,,,
6/20/2018,3:16:57.81 PM,0m 5.0s,5.0,39.96119454,-106.21645595,1.6,1.6,2.0,8130,0,2.1,-0.2,0,-0.2,0.7,-0.9,0,2.5,1.3,-145.8,214.2,Auto Takeoff,Auto Fly,Takeoff (App Auto),17,5,True,,Inspire 1,True,False,,Smart,RC,False,True,False,,Other (137),True,,False,False,False,False,True,False,False,False,False,False,0,FPV,0,0,-145.4,214.6,False,False,False,False,False,False,,True,Normal,,,1024,1024,1024,1024,2,False,False,False,False,False,0,False,False,False,False,98,25.474,4115,4199,23.463,False,4.164,4.102,4.266,4.282,4.253,4.266,0.18,True,False,60.397,59.3,59.3,59.3,0,0,0,19,14,0.0,0.00,,Idle,0,30,False,10,True,10,Go Home,39.96120269,-106.21645688,3.0,8154.5,,True,1,1,False,False,False,False,0,True,False,False,Course Lock,65.6,,,Calm,13,Android, 3.1.38,RGP Craft,0410059536,,03LD015147,6781073611,199.307,7175.5,183.4,51.1,9.2,0,0,RGP Craft,0410059536,,03LD015147,6781073611,,Android, 3.1.38,,,,,,
6/20/2018,3:16:57.91 PM,0m 5.1s,5.1,39.9611944,-106.21645608,2.0,2.0,2.3,8130,0,2.1,-0.2,0,-0.2,0.7,-0.9,0,3.1,1.7,-145.8,214.2,Auto Takeoff,Auto Fly,Takeoff (App Auto),17,5,True,,Inspire 1,True,False,,Smart,RC,False,True,False,,Other (137),True,,False,False,False,False,True,False,False,False,False,False,0,FPV,0,0.2,-145.4,214.6,False,False,False,False,False,False,,True,Normal,,,1098,1024,1024,1024,2,False,False,False,False,False,0,False,False,False,False,98,25.474,4115,4199,23.463,False,4.164,4.102,4.266,4.282,4.253,4.266,0.18,True,False,60.397,59.3,59.3,59.3,0,0,0,19,14,0.0,0.00,,Idle,0,30,False,10,True,10,Go Home,39.96120269,-106.21645688,3.1,8154.5,,True,1,1,False,False,False,False,0,True,False,False,Course Lock,65.6,,,Calm,13,Android, 3.1.38,RGP Craft,0410059536,,03LD015147,6781073611,199.307,7175.5,183.4,51.1,9.2,0,0,RGP Craft,0410059536,,03LD015147,6781073611,,Android, 3.1.38,,,,,,
6/20/2018,3:16:58.01 PM,0m 5.2s,5.2,39.96119419,-106.21645641,2.0,2.0,2.3,8130,0,2.1,-0.2,0,-0.2,0.7,-0.7,0,2.6,2.1,-145.6,214.4,Auto Takeoff,Auto Fly,Takeoff (App Auto),17,5,True,,Inspire 1,True,False,,Smart,RC,False,True,False,,Other (192),True,,False,False,False,False,True,False,False,False,False,False,0,FPV,0,3.4,-145.4,214.6,False,False,False,False,False,False,,True,Normal,,,1321,1024,1024,1024,2,False,False,False,False,False,0,False,False,False,False,98,25.474,4115,4199,23.463,False,4.164,4.102,4.266,4.282,4.253,4.266,0.18,True,False,60.397,59.3,59.3,59.3,0,0,0,19,14,0.0,0.00,,Idle,0,30,False,10,True,10,Go Home,39.96120269,-106.21645688,3.1,8154.5,,True,1,1,False,False,False,False,0,True,False,False,Course Lock,65.6,,,Calm,13,Android, 3.1.38,RGP Craft,0410059536,,03LD015147,6781073611,199.307,7175.5,183.4,51.1,9.2,0,0,RGP Craft,0410059536,,03LD015147,6781073611,,Android, 3.1.38,,,,,,
6/20/2018,3:16:58.12 PM,0m 5.3s,5.3,39.96119412,-106.21645661,2.0,2.0,2.3,8130,0,2.1,0,0,-0.5,0.7,-0.7,0,1.4,3.6,-145.2,214.8,Auto Takeoff,Auto Fly,Takeoff (App Auto),17,5,True,,Inspire 1,True,False,,Smart,RC,False,True,False,,Other (192),True,,False,False,False,False,True,False,False,False,False,False,0,FPV,0,5.4,-145.4,214.6,False,False,False,False,False,False,,True,Normal,,,1317,1024,1024,1024,2,False,False,False,False,False,0,False,False,False,False,98,23.881,4115,4199,23.218,False,3.944,3.958,3.966,3.984,4.1,4.109,0.18,True,False,51.569,59.3,59.3,59.3,0,0,0,19,14,0.0,1.43,,Idle,0,30,False,10,True,10,Go Home,39.96120269,-106.21645688,3.1,8154.5,,True,1,1,False,False,False,False,0,True,False,False,Course Lock,65.6,,,Calm,13,Android, 3.1.38,RGP Craft,0410059536,,03LD015147,6781073611,199.307,7175.5,183.4,51.1,9.2,0,0,RGP Craft,0410059536,,03LD015147,6781073611,,Android, 3.1.38,,,,,,
6/20/2018,3:16:58.22 PM,0m 5.4s,5.4,39.96119429,-106.21645699,2.0,2.0,2.3,8130,0,2.1,0,0,-0.7,0.7,-0.7,0,-0.3,9,-144.9,215.1,Auto Takeoff,Auto Fly,Takeoff (App Auto),17,5,True,,Inspire 1,True,False,,Smart,RC,False,True,False,,Other (192),True,,False,False,False,False,True,False,False,False,False,False,0,FPV,0,4.8,-145.4,214.6,False,False,False,False,False,False,,True,Normal,,,1222,1024,1024,1024,2,False,False,False,False,False,0,False,False,False,False,98,23.881,4115,4199,23.218,False,3.944,3.958,3.966,3.984,4.1,4.109,0.18,True,False,51.569,59.3,59.3,59.3,0,0,0,19,14,0.0,1.43,,Idle,0,30,False,10,True,10,Go Home,39.96120269,-106.21645688,3.1,8154.5,,True,1,1,False,False,False,False,0,True,False,False,Course Lock,65.6,,,Calm,13,Android, 3.1.38,RGP Craft,0410059536,,03LD015147,6781073611,199.307,7175.5,183.4,51.1,9.2,0,0,RGP Craft,0410059536,,03LD015147,6781073611,,Android, 3.1.38,,,,,,
6/20/2018,3:16:58.32 PM,0m 5.5s,5.5,39.96119438,-106.21645753,2.0,2.0,2.6,8130,0,2.1,0.2,0.2,-1.1,0.7,-0.7,0,-2,12.2,-144.6,215.4,Auto Takeoff,Auto Fly,Takeoff (App Auto),17,5,True,,Inspire 1,True,False,,Smart,RC,False,True,False,,Other (192),True,,False,False,False,False,True,False,False,False,False,False,0,FPV,0,2.1,-145.4,214.6,False,False,False,False,False,False,,True,Normal,,,1024,1024,1024,1024,2,False,False,False,False,False,0,False,False,False,False,98,23.881,4115,4199,23.218,False,3.944,3.958,3.966,3.984,4.1,4.109,0.18,True,False,51.569,59.3,59.3,59.3,0,0,0,19,14,0.0,1.43,,Idle,0,30,False,10,True,10,Go Home,39.96120269,-106.21645688,3.0,8154.5,,True,1,1,False,False,False,False,0,True,False,False,Course Lock,65.6,,,Calm,13,Android, 3.1.38,RGP Craft,0410059536,,03LD015147,6781073611,199.307,7175.5,183.4,51.1,9.2,0,0,RGP Craft,0410059536,,03LD015147,6781073611,,Android, 3.1.38,,,,,,
6/20/2018,3:16:58.42 PM,0m 5.6s,5.6,39.96119456,-106.21645842,2.3,2.3,2.6,8130,1.5,2.1,0.5,0.5,-1.6,0.7,-1.1,0,-3.7,10.3,-144.5,215.5,Auto Takeoff,Auto Fly,Takeoff (App Auto),17,5,True,,Inspire 1,True,False,,Smart,RC,False,True,False,,Other (192),True,,False,False,False,False,True,False,False,False,False,False,0,FPV,0,0.7,-145.4,214.6,False,False,False,False,False,False,,True,Normal,,,1024,1024,1024,1024,2,False,False,False,False,False,0,False,False,False,False,98,23.881,4115,4199,23.218,False,3.944,3.958,3.966,3.984,4.1,4.109,0.18,True,False,51.569,59.3,59.3,59.3,0,0,0,19,14,0.0,1.43,,Idle,0,30,False,10,True,10,Go Home,39.96120269,-106.21645688,3.0,8154.5,,True,1,1,False,False,False,False,0,True,False,False,Course Lock,65.6,,,Calm,13,Android, 3.1.38,RGP Craft,0410059536,,03LD015147,6781073611,199.307,7175.5,183.4,51.1,9.2,0,0,RGP Craft,0410059536,,03LD015147,6781073611,,Android, 3.1.38,,,,,,
6/20/2018,3:16:58.53 PM,0m 5.7s,5.7,39.96119475,-106.21645926,2.3,2.3,3.0,8130,1.5,2.1,0.2,0.5,-1.8,0.7,-1.1,0,-3.6,3.4,-144,216,Auto Takeoff,Auto Fly,Takeoff (App Auto),17,5,True,,Inspire 1,True,False,,Smart,RC,False,True,False,,Other (192),True,,False,False,False,False,True,False,False,False,False,False,0,FPV,0,0.2,-145.4,214.6,False,False,False,False,False,False,,True,Normal,,,1024,1024,1024,1024,2,False,False,False,False,False,0,False,False,False,False,98,23.881,4115,4199,23.218,False,3.944,3.958,3.966,3.984,4.1,4.109,0.18,True,False,51.569,59.3,59.3,59.3,0,0,0,19,14,0.0,1.43,,Idle,0,30,False,10,True,10,Go Home,39.96120269,-106.21645688,3.0,8154.5,,True,1,1,False,False,False,False,0,True,False,False,Course Lock,65.6,,,Calm,13,Android, 3.1.38,RGP Craft,0410059536,,03LD015147,6781073611,199.307,7175.5,183.4,51.1,9.2,0,0,RGP Craft,0410059536,,03LD015147,6781073611,,Android, 3.1.38,,,,,,
6/20/2018,3:16:58.63 PM,0m 5.9s,5.9,39.96119534,-106.2164616,2.6,2.6,3.0,8131,2.0,2.1,0,0.5,-1.8,0.7,-0.9,0,-1.2,-3,-143.2,216.8,Auto Takeoff,Auto Fly,Takeoff (App Auto),17,5,True,,Inspire 1,True,False,,Smart,RC,False,True,False,,Other (192),True,,False,False,False,False,True,False,False,False,False,False,0,FPV,0,0,-145.4,214.6,False,False,False,False,False,False,,True,Normal,,,1024,1024,1024,1024,2,False,False,False,False,False,0,False,False,False,False,98,23.881,4115,4199,23.218,False,3.944,3.958,3.966,3.984,4.1,4.109,0.18,True,False,51.569,59.3,59.3,59.3,0,0,0,19,14,0.0,1.43,,Idle,0,30,False,10,True,10,Go Home,39.96120269,-106.21645688,3.0,8154.5,,True,1,1,False,False,False,False,0,True,False,False,Course Lock,65.6,,,Calm,13,Android, 3.1.38,RGP Craft,0410059536,,03LD015147,6781073611,199.307,7175.5,183.4,51.1,9.2,0,0,RGP Craft,0410059536,,03LD015147,6781073611,,Android, 3.1.38,,,,,,
6/20/2018,3:16:58.73 PM,0m 6.0s,6.0,39.96119559,-106.21646269,2.6,2.6,3.3,8131,2.2,2.2,0,0.5,-1.8,0.7,-0.9,0,-0.3,-4.4,-143,217,Auto Takeoff,Auto Fly,Takeoff (App Auto),17,5,True,,Inspire 1,True,False,,Smart,RC,False,True,False,,Other (192),True,,False,False,False,False,True,False,False,False,False,False,0,FPV,0,0,-145.4,214.6,False,False,False,False,False,False,,True,Normal,,,1024,1024,1024,1024,2,False,False,False,False,False,0,False,False,False,False,98,23.881,4115,4199,23.218,False,3.944,3.958,3.966,3.984,4.1,4.109,0.18,True,False,51.569,59.3,59.3,59.3,0,0,0,19,14,0.0,1.43,,Idle,0,30,False,10,True,10,Go Home,39.96120269,-106.21645688,3.1,8154.5,,True,1,1,False,False,False,False,0,True,False,False,Course Lock,65.6,,,Calm,13,Android, 3.1.38,RGP Craft,0410059536,,03LD015147,6781073611,199.307,7175.5,183.4,51.1,9.2,0,0,RGP Craft,0410059536,,03LD015147,6781073611,,Android, 3.1.38,,,,,,
6/20/2018,3:16:58.83 PM,0m 6.0s,6.0,39.96119559,-106.21646269,2.6,2.6,3.3,8131,0,2.2,0,0.5,-1.8,0.7,-0.9,0,-0.3,-4.4,-143,217,Auto Takeoff,Auto Fly,Takeoff (App Auto),17,5,True,,Inspire 1,True,False,,Smart,RC,False,True,False,,Other (192),True,,False,False,False,False,True,False,False,False,False,False,0,FPV,0,0,-145.4,214.6,False,False,False,False,False,False,,True,Normal,,,1024,930,1024,1024,2,False,False,False,False,False,0,False,False,False,False,98,23.881,4115,4199,23.218,False,3.944,3.958,3.966,3.984,4.1,4.109,0.18,True,False,51.569,59.3,59.3,59.3,0,0,0,19,14,0.0,1.43,,Idle,0,30,False,10,True,10,Go Home,39.96120269,-106.21645688,3.1,8154.5,,True,1,1,False,False,False,False,0,True,False,False,Course Lock,65.6,,,Calm,13,Android, 3.1.38,RGP Craft,0410059536,,03LD015147,6781073611,199.307,7175.5,183.4,51.1,9.2,0,0,RGP Craft,0410059536,,03LD015147,6781073611,,Android, 3.1.38,,,,,Landing Gear Raising.,
6/20/2018,3:16:58.93 PM,0m 6.2s,6.2,39.96119568,-106.21646471,3.0,3.0,3.6,8131,2.1,2.2,0,0.5,-1.3,0.7,-0.7,0,1.1,-4.1,-143.3,216.7,P-GPS,Auto Fly,Takeoff (App Auto),17,5,True,,Inspire 1,True,False,,Smart,RC,False,True,False,,Other (192),True,,False,False,False,False,True,False,False,False,False,False,0,FPV,0,0,-145.4,214.6,False,False,False,False,False,False,,True,Normal,,,1024,852,1024,1024,2,False,False,False,False,False,0,False,False,False,False,98,23.881,4115,4199,23.218,False,3.944,3.958,3.966,3.984,4.1,4.109,0.18,True,False,51.569,59.3,59.3,59.3,0,0,0,19,14,0.0,1.43,,Idle,0,30,False,10,True,10,Go Home,39.96120269,-106.21645688,3.4,8154.5,,True,1,1,False,False,False,False,0,True,False,False,Course Lock,65.6,,,Calm,13,Android, 3.1.38,RGP Craft,0410059536,,03LD015147,6781073611,199.307,7175.5,183.4,51.1,9.2,0,0,RGP Craft,0410059536,,03LD015147,6781073611,,Android, 3.1.38,,,,,,
6/20/2018,3:16:59.03 PM,0m 6.3s,6.3,39.96119569,-106.21646536,3.3,3.3,3.6,8131,1.7,2.2,0,0.5,-1.3,0.7,-0.5,0,1,-2.4,-143.8,216.2,P-GPS,Auto Fly,Takeoff (App Auto),17,5,True,,Inspire 1,True,False,,Smart,RC,False,True,False,,Other (246),True,,False,False,False,False,True,False,False,False,False,False,0,FPV,0,0,-145.4,214.6,False,False,False,False,False,False,,True,Normal,,,1024,829,1024,1024,2,False,False,False,False,False,0,False,False,False,False,98,23.881,4115,4199,23.218,False,3.944,3.958,3.966,3.984,4.1,4.109,0.18,True,False,51.569,59.3,59.3,59.3,0,0,0,19,14,0.0,1.43,,Idle,0,30,False,10,True,10,Go Home,39.96120269,-106.21645688,3.5,8154.5,,True,1,1,False,False,False,False,0,True,False,False,Course Lock,65.6,,,Calm,13,Android, 3.1.38,RGP Craft,0410059536,,03LD015147,6781073611,199.307,7175.5,183.4,51.1,9.2,0,0,RGP Craft,0410059536,,03LD015147,6781073611,,Android, 3.1.38,,,,,,
6/20/2018,3:16:59.13 PM,0m 6.4s,6.4,39.96119535,-106.21646618,3.3,3.3,3.6,8131,1.8,2.2,-0.2,0.5,-1.1,0.7,-0.2,0,1.1,-1.5,-144.2,215.8,P-GPS,Auto Fly,Takeoff (App Auto),17,5,True,,Inspire 1,True,False,,Smart,RC,False,True,False,,Other (246),True,,False,False,False,False,True,False,False,False,False,False,0,FPV,0,0,-145.4,214.6,False,False,False,False,False,False,,True,Normal,,,1024,844,1024,1024,2,False,False,False,False,False,0,False,False,False,False,98,23.48,4115,4199,23.161,False,3.889,3.908,3.914,3.929,3.913,3.893,0.18,False,False,49.261,59.3,59.3,59.3,0,0,0,19,14,0.0,2.04,,Idle,0,30,False,10,True,10,Go Home,39.96120269,-106.21645688,3.7,8154.5,,True,1,1,False,False,False,False,0,True,False,False,Course Lock,65.6,,,Calm,13,Android, 3.1.38,RGP Craft,0410059536,,03LD015147,6781073611,199.307,7175.5,183.4,51.1,9.2,0,0,RGP Craft,0410059536,,03LD015147,6781073611,,Android, 3.1.38,,,,,,
6/20/2018,3:16:59.24 PM,0m 6.5s,6.5,39.96119522,-106.21646686,3.3,3.3,3.6,8131,1.5,2.2,-0.2,0.5,-1.1,0.7,-0.2,0,1.5,-1.3,-144.6,215.4,P-GPS,Auto Fly,Takeoff (App Auto),17,5,True,,Inspire 1,True,False,,Smart,RC,False,True,False,,Other (246),True,,False,False,False,False,True,False,False,False,False,False,0,FPV,0,0,-145.4,214.6,False,False,False,False,False,False,,True,Normal,,,1024,839,1024,1024,2,False,False,False,False,False,0,False,False,False,False,98,23.48,4115,4199,23.161,False,3.889,3.908,3.914,3.929,3.913,3.893,0.18,False,False,49.261,59.3,59.3,59.3,0,0,0,19,14,0.0,2.04,,Idle,0,30,False,10,True,10,Go Home,39.96120269,-106.21645688,3.9,8154.5,,True,1,1,False,False,False,False,0,True,False,False,Course Lock,65.6,,,Calm,13,Android, 3.1.38,RGP Craft,0410059536,,03LD015147,6781073611,199.307,7175.5,183.4,51.1,9.2,0,0,RGP Craft,0410059536,,03LD015147,6781073611,,Android, 3.1.38,,,,,,
6/20/2018,3:16:59.34 PM,0m 6.6s,6.6,39.96119508,-106.21646759,3.3,3.3,3.6,8131,1.5,2.2,-0.2,0.5,-1.1,0.7,0,0,2,-1.5,-145,215,P-GPS,Auto Fly,Takeoff (App Auto),17,5,True,,Inspire 1,True,False,,Smart,RC,False,True,False,,Other (246),True,,False,False,False,False,True,False,False,False,False,False,0,FPV,0,0,-145.4,214.6,False,False,False,False,False,False,,True,Normal,,,1024,846,1024,1024,2,False,False,False,False,False,0,False,False,False,False,98,23.48,4115,4199,23.161,False,3.889,3.908,3.914,3.929,3.913,3.893,0.18,False,False,49.261,59.3,59.3,59.3,0,0,0,19,14,0.0,2.04,,Idle,0,30,False,10,True,10,Go Home,39.96120269,-106.21645688,4.1,8154.5,,True,1,1,False,False,False,False,0,True,False,False,Course Lock,65.6,,,Calm,13,Android, 3.1.38,RGP Craft,0410059536,,03LD015147,6781073611,199.307,7175.5,183.4,51.1,9.2,0,0,RGP Craft,0410059536,,03LD015147,6781073611,,Android, 3.1.38,,,,,,
6/20/2018,3:16:59.44 PM,0m 6.7s,6.7,39.96119494,-106.2164682,3.3,3.3,3.9,8131,1.5,2.2,-0.2,0.5,-1.1,0.7,0,0,3,-1.9,-145.4,214.6,P-GPS,Auto Fly,Takeoff (App Auto),17,5,True,,Inspire 1,True,False,,Smart,RC,False,True,False,,Other (246),True,,False,False,False,False,True,False,False,False,False,False,0,FPV,0,0,-145.4,214.6,False,False,False,False,False,False,,True,Normal,,,1024,843,1024,1024,2,False,False,False,False,False,0,False,False,False,False,98,23.48,4115,4199,23.161,False,3.889,3.908,3.914,3.929,3.913,3.893,0.18,False,False,49.261,59.3,59.3,59.3,0,0,0,19,14,0.0,2.04,,Idle,0,30,False,10,True,10,Go Home,39.96120269,-106.21645688,4.2,8154.5,,True,1,1,False,False,False,False,0,True,False,False,Course Lock,65.6,,,Calm,13,Android, 3.1.38,RGP Craft,0410059536,,03LD015147,6781073611,199.307,7175.5,183.4,51.1,9.2,0,0,RGP Craft,0410059536,,03LD015147,6781073611,,Android, 3.1.38,,,,,,
6/20/2018,3:16:59.54 PM,0m 6.8s,6.8,39.96119469,-106.21646897,3.3,3.3,3.9,8131,1.5,2.2,-0.2,0.5,-0.9,0.7,0,0,3.9,-2.7,-145.5,214.5,P-GPS,Auto Fly,Takeoff (App Auto),17,5,True,,Inspire 1,True,False,,Smart,RC,False,True,False,,Other (246),True,,False,False,False,False,True,False,False,False,False,False,0,FPV,0,0,-145.4,214.6,False,False,False,False,False,False,,True,Normal,,,1024,810,1024,1024,2,False,False,False,False,False,0,False,False,False,False,98,23.48,4115,4199,23.161,False,3.889,3.908,3.914,3.929,3.913,3.893,0.18,False,False,49.261,59.3,59.3,59.3,0,0,0,19,14,0.0,2.04,,Idle,0,30,False,10,True,10,Go Home,39.96120269,-106.21645688,4.5,8154.5,,True,1,1,False,False,False,False,0,True,False,False,Course Lock,65.6,,,Calm,13,Android, 3.1.38,RGP Craft,0410059536,,03LD015147,6781073611,199.307,7175.5,183.4,51.1,9.2,0,0,RGP Craft,0410059536,,03LD015147,6781073611,,Android, 3.1.38,,,,,,
6/20/2018,3:16:59.64 PM,0m 6.9s,6.9,39.96119452,-106.21646961,3.3,3.3,3.9,8131,1.8,2.2,-0.2,0.5,-0.9,0.7,0,0,4.2,-3.6,-145.5,214.5,P-GPS,Auto Fly,Takeoff (App Auto),17,5,True,,Inspire 1,True,False,,Smart,RC,False,True,False,,Other (246),True,,False,False,False,False,True,False,False,False,False,False,0,FPV,0,0,-145.4,214.6,False,False,False,False,False,False,,True,Normal,,,1024,875,1024,1024,2,False,False,False,False,False,0,False,False,False,False,98,23.48,4115,4199,23.161,False,3.889,3.908,3.914,3.929,3.913,3.893,0.18,False,False,49.261,59.3,59.3,59.3,0,0,0,19,14,0.0,2.04,,Idle,0,30,False,10,True,10,Go Home,39.96120269,-106.21645688,4.6,8154.5,,True,1,1,False,False,False,False,0,True,False,False,Course Lock,65.6,,,Calm,13,Android, 3.1.38,RGP Craft,0410059536,,03LD015147,6781073611,199.307,7175.5,183.4,51.1,9.2,0,0,RGP Craft,0410059536,,03LD015147,6781073611,,Android, 3.1.38,,,,,,
6/20/2018,3:16:59.75 PM,0m 7.0s,7.0,39.96119445,-106.21647025,3.3,3.3,3.6,8131,1.5,2.2,-0.2,0.5,-0.7,0.7,0.2,0.2,4.2,-4.2,-145.5,214.5,P-GPS,Auto Fly,Takeoff (App Auto),17,5,True,,Inspire 1,True,False,,Smart,RC,False,True,False,,Other (246),True,,False,False,False,False,True,False,False,False,False,False,0,FPV,0,0,-145.4,214.6,False,False,False,False,False,False,,True,Normal,,,1024,969,1024,1024,2,False,False,False,False,False,0,False,False,False,False,98,23.48,4115,4199,23.161,False,3.889,3.908,3.914,3.929,3.913,3.893,0.18,False,False,49.261,59.3,59.3,59.3,0,0,0,19,14,0.0,2.04,,Idle,0,30,False,10,True,10,Go Home,39.96120269,-106.21645688,4.8,8154.5,,True,1,1,False,False,False,False,0,True,False,False,Course Lock,65.6,,,Calm,13,Android, 3.1.38,RGP Craft,0410059536,,03LD015147,6781073611,199.307,7175.5,183.4,51.1,9.2,0,0,RGP Craft,0410059536,,03LD015147,6781073611,,Android, 3.1.38,,,,,,
6/20/2018,3:16:59.85 PM,0m 7.1s,7.1,39.96119429,-106.21647063,3.3,3.3,3.6,8131,1.5,2.2,-0.2,0.5,-0.5,0.7,0.2,0.2,3.7,-3.9,-145.7,214.3,P-GPS,Auto Fly,Takeoff (App Auto),17,5,True,,Inspire 1,True,False,,Smart,RC,False,True,False,,Other (246),True,,False,False,False,False,True,False,False,False,False,False,0,FPV,0,0,-145.4,214.6,False,False,False,False,False,False,,True,Normal,,,1024,1024,1045,1024,2,False,False,False,False,False,0,False,False,False,False,98,23.48,4115,4199,23.161,False,3.889,3.908,3.914,3.929,3.913,3.893,0.18,False,False,49.261,59.3,59.3,59.3,0,0,0,19,14,0.0,2.04,,Idle,0,30,False,10,True,10,Go Home,39.96120269,-106.21645688,4.9,8154.5,,True,1,1,False,False,False,False,0,True,False,False,Course Lock,65.6,,,Calm,13,Android, 3.1.38,RGP Craft,0410059536,,03LD015147,6781073611,199.307,7175.5,183.4,51.1,9.2,0,0,RGP Craft,0410059536,,03LD015147,6781073611,,Android, 3.1.38,,,,,,
6/20/2018,3:16:59.95 PM,0m 7.2s,7.2,39.96119399,-106.21647122,3.3,3.3,3.6,8131,1.5,2.2,-0.5,0.5,-0.5,0.7,0.2,0.2,2.8,-3,-145.8,214.2,P-GPS,Auto Fly,Takeoff (App Auto),17,5,True,,Inspire 1,True,False,,Smart,RC,False,True,False,,Other (246),True,,False,False,False,False,True,False,False,False,False,False,0,FPV,0,0,-145.4,214.6,False,False,False,False,False,False,,True,Normal,,,1024,1024,1187,1024,2,False,False,False,False,False,0,False,False,False,False,98,23.48,4115,4199,23.161,False,3.889,3.908,3.914,3.929,3.913,3.893,0.18,False,False,49.261,59.3,59.3,59.3,0,0,0,19,14,0.0,2.04,,Idle,0,30,False,10,True,10,Go Home,39.96120269,-106.21645688,5.1,8154.5,,True,1,1,False,False,False,False,0,True,False,False,Course Lock,65.6,,,Calm,13,Android, 3.1.38,RGP Craft,0410059536,,03LD015147,6781073611,199.307,7175.5,183.4,51.1,9.2,0,0,RGP Craft,0410059536,,03LD015147,6781073611,,Android, 3.1.38,,,,,,
6/20/2018,3:17:00.05 PM,0m 7.3s,7.3,39.9611938,-106.21647145,3.0,3.3,3.6,8131,1.1,2.2,-0.5,0.5,-0.2,0.7,0.2,0.2,1.9,-1.7,-145.8,214.2,P-GPS,Auto Fly,Takeoff (App Auto),17,5,True,,Inspire 1,True,False,,Smart,RC,False,True,False,,Other (45),True,,False,False,False,False,True,False,False,False,False,False,0,FPV,0,0,-145.4,214.6,False,False,False,False,False,False,,True,Normal,,,1024,1024,1220,1024,2,False,False,False,False,False,0,False,False,False,False,98,23.48,4115,4199,23.161,False,3.889,3.908,3.914,3.929,3.913,3.893,0.18,False,False,49.261,59.3,59.3,59.3,0,0,0,19,14,0.0,2.04,,Idle,0,30,False,10,True,10,Go Home,39.96120269,-106.21645688,5.2,8154.5,,True,1,1,False,False,False,False,0,True,False,False,Course Lock,65.6,,,Calm,13,Android, 3.1.38,RGP Craft,0410059536,,03LD015147,6781073611,199.307,7175.5,183.4,51.1,9.2,0,0,RGP Craft,0410059536,,03LD015147,6781073611,,Android, 3.1.38,,,,,,
6/20/2018,3:17:00.15 PM,0m 7.4s,7.4,39.96119345,-106.21647188,3.0,3.3,3.3,8131,1.1,2.2,-0.7,0.5,-0.5,0.7,0,0.2,-4,-0.5,-145.6,214.4,P-GPS,Auto Fly,Takeoff (App Auto),17,5,True,,Inspire 1,True,False,,Smart,RC,False,True,False,,Other (45),True,,False,False,False,False,True,False,False,False,False,False,0,FPV,0,0,-145.4,214.6,False,False,False,False,False,False,,True,Normal,,,1024,1024,1260,1024,2,False,False,False,False,False,0,False,False,False,False,98,23.393,4115,4199,23.399,False,3.868,3.898,3.899,3.9,3.899,3.883,0.18,False,False,49.089,59.3,59.3,59.3,0,0,0,19,14,0.0,2.45,,Idle,0,30,False,10,True,10,Go Home,39.96120269,-106.21645688,5.4,8154.5,,True,1,1,False,False,False,False,0,True,False,False,Course Lock,65.6,,,Calm,13,Android, 3.1.38,RGP Craft,0410059536,,03LD015147,6781073611,199.307,7175.5,183.4,51.1,9.2,0,0,RGP Craft,0410059536,,03LD015147,6781073611,,Android, 3.1.38,,,,,,
6/20/2018,3:17:00.26 PM,0m 7.5s,7.5,39.96119308,-106.21647237,3.0,3.3,3.3,8131,1.5,2.2,-0.9,0.5,-0.7,0.7,0,0.2,-8.8,0,-145.3,214.7,P-GPS,Auto Fly,Takeoff (App Auto),17,5,True,,Inspire 1,True,False,,Smart,RC,False,True,False,,Other (45),True,,False,False,False,False,True,False,False,False,False,False,0,FPV,0,0,-145.4,214.6,False,False,False,False,False,False,,True,Normal,,,1024,1024,1257,1024,2,False,False,False,False,False,0,False,False,False,False,98,23.393,4115,4199,23.399,False,3.868,3.898,3.899,3.9,3.899,3.883,0.18,False,False,49.089,59.3,59.3,59.3,0,0,0,19,14,0.0,2.45,,Idle,0,30,False,10,True,10,Go Home,39.96120269,-106.21645688,5.6,8154.5,,True,1,1,False,False,False,False,0,True,False,False,Course Lock,65.6,,,Calm,13,Android, 3.1.38,RGP Craft,0410059536,,03LD015147,6781073611,199.307,7175.5,183.4,51.1,9.2,0,0,RGP Craft,0410059536,,03LD015147,6781073611,,Android, 3.1.38,,,,,,
6/20/2018,3:17:00.36 PM,0m 7.6s,7.6,39.96119258,-106.21647294,3.0,3.3,3.3,8131,1.5,2.2,-1.1,0.5,-0.9,0.7,0,0.2,-11.7,0.4,-145,215,P-GPS,Auto Fly,Takeoff (App Auto),17,5,True,,Inspire 1,True,False,,Smart,RC,False,True,False,,Other (45),True,,False,False,False,False,True,False,False,False,False,False,0,FPV,0,0,-145.4,214.6,False,False,False,False,False,False,,True,Normal,,,1024,1024,1250,1024,2,False,False,False,False,False,0,False,False,False,False,98,23.393,4115,4199,23.399,False,3.868,3.898,3.899,3.9,3.899,3.883,0.18,False,False,49.089,59.3,59.3,59.3,0,0,0,19,14,0.0,2.45,,Idle,0,30,False,10,True,10,Go Home,39.96120269,-106.21645688,5.8,8154.5,,True,1,1,False,False,False,False,0,True,False,False,Course Lock,65.6,,,Calm,13,Android, 3.1.38,RGP Craft,0410059536,,03LD015147,6781073611,199.307,7175.5,183.4,51.1,9.2,0,0,RGP Craft,0410059536,,03LD015147,6781073611,,Android, 3.1.38,,,,,,
