sep=,
CUSTOM.date [local], CUSTOM.updateTime [local], OSD.flyTime, OSD.flyTime [s], OSD.latitude, OSD.longitude, OSD.height [ft], OSD.heightMax [ft], OSD.vpsHeight [ft], OSD.altitude [ft], OSD.hSpeed [MPH], OSD.hSpeedMax [MPH], OSD.xSpeed [MPH], OSD.xSpeedMax [MPH], OSD.ySpeed [MPH], OSD.ySpeedMax [MPH], OSD.zSpeed [MPH], OSD.zSpeedMax [MPH], OSD.pitch, OSD.roll, OSD.yaw, OSD.yaw [360], OSD.flycState, OSD.flycCommand, OSD.flightAction, OSD.gpsNum, OSD.gpsLevel, OSD.isGPSUsed, OSD.nonGPSCause, OSD.droneType, OSD.isSwaveWork, OSD.waveError, OSD.goHomeStatus, OSD.batteryType, OSD.ctrlDevice, OSD.isOnGround, OSD.isMotorOn, OSD.isMotorBlocked, OSD.motorStartFailedCause, OSD.motorFailReason, OSD.isImuPreheated, OSD.imuInitFailReason, OSD.isAcceletorOverRange, OSD.isBarometerDeadInAir, OSD.isCompassError, OSD.isGoHomeHeightModified, OSD.canIOCWork, OSD.isNotEnoughForce, OSD.isOutOfLimit, OSD.isPropellerCatapult, OSD.isVibrating, OSD.isVisionUsed, OSD.voltageWarning, GIMBAL.mode, GIMBAL.pitch, GIMBAL.roll, GIMBAL.yaw, GIMBAL.yaw [360], GIMBAL.isPitchAtLimit, GIMBAL.isRollAtLimit, GIMBAL.isYawAtLimit, GIMBAL.isStuck, CAMERA.isPhoto, CAMERA.isVideo, CAMERA.filename, CAMERA.sdCardIsInserted, CAMERA.sdCardState, RC.downlinkSignal, RC.uplinkSignal, RC.aileron, RC.elevator, RC.throttle, RC.rudder, RC.mode, RC.goHomeDepressed, RC.recordDepressed, RC.shutterDepressed, RC.playbackDepressed, RC.wheelDepressed, RC.wheelOffset, RC.custom1Depressed, RC.custom2Depressed, RC.custom3Depressed, RC.custom4Depressed, BATTERY.chargeLevel, BATTERY.currentPV [V], BATTERY.currentCapacity [mAh], BATTERY.fullCapacity [mAh], BATTERY.voltage [V], BATTERY.isCellVoltageEstimated, BATTERY.cellVoltage1 [V], BATTERY.cellVoltage2 [V], BATTERY.cellVoltage3 [V], BATTERY.cellVoltage4 [V], BATTERY.cellVoltage5 [V], BATTERY.cellVoltage6 [V], BATTERY.maxCellVoltageDeviation, BATTERY.isCellVoltageDeviationHigh, BATTERY.isVoltageLow, BATTERY.current [A], BATTERY.temperature [F], BATTERY.minTemperature [F], BATTERY.maxTemperature [F], BATTERY.usefulTime [s], BATTERY.goHomeTime [s], BATTERY.landTime [s], BATTERY.goHomeBattery, BATTERY.landBattery, BATTERY.safeFlyRadius, BATTERY.volumeConsume, BATTERY.status, BATTERY.goHomeStatus, BATTERY.goHomeCountdown, BATTERY.lowWarning, BATTERY.lowWarningGoHome, BATTERY.seriousLowWarning, BATTERY.seriousLowWarningLanding, BATTERY.timesCharged, MC.failSafeAction, HOME.latitude, HOME.longitude, HOME.distance [ft], HOME.height [ft], HOME.heightLimit [ft], HOME.isHomeRecord, HOME.goHomeMode, HOME.aircraftHeadDirection, HOME.isDynamicHomePointEnabled, HOME.isReachedLimitDistance, HOME.isReachedLimitHeight, HOME.isCompassCeleing, HOME.compassCeleStatus, HOME.isMultipleFlightModeEnabled, HOME.isBeginnerMode, HOME.isIOCEnabled, HOME.iocMode, HOME.goHomeHeight [ft], HOME.courseLockAngle, HOME.forceLandingHeight [ft], HOME.wind, HOME.dataRecorderFileIndex, RECOVER.appType, RECOVER.appVersion, RECOVER.aircraftName, RECOVER.aircraftSerial, RECOVER.cameraSerial, RECOVER.rcSerial, RECOVER.batterySerial, DETAILS.totalTime [s], DETAILS.totalDistance [ft], DETAILS.maxHeight [ft], DETAILS.maxHorizontalSpeed [MPH], DETAILS.maxVerticalSpeed [MPH], DETAILS.photoNum, DETAILS.videoTime [s], DETAILS.aircraftName, DETAILS.aircraftSerial, DETAILS.cameraSerial, DETAILS.rcSerial, DETAILS.batterySerial, DETAILS.appName, DETAILS.appType, DETAILS.appVersion, APPGPS.latitude, APPGPS.longitude, APPGPS.accuracy, APP.message, APP.tip, APP.warning
8/29/2017,8:30:28.89 PM,0m 2.8s,2.8,39.96120325,-106.21637115,0,0,0.7,8128,0,0,0,0,0,0,0,0,0,-0.2,-110.2,249.8,Manual Takeoff,Other,Takeoff (RC Assisted),17,5,True,,Inspire 2,True,False,,Smart,RC,True,True,False,,,True,,False,False,False,False,False,False,False,False,False,False,0,Follow Yaw,0,0,-110.1,249.9,False,False,False,False,False,False,,True,Normal,,,1024,1024,1024,1024,1,False,False,False,False,False,0,False,False,False,False,60,,,,23.819,True,,,,,,,,False,False,,,,,0,0,0,0,0,0.0,1550.18,,Idle,0,15,False,7,True,,Go Home,39.9612237,-106.21625042,34.6,8111.7,98.4,True,1,1,False,False,False,False,0,False,False,False,Course Lock,98.4,,23.0,Calm,5,Android, 4.1.5,DF026,095XDB800200GQ,09CLDBW00500ZN,09KL3A0CYT,,365.823,5713.6,274.3,34.9,9.6,0,0,DF026,,,09KL3A0CYT,,,Android, 4.1.5,,,,Data Recorder File Index is 5.,Motors Started.,
8/29/2017,8:30:29.33 PM,0m 3.2s,3.2,39.96120331,-106.21637097,0,0,0.7,8128,0,0,0,0,0,0,0,0,0,-0.2,-110.2,249.8,Manual Takeoff,Other,Takeoff (RC Assisted),17,5,True,,Inspire 2,True,False,,Smart,RC,True,True,False,,,True,,False,False,False,False,False,False,False,False,False,False,0,Follow Yaw,0,0,-110.1,249.9,False,False,False,False,False,False,,True,Normal,,,1024,1024,1024,1024,1,False,False,False,False,False,0,False,False,False,False,60,,,,23.819,True,,,,,,,,False,False,,,,,0,0,0,0,0,0.0,1550.18,,Idle,0,15,False,7,True,,Go Home,39.9612237,-106.21625042,34.5,8111.7,98.4,True,1,1,False,False,False,False,0,False,False,False,Course Lock,98.4,,23.0,Calm,5,Android, 4.1.5,DF026,095XDB800200GQ,09CLDBW00500ZN,09KL3A0CYT,,365.823,5713.6,274.3,34.9,9.6,0,0,DF026,,,09KL3A0CYT,,,Android, 4.1.5,,,,,,
8/29/2017,8:30:29.43 PM,0m 3.4s,3.4,39.96120332,-106.21637087,0,0,0.7,8128,0,0,0,0,0,0,0,0,0,-0.2,-110.2,249.8,Manual Takeoff,Other,Takeoff (RC Assisted),17,5,True,,Inspire 2,True,False,,Smart,RC,True,True,False,,,True,,False,False,False,False,False,False,False,False,False,False,0,Follow Yaw,0,0,-110.1,249.9,False,False,False,False,False,False,,True,Normal,,,1024,1024,1024,1024,1,False,False,False,False,False,0,False,False,False,False,60,,,,23.819,True,,,,,,,,False,False,,,,,0,0,0,0,0,0.0,1550.18,,Idle,0,15,False,7,True,,Go Home,39.9612237,-106.21625042,34.5,8111.7,98.4,True,1,1,False,False,False,False,0,False,False,False,Course Lock,98.4,,23.0,Calm,5,Android, 4.1.5,DF026,095XDB800200GQ,09CLDBW00500ZN,09KL3A0CYT,,365.823,5713.6,274.3,34.9,9.6,0,0,DF026,,,09KL3A0CYT,,,Android, 4.1.5,,,,,,
8/29/2017,8:30:29.64 PM,0m 3.6s,3.6,39.9612033,-106.21637077,0,0,0.3,8128,0,0,0,0,0,0,0,0,0,-0.2,-110.2,249.8,Manual Takeoff,Other,Takeoff (RC Assisted),17,5,True,,Inspire 2,True,False,,Smart,RC,True,True,False,,,True,,False,False,False,False,False,False,False,False,False,False,0,Follow Yaw,0,0,-110.1,249.9,False,False,False,False,False,False,,True,Normal,,,1024,1024,1024,1024,1,False,False,False,False,False,0,False,False,False,False,60,,,,23.819,True,,,,,,,,False,False,,,,,0,0,0,0,0,0.0,1550.18,,Idle,0,15,False,7,True,,Go Home,39.9612237,-106.21625042,34.5,8111.7,98.4,True,1,1,False,False,False,False,0,False,False,False,Course Lock,98.4,,23.0,Calm,5,Android, 4.1.5,DF026,095XDB800200GQ,09CLDBW00500ZN,09KL3A0CYT,,365.823,5713.6,274.3,34.9,9.6,0,0,DF026,,,09KL3A0CYT,,,Android, 4.1.5,,,,,,
8/29/2017,8:30:29.75 PM,0m 3.7s,3.7,39.9612033,-106.21637073,0,0,0.3,8128,0,0,0,0,0,0,0,0,0,-0.2,-110.2,249.8,Manual Takeoff,Other,Takeoff (RC Assisted),17,5,True,,Inspire 2,True,False,,Smart,RC,True,True,False,,,True,,False,False,False,False,False,False,False,False,False,False,0,Follow Yaw,0,0,-110.1,249.9,False,False,False,False,False,False,,True,Normal,,,1024,1024,1024,1024,1,False,False,False,False,False,0,False,False,False,False,60,,,,23.819,True,,,,,,,,False,False,,,,,0,0,0,0,0,0.0,1550.18,,Idle,0,15,False,7,True,,Go Home,39.9612237,-106.21625042,34.5,8111.7,98.4,True,1,1,False,False,False,False,0,False,False,False,Course Lock,98.4,,23.0,Calm,5,Android, 4.1.5,DF026,095XDB800200GQ,09CLDBW00500ZN,09KL3A0CYT,,365.823,5713.6,274.3,34.9,9.6,0,0,DF026,,,09KL3A0CYT,,,Android, 4.1.5,,,,,,
8/29/2017,8:30:29.85 PM,0m 3.8s,3.8,39.96120329,-106.21637068,0,0,0.3,8128,0,0,0,0,0,0,0,0,0,-0.2,-110.2,249.8,Manual Takeoff,Other,Takeoff (RC Assisted),17,5,True,,Inspire 2,True,False,,Smart,RC,True,True,False,,,True,,False,False,False,False,False,False,False,False,False,False,0,Follow Yaw,0,0,-110.1,249.9,False,False,False,False,False,False,,True,Normal,,,1024,1024,1024,1024,1,False,False,False,False,False,0,False,False,False,False,60,,,,23.819,True,,,,,,,,False,False,,,,,0,0,0,0,0,0.0,1550.18,,Idle,0,15,False,7,True,,Go Home,39.9612237,-106.21625042,34.4,8111.7,98.4,True,1,1,False,False,False,False,0,False,False,False,Course Lock,98.4,,23.0,Calm,5,Android, 4.1.5,DF026,095XDB800200GQ,09CLDBW00500ZN,09KL3A0CYT,,365.823,5713.6,274.3,34.9,9.6,0,0,DF026,,,09KL3A0CYT,,,Android, 4.1.5,,,,,,
8/29/2017,8:30:29.95 PM,0m 3.9s,3.9,39.96120329,-106.21637067,0,0,0.3,8128,0,0,0,0,0,0,0,0,0,-0.2,-110.2,249.8,Manual Takeoff,Other,Takeoff (RC Assisted),17,5,True,,Inspire 2,True,False,,Smart,RC,True,True,False,,,True,,False,False,False,False,False,False,False,False,False,False,0,Follow Yaw,0,0,-110.1,249.9,False,False,False,False,False,False,,True,Normal,,,1024,1024,1024,1024,1,False,False,False,False,False,0,False,False,False,False,60,,,,23.819,True,,,,,,,,False,False,,,,,0,0,0,0,0,0.0,1550.18,,Idle,0,15,False,7,True,,Go Home,39.9612237,-106.21625042,34.4,8111.7,98.4,True,1,1,False,False,False,False,0,False,False,False,Course Lock,98.4,,23.0,Calm,5,Android, 4.1.5,DF026,095XDB800200GQ,09CLDBW00500ZN,09KL3A0CYT,,365.823,5713.6,274.3,34.9,9.6,0,0,DF026,,,09KL3A0CYT,,,Android, 4.1.5,,,,,,
8/29/2017,8:30:30.06 PM,0m 4.0s,4.0,39.96120329,-106.21637064,0,0,0.3,8128,1.1,1.1,0,0,0,0,0,0,0,-0.2,-110.2,249.8,Manual Takeoff,Other,Takeoff (RC Assisted),17,5,True,,Inspire 2,True,False,,Smart,RC,True,True,False,,,True,,False,False,False,False,False,False,False,False,False,False,0,Follow Yaw,0,0,-110.1,249.9,False,False,False,False,False,False,,True,Normal,,,1024,1024,1024,1024,1,False,False,False,False,False,0,False,False,False,False,60,,,,23.819,True,,,,,,,,False,False,,,,,0,0,0,0,0,0.0,1550.18,,Idle,0,15,False,7,True,,Go Home,39.9612237,-106.21625042,34.4,8111.7,98.4,True,1,1,False,False,False,False,0,False,False,False,Course Lock,98.4,,23.0,Calm,5,Android, 4.1.5,DF026,095XDB800200GQ,09CLDBW00500ZN,09KL3A0CYT,,365.823,5713.6,274.3,34.9,9.6,0,0,DF026,,,09KL3A0CYT,,,Android, 4.1.5,,,,,,
8/29/2017,8:30:30.17 PM,0m 4.1s,4.1,39.9612033,-106.21637066,0,0,0.3,8128,0,1.1,0,0,0,0,0,0,0,-0.2,-110.2,249.8,Manual Takeoff,Other,Takeoff (RC Assisted),17,5,True,,Inspire 2,True,False,,Smart,RC,True,True,False,,,True,,False,False,False,False,False,False,False,False,False,False,0,Follow Yaw,0,0,-110.1,249.9,False,False,False,False,False,False,,True,Normal,,,1024,1024,1024,1024,1,False,False,False,False,False,0,False,False,False,False,60,,,,23.819,True,,,,,,,,False,False,,,,,0,0,0,0,0,0.0,1550.18,,Idle,0,15,False,7,True,,Go Home,39.9612237,-106.21625042,34.4,8111.7,98.4,True,1,1,False,False,False,False,0,False,False,False,Course Lock,98.4,,23.0,Calm,5,Android, 4.1.5,DF026,095XDB800200GQ,09CLDBW00500ZN,09KL3A0CYT,,365.823,5713.6,274.3,34.9,9.6,0,0,DF026,,,09KL3A0CYT,,,Android, 4.1.5,,,,,,
8/29/2017,8:30:30.27 PM,0m 4.2s,4.2,39.9612033,-106.21637066,0,0,0.3,8128,0,1.1,0,0,0,0,0,0,0,-0.1,-110.2,249.8,Manual Takeoff,Other,Takeoff (RC Assisted),17,5,True,,Inspire 2,True,False,,Smart,RC,True,True,False,,,True,,False,False,False,False,False,False,False,False,False,False,0,Follow Yaw,0,0,-110.1,249.9,False,False,False,False,False,False,,True,Normal,,,1024,1024,1024,1024,1,False,False,False,False,False,0,False,False,False,False,60,,,,23.819,True,,,,,,,,False,False,,,,,0,0,0,0,0,0.0,1550.18,,Idle,0,15,False,7,True,,Go Home,39.9612237,-106.21625042,34.4,8111.7,98.4,True,1,1,False,False,False,False,0,False,False,False,Course Lock,98.4,,23.0,Calm,5,Android, 4.1.5,DF026,095XDB800200GQ,09CLDBW00500ZN,09KL3A0CYT,,365.823,5713.6,274.3,34.9,9.6,0,0,DF026,,,09KL3A0CYT,,,Android, 4.1.5,,,,,,
8/29/2017,8:30:30.37 PM,0m 4.3s,4.3,39.9612033,-106.21637067,0,0,0.3,8128,0,1.1,0,0,0,0,0,0,0,-0.1,-110.2,249.8,Manual Takeoff,Other,Takeoff (RC Assisted),17,5,True,,Inspire 2,True,False,,Smart,RC,True,True,False,,,True,,False,False,False,False,False,False,False,False,False,False,0,Follow Yaw,0,0,-110.1,249.9,False,False,False,False,False,False,,True,Normal,,,1024,1024,1024,1024,1,False,False,False,False,False,0,False,False,False,False,60,,,,23.833,True,,,,,,,,False,False,,,,,0,0,0,0,0,0.0,1557.60,,Idle,0,15,False,7,True,,Go Home,39.9612237,-106.21625042,34.4,8111.7,1312.3,True,1,1,False,False,False,False,0,False,False,False,Course Lock,98.4,,23.0,Calm,5,Android, 4.1.5,DF026,095XDB800200GQ,09CLDBW00500ZN,09KL3A0CYT,09UADBH03101HA,365.823,5713.6,274.3,34.9,9.6,0,0,DF026,,,09KL3A0CYT,,,Android, 4.1.5,,,,,,
8/29/2017,8:30:30.51 PM,0m 4.5s,4.5,39.96120331,-106.21637067,0,0,0.3,8128,0,1.1,0,0,0,0,0,0,0,-0.1,-110.2,249.8,Manual Takeoff,Other,Takeoff (RC Assisted),17,5,True,,Inspire 2,True,False,,Smart,RC,True,True,False,,,True,,False,False,False,False,False,False,False,False,False,False,0,Follow Yaw,0,0,-110.1,249.9,False,False,False,False,False,False,,True,Normal,,,1024,1024,1024,1024,1,False,True,False,False,False,0,False,False,False,False,60,,,,23.833,True,,,,,,,,False,False,,,,,0,0,0,0,0,0.0,1557.60,,Idle,0,15,False,7,True,,Go Home,39.9612237,-106.21625042,34.4,8111.7,1312.3,True,1,1,False,False,False,False,0,False,False,False,Course Lock,98.4,,23.0,Calm,5,Android, 4.1.5,DF026,095XDB800200GQ,09CLDBW00500ZN,09KL3A0CYT,09UADBH03101HA,365.823,5713.6,274.3,34.9,9.6,0,0,DF026,,,09KL3A0CYT,,,Android, 4.1.5,,,,,,
8/29/2017,8:30:30.61 PM,0m 4.6s,4.6,39.96120332,-106.21637067,0,0,0.3,8128,0,1.1,0,0,0,0,0,0,0,-0.1,-110.2,249.8,Manual Takeoff,Other,Takeoff (RC Assisted),17,5,True,,Inspire 2,True,False,,Smart,RC,True,True,False,,,True,,False,False,False,False,False,False,False,False,False,False,0,Follow Yaw,0,0,-110.1,249.9,False,False,False,False,False,False,,True,Normal,,,1024,1024,1024,1024,1,False,False,False,False,False,0,False,False,False,False,60,,,,23.833,True,,,,,,,,False,False,,,,,0,0,0,0,0,0.0,1557.60,,Idle,0,15,False,7,True,,Go Home,39.9612237,-106.21625042,34.4,8111.7,1312.3,True,1,1,False,False,False,False,0,False,False,False,Course Lock,98.4,,23.0,Calm,5,Android, 4.1.5,DF026,095XDB800200GQ,09CLDBW00500ZN,09KL3A0CYT,09UADBH03101HA,365.823,5713.6,274.3,34.9,9.6,0,0,DF026,,,09KL3A0CYT,,,Android, 4.1.5,,,,,,
8/29/2017,8:30:30.71 PM,0m 4.7s,4.7,39.96120333,-106.2163707,0,0,0.3,8128,0,1.1,0,0,0,0,0,0,0,-0.1,-110.2,249.8,Manual Takeoff,Other,Takeoff (RC Assisted),17,5,True,,Inspire 2,True,False,,Smart,RC,True,True,False,,,True,,False,False,False,False,False,False,False,False,False,False,0,Follow Yaw,0,0,-110.1,249.9,False,False,False,False,False,False,,True,Normal,,,1024,1024,1024,1024,1,False,False,False,False,False,0,False,False,False,False,60,,,,23.833,True,,,,,,,,False,False,,,,,0,0,0,0,0,0.0,1557.60,,Idle,0,15,False,7,True,,Go Home,39.9612237,-106.21625042,34.4,8111.7,1312.3,True,1,1,False,False,False,False,0,False,False,False,Course Lock,98.4,,23.0,Calm,5,Android, 4.1.5,DF026,095XDB800200GQ,09CLDBW00500ZN,09KL3A0CYT,09UADBH03101HA,365.823,5713.6,274.3,34.9,9.6,0,0,DF026,,,09KL3A0CYT,,,Android, 4.1.5,,,,,,
8/29/2017,8:30:30.81 PM,0m 4.8s,4.8,39.96120334,-106.21637071,0,0,0.3,8128,0,1.1,0,0,0,0,0,0,0,-0.1,-110.2,249.8,Manual Takeoff,Other,Takeoff (RC Assisted),17,5,True,,Inspire 2,True,False,,Smart,RC,True,True,False,,,True,,False,False,False,False,False,False,False,False,False,False,0,Follow Yaw,0,0,-110.1,249.9,False,False,False,False,False,False,,True,Normal,,,1024,1024,1024,1024,1,False,False,False,False,False,0,False,False,False,False,60,,,,23.833,True,,,,,,,,False,False,,,,,0,0,0,0,0,0.0,1557.60,,Idle,0,15,False,7,True,,Go Home,39.9612237,-106.21625042,34.4,8111.7,1312.3,True,1,1,False,False,False,False,0,False,False,False,Course Lock,98.4,,23.0,Calm,5,Android, 4.1.5,DF026,095XDB800200GQ,09CLDBW00500ZN,09KL3A0CYT,09UADBH03101HA,365.823,5713.6,274.3,34.9,9.6,0,0,DF026,,,09KL3A0CYT,,,Android, 4.1.5,,,,,,
8/29/2017,8:30:30.92 PM,0m 4.9s,4.9,39.96120335,-106.21637073,0,0,0.3,8128,0,1.1,0,0,0,0,0,0,0,-0.1,-110.2,249.8,Manual Takeoff,Other,Takeoff (RC Assisted),17,5,True,,Inspire 2,True,False,,Smart,RC,True,True,False,,,True,,False,False,False,False,False,False,False,False,False,False,0,Follow Yaw,0,0,-110.1,249.9,False,False,False,False,False,False,,True,Normal,,,1024,1024,1024,1024,1,False,False,False,False,False,0,False,False,False,False,60,,,,23.833,True,,,,,,,,False,False,,,,,0,0,0,0,0,0.0,1557.60,,Idle,0,15,False,7,True,,Go Home,39.9612237,-106.21625042,34.4,8111.7,1312.3,True,1,1,False,False,False,False,0,False,False,False,Course Lock,98.4,,23.0,Calm,5,Android, 4.1.5,DF026,095XDB800200GQ,09CLDBW00500ZN,09KL3A0CYT,09UADBH03101HA,365.823,5713.6,274.3,34.9,9.6,0,0,DF026,,,09KL3A0CYT,,,Android, 4.1.5,,,,,,
8/29/2017,8:30:31.02 PM,0m 5.0s,5.0,39.96120334,-106.21637074,0,0,0.3,8128,0,1.1,0,0,0,0,0,0,0,-0.2,-110.2,249.8,Manual Takeoff,Other,Takeoff (RC Assisted),17,5,True,,Inspire 2,True,False,,Smart,RC,True,True,False,,,True,,False,False,False,False,False,False,False,False,False,False,0,Follow Yaw,0,0,-110.1,249.9,False,False,False,False,False,False,,True,Normal,,,1024,1024,1024,1024,1,False,False,False,False,False,0,False,False,False,False,60,,,,23.833,True,,,,,,,,False,False,,,,,0,0,0,0,0,0.0,1557.60,,Idle,0,15,False,7,True,,Go Home,39.9612237,-106.21625042,34.5,8111.7,1312.3,True,1,1,False,False,False,False,0,False,False,False,Course Lock,98.4,,23.0,Calm,5,Android, 4.1.5,DF026,095XDB800200GQ,09CLDBW00500ZN,09KL3A0CYT,09UADBH03101HA,365.823,5713.6,274.3,34.9,9.6,0,0,DF026,,,09KL3A0CYT,,,Android, 4.1.5,,,,,,
8/29/2017,8:30:31.12 PM,0m 5.1s,5.1,39.96120334,-106.21637076,0,0,0.3,8128,0,1.1,0,0,0,0,0,0,0,-0.1,-110.2,249.8,Manual Takeoff,Other,Takeoff (RC Assisted),17,5,True,,Inspire 2,True,False,,Smart,RC,True,True,False,,,True,,False,False,False,False,False,False,False,False,False,False,0,Follow Yaw,0,0,-110.1,249.9,False,False,False,False,False,False,,True,Normal,,,1024,1024,1024,1024,1,False,False,False,False,False,0,False,False,False,False,60,,,,23.833,True,,,,,,,,False,False,,,,,0,0,0,0,0,0.0,1557.60,,Idle,0,15,False,7,True,,Go Home,39.9612237,-106.21625042,34.5,8111.7,1312.3,True,1,1,False,False,False,False,0,False,False,False,Course Lock,98.4,,23.0,Calm,5,Android, 4.1.5,DF026,095XDB800200GQ,09CLDBW00500ZN,09KL3A0CYT,09UADBH03101HA,365.823,5713.6,274.3,34.9,9.6,0,0,DF026,,,09KL3A0CYT,,,Android, 4.1.5,,,,,,
8/29/2017,8:30:31.23 PM,0m 5.2s,5.2,39.96120335,-106.21637076,0,0,0.3,8128,0,1.1,0,0,0,0,0,0,0,-0.1,-110.2,249.8,Manual Takeoff,Other,Takeoff (RC Assisted),17,5,True,,Inspire 2,True,False,,Smart,RC,True,True,False,,,True,,False,False,False,False,False,False,False,False,False,False,0,Follow Yaw,0,0,-110.1,249.9,False,False,False,False,False,False,,True,Normal,,,1024,1024,1024,1024,1,False,False,False,False,False,0,False,False,False,False,60,,,,23.833,True,,,,,,,,False,False,,,,,0,0,0,0,0,0.0,1557.60,,Idle,0,15,False,7,True,,Go Home,39.9612237,-106.21625042,34.5,8111.7,1312.3,True,1,1,False,False,False,False,0,False,False,False,Course Lock,98.4,,23.0,Calm,5,Android, 4.1.5,DF026,095XDB800200GQ,09CLDBW00500ZN,09KL3A0CYT,09UADBH03101HA,365.823,5713.6,274.3,34.9,9.6,0,0,DF026,,,09KL3A0CYT,,,Android, 4.1.5,,,,,,
8/29/2017,8:30:31.33 PM,0m 5.3s,5.3,39.96120333,-106.21637078,0,0,0.3,8128,0,1.1,0,0,0,0,0,0,0,-0.2,-110.2,249.8,Manual Takeoff,Other,Takeoff (RC Assisted),17,5,True,,Inspire 2,True,False,,Smart,RC,True,True,False,,,True,,False,False,False,False,False,False,False,False,False,False,0,Follow Yaw,0,0,-110.1,249.9,False,False,False,False,False,False,,True,Normal,,,1024,1024,1024,1024,1,False,False,False,False,False,0,False,False,False,False,60,,,,23.833,True,,,,,,,,False,False,,,,,0,0,0,0,0,0.0,1557.60,,Idle,0,15,False,7,True,,Go Home,39.9612237,-106.21625042,34.5,8111.7,1312.3,True,1,1,False,False,False,False,0,False,False,False,Course Lock,98.4,,23.0,Calm,5,Android, 4.1.5,DF026,095XDB800200GQ,09CLDBW00500ZN,09KL3A0CYT,09UADBH03101HA,365.823,5713.6,274.3,34.9,9.6,0,0,DF026,,,09KL3A0CYT,,,Android, 4.1.5,,,,,,
8/29/2017,8:30:31.43 PM,0m 5.4s,5.4,39.96120331,-106.21637079,0,0,0.3,8128,0,1.1,0,0,0,0,0,0,0,-0.1,-110.2,249.8,Manual Takeoff,Other,Takeoff (RC Assisted),17,5,True,,Inspire 2,True,False,,Smart,RC,True,True,False,,,True,,False,False,False,False,False,False,False,False,False,False,0,Follow Yaw,0,0,-110.1,249.9,False,False,False,False,False,True,,True,Normal,,,1024,1024,1024,1024,1,False,False,False,False,False,0,False,False,False,False,60,,,,23.837,True,,,,,,,,False,False,,,,,0,0,0,0,0,0.0,1579.65,,Idle,0,15,False,7,True,,Go Home,39.9612237,-106.21625042,34.5,8111.7,1312.3,True,1,1,False,False,False,False,0,False,False,False,Course Lock,98.4,,23.0,Calm,5,Android, 4.1.5,DF026,095XDB800200GQ,09CLDBW00500ZN,09KL3A0CYT,09UADBH03101HA,365.823,5713.6,274.3,34.9,9.6,0,0,DF026,,,09KL3A0CYT,,,Android, 4.1.5,,,,,,
8/29/2017,8:30:31.57 PM,0m 5.5s,5.5,39.96120328,-106.21637082,0,0,0.3,8128,0,1.1,0,0,0,0,0,0,0,-0.2,-110.2,249.8,Manual Takeoff,Other,Takeoff (RC Assisted),17,5,True,,Inspire 2,True,False,,Smart,RC,True,True,False,,,True,,False,False,False,False,False,False,False,False,False,False,0,Follow Yaw,0,0,-110.1,249.9,False,False,False,False,False,True,,True,Normal,,,1024,1024,1024,1024,1,False,False,False,False,False,0,False,False,False,False,60,,,,23.837,True,,,,,,,,False,False,,,,,0,0,0,0,0,0.0,1579.65,,Idle,0,15,False,7,True,,Go Home,39.9612237,-106.21625042,34.5,8111.7,1312.3,True,1,1,False,False,False,False,0,False,False,False,Course Lock,98.4,,23.0,Calm,5,Android, 4.1.5,DF026,095XDB800200GQ,09CLDBW00500ZN,09KL3A0CYT,09UADBH03101HA,365.823,5713.6,274.3,34.9,9.6,0,0,DF026,,,09KL3A0CYT,,,Android, 4.1.5,,,,,,
8/29/2017,8:30:31.67 PM,0m 5.6s,5.6,39.96120324,-106.21637084,0,0,0.3,8128,0,1.1,0,0,0,0,0,0,0,-0.1,-110.2,249.8,Manual Takeoff,Other,Takeoff (RC Assisted),17,5,True,,Inspire 2,True,False,,Smart,RC,True,True,False,,,True,,False,False,False,False,False,False,False,False,False,False,0,Follow Yaw,0,0,-110.1,249.9,False,False,False,False,False,True,,True,Normal,,,1024,1024,1024,1024,1,False,False,False,False,False,0,False,False,False,False,60,,,,23.837,True,,,,,,,,False,False,,,,,0,0,0,0,0,0.0,1579.65,,Idle,0,15,False,7,True,,Go Home,39.9612237,-106.21625042,34.5,8111.7,1312.3,True,1,1,False,False,False,False,0,False,False,False,Course Lock,98.4,,23.0,Calm,5,Android, 4.1.5,DF026,095XDB800200GQ,09CLDBW00500ZN,09KL3A0CYT,09UADBH03101HA,365.823,5713.6,274.3,34.9,9.6,0,0,DF026,,,09KL3A0CYT,,,Android, 4.1.5,,,,,,
8/29/2017,8:30:31.77 PM,0m 5.7s,5.7,39.96120321,-106.21637083,0,0,0.3,8128,0,1.1,0,0,0,0,0,0,0,-0.1,-110.2,249.8,Manual Takeoff,Other,Takeoff (RC Assisted),17,5,True,,Inspire 2,True,False,,Smart,RC,True,True,False,,,True,,False,False,False,False,False,False,False,False,False,False,0,Follow Yaw,0,0,-110.1,249.9,False,False,False,False,False,True,,True,Normal,,,1024,1024,1024,1024,1,False,False,False,False,False,0,False,False,False,False,60,,,,23.837,True,,,,,,,,False,False,,,,,0,0,0,0,0,0.0,1579.65,,Idle,0,15,False,7,True,,Go Home,39.9612237,-106.21625042,34.5,8111.7,1312.3,True,1,1,False,False,False,False,0,False,False,False,Course Lock,98.4,,23.0,Calm,5,Android, 4.1.5,DF026,095XDB800200GQ,09CLDBW00500ZN,09KL3A0CYT,09UADBH03101HA,365.823,5713.6,274.3,34.9,9.6,0,0,DF026,,,09KL3A0CYT,,,Android, 4.1.5,,,,,,
8/29/2017,8:30:31.87 PM,0m 5.8s,5.8,39.96120317,-106.21637081,0,0,0.3,8128,0,1.1,0,0,0,0,0,0,0,-0.1,-110.2,249.8,Manual Takeoff,Other,Takeoff (RC Assisted),17,5,True,,Inspire 2,True,False,,Smart,RC,True,True,False,,,True,,False,False,False,False,False,False,False,False,False,False,0,Follow Yaw,0,0,-110.2,249.8,False,False,False,False,False,True,,True,Normal,,,1024,1024,1024,1024,1,False,False,False,False,False,0,False,False,False,False,60,,,,23.837,True,,,,,,,,False,False,,,,,0,0,0,0,0,0.0,1579.65,,Idle,0,15,False,7,True,,Go Home,39.9612237,-106.21625042,34.5,8111.7,1312.3,True,1,1,False,False,False,False,0,False,False,False,Course Lock,98.4,,23.0,Calm,5,Android, 4.1.5,DF026,095XDB800200GQ,09CLDBW00500ZN,09KL3A0CYT,09UADBH03101HA,365.823,5713.6,274.3,34.9,9.6,0,0,DF026,,,09KL3A0CYT,,,Android, 4.1.5,,,,,,
8/29/2017,8:30:31.97 PM,0m 5.9s,5.9,39.96120314,-106.21637079,0,0,0.3,8128,0,1.1,0,0,0,0,0,0,0,-0.1,-110.2,249.8,Manual Takeoff,Other,Takeoff (RC Assisted),17,5,True,,Inspire 2,True,False,,Smart,RC,True,True,False,,,True,,False,False,False,False,False,False,False,False,False,False,0,Follow Yaw,0,0,-110.2,249.8,False,False,False,False,False,True,,True,Normal,,,1024,1024,1024,1024,1,False,False,False,False,False,0,False,False,False,False,60,,,,23.837,True,,,,,,,,False,False,,,,,0,0,0,0,0,0.0,1579.65,,Idle,0,15,False,7,True,,Go Home,39.9612237,-106.21625042,34.5,8111.7,1312.3,True,1,1,False,False,False,False,0,False,False,False,Course Lock,98.4,,23.0,Calm,5,Android, 4.1.5,DF026,095XDB800200GQ,09CLDBW00500ZN,09KL3A0CYT,09UADBH03101HA,365.823,5713.6,274.3,34.9,9.6,0,0,DF026,,,09KL3A0CYT,,,Android, 4.1.5,,,,,,
8/29/2017,8:30:32.07 PM,0m 6.0s,6.0,39.96120311,-106.21637077,0,0,0.3,8128,0,1.1,0,0,0,0,0,0,0,-0.1,-110.2,249.8,Manual Takeoff,Other,Takeoff (RC Assisted),17,5,True,,Inspire 2,True,False,,Smart,RC,True,True,False,,,True,,False,False,False,False,False,False,False,False,False,False,0,Follow Yaw,0,0,-110.2,249.8,False,False,False,False,False,True,,True,Normal,,,1024,1024,1024,1024,1,False,False,False,False,False,0,False,False,False,False,60,,,,23.837,True,,,,,,,,False,False,,,,,0,0,0,0,0,0.0,1579.65,,Idle,0,15,False,7,True,,Go Home,39.9612237,-106.21625042,34.5,8111.7,1312.3,True,1,1,False,False,False,False,0,False,False,False,Course Lock,98.4,,23.0,Calm,5,Android, 4.1.5,DF026,095XDB800200GQ,09CLDBW00500ZN,09KL3A0CYT,09UADBH03101HA,365.823,5713.6,274.3,34.9,9.6,0,0,DF026,,,09KL3A0CYT,,,Android, 4.1.5,,,,,,
8/29/2017,8:30:32.18 PM,0m 6.1s,6.1,39.9612031,-106.21637076,0,0,0.3,8128,0,1.1,0,0,0,0,0,0,0,-0.1,-110.2,249.8,Manual Takeoff,Other,Takeoff (RC Assisted),17,5,True,,Inspire 2,True,False,,Smart,RC,True,True,False,,,True,,False,False,False,False,False,False,False,False,False,False,0,Follow Yaw,0,0,-110.2,249.8,False,False,False,False,False,True,,True,Normal,,,1024,1024,1024,1024,1,False,False,False,False,False,0,False,False,False,False,60,,,,23.837,True,,,,,,,,False,False,,,,,0,0,0,0,0,0.0,1579.65,,Idle,0,15,False,7,True,,Go Home,39.9612237,-106.21625042,34.5,8111.7,1312.3,True,1,1,False,False,False,False,0,False,False,False,Course Lock,98.4,,23.0,Calm,5,Android, 4.1.5,DF026,095XDB800200GQ,09CLDBW00500ZN,09KL3A0CYT,09UADBH03101HA,365.823,5713.6,274.3,34.9,9.6,0,0,DF026,,,09KL3A0CYT,,,Android, 4.1.5,,,,,,
8/29/2017,8:30:33.89 PM,0m 6.2s,6.2,39.96120307,-106.21637075,0,0,0.3,8128,0,1.1,0,0,0,0,0,0,0,-0.1,-110.2,249.8,Manual Takeoff,Other,Takeoff (RC Assisted),17,5,True,,Inspire 2,True,False,,Smart,RC,True,True,False,,,True,,False,False,False,False,False,False,False,False,False,False,0,Follow Yaw,0,0,-110.2,249.8,False,False,False,False,False,True,,True,Normal,,,1024,1024,1024,1024,1,False,False,False,False,False,0,False,False,False,False,60,,,,23.837,True,,,,,,,,False,False,,,,,0,0,0,0,0,0.0,1579.65,,Idle,0,15,False,7,True,,Go Home,39.9612237,-106.21625042,34.5,8111.7,1312.3,True,1,1,False,False,False,False,0,False,False,False,Course Lock,98.4,,23.0,Calm,5,Android, 4.1.5,DF026,095XDB800200GQ,09CLDBW00500ZN,09KL3A0CYT,09UADBH03101HA,365.823,5713.6,274.3,34.9,9.6,0,0,DF026,,,09KL3A0CYT,,,Android, 4.1.5,,,,,Motors Started.,
8/29/2017,8:30:33.99 PM,0m 6.5s,6.5,39.961203,-106.21637074,0,0,0.3,8128,0,1.1,0,0,0,0,0,0,0,-0.1,-110.2,249.8,Manual Takeoff,Other,Takeoff (RC Assisted),17,5,True,,Inspire 2,True,False,,Smart,RC,True,True,False,,,True,,False,False,False,False,False,False,False,False,False,False,0,Follow Yaw,0,0,-110.2,249.8,False,False,False,False,False,True,,True,Normal,,,1024,1024,1024,1024,1,False,False,False,False,False,0,False,False,False,False,60,,,,23.837,True,,,,,,,,False,False,,,,,0,0,0,0,0,0.0,1579.65,,Idle,0,15,False,7,True,,Go Home,39.9612237,-106.21625042,34.5,8111.7,1312.3,True,1,1,False,False,False,False,0,False,False,False,Course Lock,98.4,,23.0,Calm,5,Android, 4.1.5,DF026,095XDB800200GQ,09CLDBW00500ZN,09KL3A0CYT,09UADBH03101HA,365.823,5713.6,274.3,34.9,9.6,0,0,DF026,,,09KL3A0CYT,,,Android, 4.1.5,,,,,,Downlink Lost.
8/29/2017,8:30:34.10 PM,0m 8.0s,8.0,39.96120288,-106.21637063,0,0,0.3,8128,0,1.1,0,0,0,0,0,0,0,-0.1,-110.3,249.7,Manual Takeoff,Other,Takeoff (RC Assisted),17,5,True,,Inspire 2,True,False,,Smart,RC,True,True,False,,,True,,False,False,False,False,False,False,False,False,False,False,0,Follow Yaw,0,0,-110.2,249.8,False,False,False,False,False,True,,True,Normal,,,1024,1024,1024,1024,1,False,False,False,False,False,0,False,False,False,False,60,,,,23.842,True,,,,,,,,False,False,,,,,0,0,0,0,0,0.0,1833.60,,Idle,0,15,False,7,True,,Go Home,39.9612237,-106.21625042,34.5,8111.7,1312.3,True,1,1,False,False,False,False,0,False,False,False,Course Lock,98.4,,23.0,Calm,5,Android, 4.1.5,DF026,095XDB800200GQ,09CLDBW00500ZN,09KL3A0CYT,09UADBH03101HA,365.823,5713.6,274.3,34.9,9.6,0,0,DF026,,,09KL3A0CYT,,,Android, 4.1.5,,,,Downlink Restored (after 0m 1.5s).,,
8/29/2017,8:30:34.31 PM,0m 8.2s,8.2,39.96120289,-106.21637063,0,0,0.3,8128,0,1.1,0,0,0,0,0,0,0,-0.1,-110.3,249.7,Manual Takeoff,Other,Takeoff (RC Assisted),17,5,True,,Inspire 2,True,False,,Smart,RC,True,True,False,,,True,,False,False,False,False,False,False,False,False,False,False,0,Follow Yaw,0,0,-110.2,249.8,False,False,False,False,False,True,,True,Normal,,,1024,1024,1024,1024,1,False,False,False,False,False,0,False,False,False,False,60,,,,23.842,True,,,,,,,,False,False,,,,,0,0,0,0,0,0.0,1833.60,,Idle,0,15,False,7,True,,Go Home,39.9612237,-106.21625042,34.5,8111.7,1312.3,True,1,1,False,False,False,False,0,False,False,False,Course Lock,98.4,,23.0,Calm,5,Android, 4.1.5,DF026,095XDB800200GQ,09CLDBW00500ZN,09KL3A0CYT,09UADBH03101HA,365.823,5713.6,274.3,34.9,9.6,0,0,DF026,,,09KL3A0CYT,,,Android, 4.1.5,,,,,,
8/29/2017,8:30:34.41 PM,0m 8.3s,8.3,39.96120292,-106.21637064,0,0,0.3,8128,0,1.1,0,0,0,0,0,0,0,-0.1,-110.3,249.7,Manual Takeoff,Other,Takeoff (RC Assisted),17,5,True,,Inspire 2,True,False,,Smart,RC,True,True,False,,,True,,False,False,False,False,False,False,False,False,False,False,0,Follow Yaw,0,0,-110.2,249.8,False,False,False,False,False,True,,True,Normal,,,1024,1024,1024,1024,1,False,False,False,False,False,0,False,False,False,False,60,,,,23.842,True,,,,,,,,False,False,,,,,0,0,0,0,0,0.0,1833.60,,Idle,0,15,False,7,True,,Go Home,39.9612237,-106.21625042,34.5,8111.7,1312.3,True,1,1,False,False,False,False,0,False,False,False,Course Lock,98.4,,23.0,Calm,5,Android, 4.1.5,DF026,095XDB800200GQ,09CLDBW00500ZN,09KL3A0CYT,09UADBH03101HA,365.823,5713.6,274.3,34.9,9.6,0,0,DF026,,,09KL3A0CYT,,,Android, 4.1.5,,,,,,
8/29/2017,8:30:34.51 PM,0m 8.4s,8.4,39.96120294,-106.21637065,0,0,0.3,8128,0,1.1,0,0,0,0,0,0,0,-0.1,-110.3,249.7,Manual Takeoff,Other,Takeoff (RC Assisted),17,5,True,,Inspire 2,True,False,,Smart,RC,True,True,False,,,True,,False,False,False,False,False,False,False,False,False,False,0,Follow Yaw,0,0,-110.2,249.8,False,False,False,False,False,True,,True,Normal,,,1024,1024,1024,1024,1,False,False,False,False,False,0,False,False,False,False,60,,,,23.842,True,,,,,,,,False,False,,,,,0,0,0,0,0,0.0,1833.60,,Idle,0,15,False,7,True,,Go Home,39.9612237,-106.21625042,34.5,8111.7,1312.3,True,1,1,False,False,False,False,0,False,False,False,Course Lock,98.4,,23.0,Calm,5,Android, 4.1.5,DF026,095XDB800200GQ,09CLDBW00500ZN,09KL3A0CYT,09UADBH03101HA,365.823,5713.6,274.3,34.9,9.6,0,0,DF026,,,09KL3A0CYT,,,Android, 4.1.5,,,,,,
8/29/2017,8:30:34.61 PM,0m 8.5s,8.5,39.96120294,-106.21637067,0,0,0.3,8128,0,1.1,0,0,0,0,0,0,0,-0.1,-110.3,249.7,Manual Takeoff,Other,Takeoff (RC Assisted),17,5,True,,Inspire 2,True,False,,Smart,RC,True,True,False,,,True,,False,False,False,False,False,False,False,False,False,False,0,Follow Yaw,0,0,-110.2,249.8,False,False,False,False,False,True,,True,Normal,,,1024,1024,1024,1024,1,False,False,False,False,False,0,False,False,False,False,60,,,,23.842,True,,,,,,,,False,False,,,,,0,0,0,0,0,0.0,1833.60,,Idle,0,15,False,7,True,,Go Home,39.9612237,-106.21625042,34.5,8111.7,1312.3,True,1,1,False,False,False,False,0,False,False,False,Course Lock,98.4,,23.0,Calm,5,Android, 4.1.5,DF026,095XDB800200GQ,09CLDBW00500ZN,09KL3A0CYT,09UADBH03101HA,365.823,5713.6,274.3,34.9,9.6,0,0,DF026,,,09KL3A0CYT,,,Android, 4.1.5,,,,,,
8/29/2017,8:30:34.72 PM,0m 8.6s,8.6,39.96120291,-106.21637067,0,0,0.3,8128,0,1.1,0,0,0,0,0,0,0,-0.1,-110.3,249.7,Manual Takeoff,Other,Takeoff (RC Assisted),17,5,True,,Inspire 2,True,False,,Smart,RC,True,True,False,,,True,,False,False,False,False,False,False,False,False,False,False,0,Follow Yaw,0,0,-110.2,249.8,False,False,False,False,False,True,,True,Normal,,,1024,1024,1024,1024,1,False,False,False,False,False,0,False,False,False,False,60,,,,23.842,True,,,,,,,,False,False,,,,,0,0,0,0,0,0.0,1833.60,,Idle,0,15,False,7,True,,Go Home,39.9612237,-106.21625042,34.5,8111.7,1312.3,True,1,1,False,False,False,False,0,False,False,False,Course Lock,98.4,,23.0,Calm,5,Android, 4.1.5,DF026,095XDB800200GQ,09CLDBW00500ZN,09KL3A0CYT,09UADBH03101HA,365.823,5713.6,274.3,34.9,9.6,0,0,DF026,,,09KL3A0CYT,,,Android, 4.1.5,,,,,,
8/29/2017,8:30:34.82 PM,0m 8.8s,8.8,39.96120291,-106.21637074,0,0,0.3,8128,0,1.1,0,0,0,0,0,0,0,-0.1,-110.3,249.7,Manual Takeoff,Other,Takeoff (RC Assisted),17,5,True,,Inspire 2,True,False,,Smart,RC,True,True,False,,,True,,False,False,False,False,False,False,False,False,False,False,0,Follow Yaw,0,0,-110.2,249.8,False,False,False,False,False,True,,True,Normal,,,1024,1024,1024,1024,1,False,False,False,False,False,0,False,False,False,False,60,,,,23.842,True,,,,,,,,False,False,,,,,0,0,0,0,0,0.0,1833.60,,Idle,0,15,False,7,True,,Go Home,39.9612237,-106.21625042,34.5,8111.7,1312.3,True,1,1,False,False,False,False,0,False,False,False,Course Lock,98.4,,23.0,Calm,5,Android, 4.1.5,DF026,095XDB800200GQ,09CLDBW00500ZN,09KL3A0CYT,09UADBH03101HA,365.823,5713.6,274.3,34.9,9.6,0,0,DF026,,,09KL3A0CYT,,,Android, 4.1.5,,,,,,
8/29/2017,8:30:35.03 PM,0m 8.9s,8.9,39.96120293,-106.21637078,0,0,0.3,8128,0,1.1,0,0,0,0,0,0,0,-0.1,-110.3,249.7,Manual Takeoff,Other,Takeoff (RC Assisted),17,5,True,,Inspire 2,True,False,,Smart,RC,True,True,False,,,True,,False,False,False,False,False,False,False,False,False,False,0,Follow Yaw,0,0,-110.2,249.8,False,False,False,False,False,True,,True,Normal,,,1024,1024,1024,1024,1,False,False,False,False,False,0,False,False,False,False,60,,,,23.842,True,,,,,,,,False,False,,,,,0,0,0,0,0,0.0,1833.60,,Idle,0,15,False,7,True,,Go Home,39.9612237,-106.21625042,34.5,8111.7,1312.3,True,1,1,False,False,False,False,0,False,False,False,Course Lock,98.4,,23.0,Calm,5,Android, 4.1.5,DF026,095XDB800200GQ,09CLDBW00500ZN,09KL3A0CYT,09UADBH03101HA,365.823,5713.6,274.3,34.9,9.6,0,0,DF026,,,09KL3A0CYT,,,Android, 4.1.5,,,,,,
8/29/2017,8:30:35.13 PM,0m 9.0s,9.0,39.96120294,-106.21637079,0,0,0.3,8128,0,1.1,0,0,0,0,0,0,0,-0.1,-110.3,249.7,Manual Takeoff,Other,Takeoff (RC Assisted),17,5,True,,Inspire 2,True,False,,Smart,RC,True,True,False,,,True,,False,False,False,False,False,False,False,False,False,False,0,Follow Yaw,0,0,-110.2,249.8,False,False,False,False,False,True,,True,Normal,,,1024,1024,1024,1024,1,False,False,False,False,False,0,False,False,False,False,60,,,,23.842,True,,,,,,,,False,False,,,,,0,0,0,0,0,0.0,1833.60,,Idle,0,15,False,7,True,,Go Home,39.9612237,-106.21625042,34.5,8111.7,1312.3,True,1,1,False,False,False,False,0,False,False,False,Course Lock,98.4,,23.0,Calm,5,Android, 4.1.5,DF026,095XDB800200GQ,09CLDBW00500ZN,09KL3A0CYT,09UADBH03101HA,365.823,5713.6,274.3,34.9,9.6,0,0,DF026,,,09KL3A0CYT,,,Android, 4.1.5,,,,,,
8/29/2017,8:30:35.25 PM,0m 9.1s,9.1,39.96120294,-106.2163708,0,0,0.3,8128,0,1.1,0,0,0,0,0,0,0,-0.1,-110.3,249.7,Manual Takeoff,Other,Takeoff (RC Assisted),17,5,True,,Inspire 2,True,False,,Smart,RC,True,True,False,,,True,,False,False,False,False,False,False,False,False,False,False,0,Follow Yaw,0,0,-110.2,249.8,False,False,False,False,False,True,,True,Normal,,,1024,1024,1024,1024,1,False,False,False,False,False,0,False,False,False,False,60,,,,23.842,True,,,,,,,,False,False,,,,,0,0,0,0,0,0.0,1833.60,,Idle,0,15,False,7,True,,Go Home,39.9612237,-106.21625042,34.5,8111.7,1312.3,True,1,1,False,False,False,False,0,False,False,False,Course Lock,98.4,,23.0,Calm,5,Android, 4.1.5,DF026,095XDB800200GQ,09CLDBW00500ZN,09KL3A0CYT,09UADBH03101HA,365.823,5713.6,274.3,34.9,9.6,0,0,DF026,,,09KL3A0CYT,,,Android, 4.1.5,,,,,,
8/29/2017,8:30:35.35 PM,0m 9.2s,9.2,39.96120291,-106.21637078,0,0,0.3,8128,0,1.1,0,0,0,0,0,0,0,-0.1,-110.3,249.7,Manual Takeoff,Other,Takeoff (RC Assisted),17,5,True,,Inspire 2,True,False,,Smart,RC,True,True,False,,,True,,False,False,False,False,False,False,False,False,False,False,0,Follow Yaw,0,0,-110.2,249.8,False,False,False,False,False,True,,True,Normal,,,1024,1024,1024,1024,1,False,False,False,False,False,0,False,False,False,False,60,,,,23.837,True,,,,,,,,False,False,,,,,0,0,0,0,0,0.0,2342.09,,Idle,0,15,False,7,True,,Go Home,39.9612237,-106.21625042,34.5,8111.7,1312.3,True,1,1,False,False,False,False,0,False,False,False,Course Lock,98.4,,23.0,Calm,5,Android, 4.1.5,DF026,095XDB800200GQ,09CLDBW00500ZN,09KL3A0CYT,09UADBH03101HA,365.823,5713.6,274.3,34.9,9.6,0,0,DF026,,,09KL3A0CYT,,,Android, 4.1.5,,,,,,
8/29/2017,8:30:35.53 PM,0m 9.4s,9.4,39.96120287,-106.21637079,0,0,0.3,8128,0,1.1,0,0,0,0,0,0,0,-0.1,-110.3,249.7,Manual Takeoff,Other,Takeoff (RC Assisted),17,5,True,,Inspire 2,True,False,,Smart,RC,True,True,False,,,True,,False,False,False,False,False,False,False,False,False,False,0,Follow Yaw,0,0,-110.2,249.8,False,False,False,False,False,True,,True,Normal,,,1024,1024,1024,1024,1,False,False,False,False,False,0,False,False,False,False,60,,,,23.837,True,,,,,,,,False,False,,,,,0,0,0,0,0,0.0,2342.09,,Idle,0,15,False,7,True,,Go Home,39.9612237,-106.21625042,34.5,8111.7,1312.3,True,1,1,False,False,False,False,0,False,False,False,Course Lock,98.4,,23.0,Calm,5,Android, 4.1.5,DF026,095XDB800200GQ,09CLDBW00500ZN,09KL3A0CYT,09UADBH03101HA,365.823,5713.6,274.3,34.9,9.6,0,0,DF026,,,09KL3A0CYT,,,Android, 4.1.5,,,,,,
8/29/2017,8:30:35.63 PM,0m 9.5s,9.5,39.96120285,-106.21637082,0,0,0.3,8128,0,1.1,0,0,0,0,0,0,0,-0.1,-110.3,249.7,Manual Takeoff,Other,Takeoff (RC Assisted),17,5,True,,Inspire 2,True,False,,Smart,RC,True,True,False,,,True,,False,False,False,False,False,False,False,False,False,False,0,Follow Yaw,0,0,-110.2,249.8,False,False,False,False,False,True,,True,Normal,,,1024,1024,1024,1024,1,False,False,False,False,False,0,False,False,False,False,60,,,,23.837,True,,,,,,,,False,False,,,,,0,0,0,0,0,0.0,2342.09,,Idle,0,15,False,7,True,,Go Home,39.9612237,-106.21625042,34.5,8111.7,1312.3,True,1,1,False,False,False,False,0,False,False,False,Course Lock,98.4,,23.0,Calm,5,Android, 4.1.5,DF026,095XDB800200GQ,09CLDBW00500ZN,09KL3A0CYT,09UADBH03101HA,365.823,5713.6,274.3,34.9,9.6,0,0,DF026,,,09KL3A0CYT,,,Android, 4.1.5,,,,,,
8/29/2017,8:30:35.73 PM,0m 9.7s,9.7,39.96120281,-106.21637085,0,0,0.3,8128,0,1.1,0,0,0,0,0,0,0,-0.1,-110.3,249.7,Manual Takeoff,Other,Takeoff (RC Assisted),17,5,True,,Inspire 2,True,False,,Smart,RC,True,True,False,,,True,,False,False,False,False,False,False,False,False,False,False,0,Follow Yaw,0,0,-110.2,249.8,False,False,False,False,False,True,,True,Normal,,,1024,1024,1024,1024,1,False,False,False,False,False,0,False,False,False,False,60,,,,23.837,True,,,,,,,,False,False,,,,,0,0,0,0,0,0.0,2342.09,,Idle,0,15,False,7,True,,Go Home,39.9612237,-106.21625042,34.5,8111.7,1312.3,True,1,1,False,False,False,False,0,False,False,False,Course Lock,98.4,,23.0,Calm,5,Android, 4.1.5,DF026,095XDB800200GQ,09CLDBW00500ZN,09KL3A0CYT,09UADBH03101HA,365.823,5713.6,274.3,34.9,9.6,0,0,DF026,,,09KL3A0CYT,,,Android, 4.1.5,,,,,,
8/29/2017,8:30:35.84 PM,0m 9.8s,9.8,39.96120279,-106.21637086,0,0,0.3,8128,0,1.1,0,0,0,0,0,0,0,-0.1,-110.3,249.7,Manual Takeoff,Other,Takeoff (RC Assisted),17,5,True,,Inspire 2,True,False,,Smart,RC,True,True,False,,,True,,False,False,False,False,False,False,False,False,False,False,0,Follow Yaw,0,0,-110.2,249.8,False,False,False,False,False,True,,True,Normal,,,1024,1024,1024,1024,1,False,False,False,False,False,0,False,False,False,False,60,,,,23.837,True,,,,,,,,False,False,,,,,0,0,0,0,0,0.0,2342.09,,Idle,0,15,False,7,True,,Go Home,39.9612237,-106.21625042,34.5,8111.7,1312.3,True,1,1,False,False,False,False,0,False,False,False,Course Lock,98.4,,23.0,Calm,5,Android, 4.1.5,DF026,095XDB800200GQ,09CLDBW00500ZN,09KL3A0CYT,09UADBH03101HA,365.823,5713.6,274.3,34.9,9.6,0,0,DF026,,,09KL3A0CYT,,,Android, 4.1.5,,,,,,
8/29/2017,8:30:35.95 PM,0m 9.9s,9.9,39.96120278,-106.2163709,0,0,0.3,8128,1.1,1.1,0,0,0,0,0,0,0,-0.1,-110.3,249.7,Manual Takeoff,Other,Takeoff (RC Assisted),17,5,True,,Inspire 2,True,False,,Smart,RC,True,True,False,,,True,,False,False,False,False,False,False,False,False,False,False,0,Follow Yaw,0,0,-110.2,249.8,False,False,False,False,False,True,,True,Normal,,,1024,1024,1024,1024,1,False,False,False,False,False,0,False,False,False,False,60,,,,23.837,True,,,,,,,,False,False,,,,,0,0,0,0,0,0.0,2342.09,,Idle,0,15,False,7,True,,Go Home,39.9612237,-106.21625042,34.5,8111.7,1312.3,True,1,1,False,False,False,False,0,False,False,False,Course Lock,98.4,,23.0,Calm,5,Android, 4.1.5,DF026,095XDB800200GQ,09CLDBW00500ZN,09KL3A0CYT,09UADBH03101HA,365.823,5713.6,274.3,34.9,9.6,0,0,DF026,,,09KL3A0CYT,,,Android, 4.1.5,,,,,,
8/29/2017,8:30:36.05 PM,0m 10.0s,10.0,39.96120276,-106.21637093,0,0,0.3,8128,0,1.1,0,0,0,0,0,0,0,-0.1,-110.3,249.7,Manual Takeoff,Other,Takeoff (RC Assisted),17,5,True,,Inspire 2,True,False,,Smart,RC,True,True,False,,,True,,False,False,False,False,False,False,False,False,False,False,0,Follow Yaw,0,0,-110.2,249.8,False,False,False,False,False,True,,True,Normal,,,1024,1024,1024,1024,1,False,False,False,False,False,0,False,False,False,False,60,,,,23.837,True,,,,,,,,False,False,,,,,0,0,0,0,0,0.0,2342.09,,Idle,0,15,False,7,True,,Go Home,39.9612237,-106.21625042,34.6,8111.7,1312.3,True,1,1,False,False,False,False,0,False,False,False,Course Lock,98.4,,23.0,Calm,5,Android, 4.1.5,DF026,095XDB800200GQ,09CLDBW00500ZN,09KL3A0CYT,09UADBH03101HA,365.823,5713.6,274.3,34.9,9.6,0,0,DF026,,,09KL3A0CYT,,,Android, 4.1.5,,,,,,
8/29/2017,8:30:36.16 PM,0m 10.1s,10.1,39.96120277,-106.21637098,0,0,0.3,8128,0,1.1,0,0,0,0,0,0,0,-0.1,-110.3,249.7,Manual Takeoff,Other,Takeoff (RC Assisted),17,5,True,,Inspire 2,True,False,,Smart,RC,True,True,False,,,True,,False,False,False,False,False,False,False,False,False,False,0,Follow Yaw,0,0,-110.2,249.8,False,False,False,False,False,True,,True,Normal,,,1024,1024,1024,1024,1,False,False,False,False,False,0,False,False,False,False,60,,,,23.837,True,,,,,,,,False,False,,,,,0,0,0,0,0,0.0,2342.09,,Idle,0,15,False,7,True,,Go Home,39.9612237,-106.21625042,34.6,8111.7,1312.3,True,1,1,False,False,False,False,0,False,False,False,Course Lock,98.4,,23.0,Calm,5,Android, 4.1.5,DF026,095XDB800200GQ,09CLDBW00500ZN,09KL3A0CYT,09UADBH03101HA,365.823,5713.6,274.3,34.9,9.6,0,0,DF026,,,09KL3A0CYT,,,Android, 4.1.5,,,,,,
8/29/2017,8:30:36.26 PM,0m 10.2s,10.2,39.96120276,-106.216371,0,0,0.3,8128,0,1.1,0,0,0,0,0,0,0,-0.1,-110.3,249.7,Manual Takeoff,Other,Takeoff (RC Assisted),17,5,True,,Inspire 2,True,False,,Smart,RC,True,True,False,,,True,,False,False,False,False,False,False,False,False,False,False,0,Follow Yaw,0,0,-110.2,249.8,False,False,False,False,False,True,,True,Normal,,,1024,1024,1024,1024,1,False,False,False,False,False,0,False,False,False,False,60,,,,23.837,True,,,,,,,,False,False,,,,,0,0,0,0,0,0.0,2342.09,,Idle,0,15,False,7,True,,Go Home,39.9612237,-106.21625042,34.6,8111.7,1312.3,True,1,1,False,False,False,False,0,False,False,False,Course Lock,98.4,,23.0,Calm,5,Android, 4.1.5,DF026,095XDB800200GQ,09CLDBW00500ZN,09KL3A0CYT,09UADBH03101HA,365.823,5713.6,274.3,34.9,9.6,0,0,DF026,,,09KL3A0CYT,,,Android, 4.1.5,,,,,,
8/29/2017,8:30:36.36 PM,0m 10.3s,10.3,39.96120277,-106.21637102,0,0,0.3,8128,0,1.1,0,0,0,0,0,0,0,-0.1,-110.3,249.7,Manual Takeoff,Other,Takeoff (RC Assisted),17,5,True,,Inspire 2,True,False,,Smart,RC,True,True,False,,,True,,False,False,False,False,False,False,False,False,False,False,0,Follow Yaw,0,0,-110.2,249.8,False,False,False,False,False,True,,True,Normal,,,1024,1024,1024,1024,1,False,False,False,False,False,0,False,False,False,False,60,,,,23.837,True,,,,,,,,False,False,,,,,0,0,0,0,0,0.0,2342.09,,Idle,0,15,False,7,True,,Go Home,39.9612237,-106.21625042,34.6,8111.7,1312.3,True,1,1,False,False,False,False,0,False,False,False,Course Lock,98.4,,23.0,Calm,5,Android, 4.1.5,DF026,095XDB800200GQ,09CLDBW00500ZN,09KL3A0CYT,09UADBH03101HA,365.823,5713.6,274.3,34.9,9.6,0,0,DF026,,,09KL3A0CYT,,,Android, 4.1.5,,,,,,
8/29/2017,8:30:36.47 PM,0m 10.4s,10.4,39.96120277,-106.21637103,0,0,0.3,8128,0,1.1,0,0,0,0,0,0,0,-0.1,-110.3,249.7,Manual Takeoff,Other,Takeoff (RC Assisted),17,5,True,,Inspire 2,True,False,,Smart,RC,True,True,False,,,True,,False,False,False,False,False,False,False,False,False,False,0,Follow Yaw,0,0,-110.2,249.8,False,False,False,False,False,True,,True,Normal,,,1024,1024,1024,1024,1,False,False,False,False,False,0,False,False,False,False,60,,,,23.839,True,,,,,,,,False,False,,,,,0,0,0,0,0,0.0,2604.29,,Idle,0,15,False,7,True,,Go Home,39.9612237,-106.21625042,34.6,8111.7,1312.3,True,1,1,False,False,False,False,0,False,False,False,Course Lock,98.4,,23.0,Calm,5,Android, 4.1.5,DF026,095XDB800200GQ,09CLDBW00500ZN,09KL3A0CYT,09UADBH03101HA,365.823,5713.6,274.3,34.9,9.6,0,0,DF026,,,09KL3A0CYT,,,Android, 4.1.5,,,,,,
8/29/2017,8:30:36.74 PM,0m 10.6s,10.6,39.96120279,-106.21637105,0,0,0.3,8128,0,1.1,0,0,0,0,0,0,0,-0.1,-110.3,249.7,Manual Takeoff,Other,Takeoff (RC Assisted),17,5,True,,Inspire 2,True,False,,Smart,RC,True,True,False,,,True,,False,False,False,False,False,False,False,False,False,False,0,Follow Yaw,0,0,-110.2,249.8,False,False,False,False,False,True,,True,Normal,,,1024,1024,1024,1024,1,False,False,False,False,False,0,False,False,False,False,60,,,,23.839,True,,,,,,,,False,False,,,,,0,0,0,0,0,0.0,2604.29,,Idle,0,15,False,7,True,,Go Home,39.9612237,-106.21625042,34.6,8111.7,1312.3,True,1,1,False,False,False,False,0,False,False,False,Course Lock,98.4,,23.0,Calm,5,Android, 4.1.5,DF026,095XDB800200GQ,09CLDBW00500ZN,09KL3A0CYT,09UADBH03101HA,365.823,5713.6,274.3,34.9,9.6,0,0,DF026,,,09KL3A0CYT,,,Android, 4.1.5,,,,,,
8/29/2017,8:30:36.94 PM,0m 10.7s,10.7,39.96120284,-106.21637104,0,0,0.3,8128,0,1.1,0,0,0,0,0,0,0,-0.1,-110.3,249.7,Manual Takeoff,Other,Takeoff (RC Assisted),17,5,True,,Inspire 2,True,False,,Smart,RC,True,True,False,,,True,,False,False,False,False,False,False,False,False,False,False,0,Follow Yaw,0,0,-110.2,249.8,False,False,False,False,False,True,,True,Normal,,,1024,1024,1024,1024,1,False,False,False,False,False,0,False,False,False,False,60,,,,23.839,True,,,,,,,,False,False,,,,,0,0,0,0,0,0.0,2604.29,,Idle,0,15,False,7,True,,Go Home,39.9612237,-106.21625042,34.6,8111.7,1312.3,True,1,1,False,False,False,False,0,False,False,False,Course Lock,98.4,,23.0,Calm,5,Android, 4.1.5,DF026,095XDB800200GQ,09CLDBW00500ZN,09KL3A0CYT,09UADBH03101HA,365.823,5713.6,274.3,34.9,9.6,0,0,DF026,,,09KL3A0CYT,,,Android, 4.1.5,,,,,,
8/29/2017,8:30:37.04 PM,0m 10.8s,10.8,39.96120288,-106.21637104,0,0,0.3,8128,0,1.1,0,0,0,0,0,0,0,-0.1,-110.3,249.7,Manual Takeoff,Other,Takeoff (RC Assisted),17,5,True,,Inspire 2,True,False,,Smart,RC,True,True,False,,,True,,False,False,False,False,False,False,False,False,False,False,0,Follow Yaw,0,0,-110.2,249.8,False,False,False,False,False,True,,True,Normal,,,1024,1024,1024,1024,1,False,False,False,False,False,0,False,False,False,False,60,,,,23.839,True,,,,,,,,False,False,,,,,0,0,0,0,0,0.0,2604.29,,Idle,0,15,False,7,True,,Go Home,39.9612237,-106.21625042,34.6,8111.7,1312.3,True,1,1,False,False,False,False,0,False,False,False,Course Lock,98.4,,23.0,Calm,5,Android, 4.1.5,DF026,095XDB800200GQ,09CLDBW00500ZN,09KL3A0CYT,09UADBH03101HA,365.823,5713.6,274.3,34.9,9.6,0,0,DF026,,,09KL3A0CYT,,,Android, 4.1.5,,,,,,
8/29/2017,8:30:37.14 PM,0m 10.9s,10.9,39.96120292,-106.21637104,0,0,0.3,8128,0,1.1,0,0,0,0,0,0,0,-0.1,-110.4,249.6,Manual Takeoff,Other,Takeoff (RC Assisted),17,5,True,,Inspire 2,True,False,,Smart,RC,True,True,False,,,True,,False,False,False,False,False,False,False,False,False,False,0,Follow Yaw,0,0,-110.2,249.8,False,False,False,False,False,True,,True,Normal,,,1024,1024,1024,1024,1,False,False,False,False,False,0,False,False,False,False,60,,,,23.839,True,,,,,,,,False,False,,,,,0,0,0,0,0,0.0,2604.29,,Idle,0,15,False,7,True,,Go Home,39.9612237,-106.21625042,34.6,8111.7,1312.3,True,1,1,False,False,False,False,0,False,False,False,Course Lock,98.4,,23.0,Calm,5,Android, 4.1.5,DF026,095XDB800200GQ,09CLDBW00500ZN,09KL3A0CYT,09UADBH03101HA,365.823,5713.6,274.3,34.9,9.6,0,0,DF026,,,09KL3A0CYT,,,Android, 4.1.5,,,,,,
8/29/2017,8:30:37.25 PM,0m 11.0s,11.0,39.96120292,-106.21637102,0,0,0.3,8128,0,1.1,0,0,0,0,0,0,0,-0.1,-110.3,249.7,Manual Takeoff,Other,Takeoff (RC Assisted),17,5,True,,Inspire 2,True,False,,Smart,RC,True,True,False,,,True,,False,False,False,False,False,False,False,False,False,False,0,Follow Yaw,0,0,-110.2,249.8,False,False,False,False,False,True,,True,Normal,,,1024,1024,1024,1024,1,False,False,False,False,False,0,False,False,False,False,60,,,,23.839,True,,,,,,,,False,False,,,,,0,0,0,0,0,0.0,2604.29,,Idle,0,15,False,7,True,,Go Home,39.9612237,-106.21625042,34.6,8111.7,1312.3,True,1,1,False,False,False,False,0,False,False,False,Course Lock,98.4,,23.0,Calm,5,Android, 4.1.5,DF026,095XDB800200GQ,09CLDBW00500ZN,09KL3A0CYT,09UADBH03101HA,365.823,5713.6,274.3,34.9,9.6,0,0,DF026,,,09KL3A0CYT,,,Android, 4.1.5,,,,,,
8/29/2017,8:30:37.45 PM,0m 11.1s,11.1,39.96120292,-106.21637099,0,0,0.3,8128,0,1.1,0,0,0,0,0,0,0,-0.1,-110.4,249.6,Manual Takeoff,Other,Takeoff (RC Assisted),17,5,True,,Inspire 2,True,False,,Smart,RC,True,True,False,,,True,,False,False,False,False,False,False,False,False,False,False,0,Follow Yaw,0,0,-110.2,249.8,False,False,False,False,False,True,,True,Normal,,,1024,1024,1024,1024,1,False,False,False,False,False,0,False,False,False,False,60,,,,23.839,True,,,,,,,,False,False,,,,,0,0,0,0,0,0.0,2604.29,,Idle,0,15,False,7,True,,Go Home,39.9612237,-106.21625042,34.6,8111.7,1312.3,True,1,1,False,False,False,False,0,False,False,False,Course Lock,98.4,,23.0,Calm,5,Android, 4.1.5,DF026,095XDB800200GQ,09CLDBW00500ZN,09KL3A0CYT,09UADBH03101HA,365.823,5713.6,274.3,34.9,9.6,0,0,DF026,,,09KL3A0CYT,,,Android, 4.1.5,,,,,,
8/29/2017,8:30:37.66 PM,0m 11.2s,11.2,39.96120291,-106.21637096,0,0,0.3,8128,0,1.1,0,0,0,0,0,0,0,-0.1,-110.4,249.6,Manual Takeoff,Other,Takeoff (RC Assisted),17,5,True,,Inspire 2,True,False,,Smart,RC,True,True,False,,,True,,False,False,False,False,False,False,False,False,False,False,0,Follow Yaw,0,0,-110.2,249.8,False,False,False,False,False,True,,True,Normal,,,1024,1024,1024,1024,1,False,False,False,False,False,0,False,False,False,False,60,,,,23.839,True,,,,,,,,False,False,,,,,0,0,0,0,0,0.0,2604.29,,Idle,0,15,False,7,True,,Go Home,39.9612237,-106.21625042,34.5,8111.7,1312.3,True,1,1,False,False,False,False,0,False,False,False,Course Lock,98.4,,23.0,Calm,5,Android, 4.1.5,DF026,095XDB800200GQ,09CLDBW00500ZN,09KL3A0CYT,09UADBH03101HA,365.823,5713.6,274.3,34.9,9.6,0,0,DF026,,,09KL3A0CYT,,,Android, 4.1.5,,,,,,
8/29/2017,8:30:37.79 PM,0m 11.3s,11.3,39.96120291,-106.21637093,0,0,0.3,8128,0,1.1,0,0,0,0,0,0,0,-0.1,-110.4,249.6,Manual Takeoff,Other,Takeoff (RC Assisted),17,5,True,,Inspire 2,True,False,,Smart,RC,True,True,False,,,True,,False,False,False,False,False,False,False,False,False,False,0,Follow Yaw,0,0,-110.2,249.8,False,False,False,False,False,True,,True,Normal,,,1024,1024,1024,1024,1,False,False,False,False,False,0,False,False,False,False,60,,,,23.84,True,,,,,,,,False,False,,,,,0,0,0,0,0,0.0,2842.40,,Idle,0,15,False,7,True,,Go Home,39.9612237,-106.21625042,34.5,8111.7,1312.3,True,1,1,False,False,False,False,0,False,False,False,Course Lock,98.4,,23.0,Calm,5,Android, 4.1.5,DF026,095XDB800200GQ,09CLDBW00500ZN,09KL3A0CYT,09UADBH03101HA,365.823,5713.6,274.3,34.9,9.6,0,0,DF026,,,09KL3A0CYT,,,Android, 4.1.5,,,,,,
8/29/2017,8:30:38.01 PM,0m 11.4s,11.4,39.96120292,-106.21637089,0,0,0.3,8128,0,1.1,0,0,0,0,0,0,0,-0.1,-110.4,249.6,Manual Takeoff,Other,Takeoff (RC Assisted),17,5,True,,Inspire 2,True,False,,Smart,RC,True,True,False,,,True,,False,False,False,False,False,False,False,False,False,False,0,Follow Yaw,0,0,-110.2,249.8,False,False,False,False,False,True,,True,Normal,,,1024,1024,1024,1024,1,False,False,False,False,False,0,False,False,False,False,60,,,,23.84,True,,,,,,,,False,False,,,,,0,0,0,0,0,0.0,2842.40,,Idle,0,15,False,7,True,,Go Home,39.9612237,-106.21625042,34.5,8111.7,1312.3,True,1,1,False,False,False,False,0,False,False,False,Course Lock,98.4,,23.0,Calm,5,Android, 4.1.5,DF026,095XDB800200GQ,09CLDBW00500ZN,09KL3A0CYT,09UADBH03101HA,365.823,5713.6,274.3,34.9,9.6,0,0,DF026,,,09KL3A0CYT,,,Android, 4.1.5,,,,,,
8/29/2017,8:30:38.11 PM,0m 11.5s,11.5,39.96120295,-106.21637085,0,0,0.3,8128,0,1.1,0,0,0,0,0,0,0,-0.1,-110.4,249.6,Manual Takeoff,Other,Takeoff (RC Assisted),17,5,True,,Inspire 2,True,False,,Smart,RC,True,True,False,,,True,,False,False,False,False,False,False,False,False,False,False,0,Follow Yaw,0,0,-110.2,249.8,False,False,False,False,False,True,,True,Normal,,,1024,1024,1024,1024,1,False,False,False,False,False,0,False,False,False,False,60,,,,23.84,True,,,,,,,,False,False,,,,,0,0,0,0,0,0.0,2842.40,,Idle,0,15,False,7,True,,Go Home,39.9612237,-106.21625042,34.5,8111.7,1312.3,True,1,1,False,False,False,False,0,False,False,False,Course Lock,98.4,,23.0,Calm,5,Android, 4.1.5,DF026,095XDB800200GQ,09CLDBW00500ZN,09KL3A0CYT,09UADBH03101HA,365.823,5713.6,274.3,34.9,9.6,0,0,DF026,,,09KL3A0CYT,,,Android, 4.1.5,,,,,,
8/29/2017,8:30:38.21 PM,0m 11.6s,11.6,39.96120295,-106.21637081,0,0,0.3,8128,0,1.1,0,0,0,0,0,0,0,-0.1,-110.4,249.6,Manual Takeoff,Other,Takeoff (RC Assisted),17,5,True,,Inspire 2,True,False,,Smart,RC,True,True,False,,,True,,False,False,False,False,False,False,False,False,False,False,0,Follow Yaw,0,0,-110.2,249.8,False,False,False,False,False,True,,True,Normal,,,1024,1024,1024,1024,1,False,False,False,False,False,0,False,False,False,False,60,,,,23.84,True,,,,,,,,False,False,,,,,0,0,0,0,0,0.0,2842.40,,Idle,0,15,False,7,True,,Go Home,39.9612237,-106.21625042,34.5,8111.7,1312.3,True,1,1,False,False,False,False,0,False,False,False,Course Lock,98.4,,23.0,Calm,5,Android, 4.1.5,DF026,095XDB800200GQ,09CLDBW00500ZN,09KL3A0CYT,09UADBH03101HA,365.823,5713.6,274.3,34.9,9.6,0,0,DF026,,,09KL3A0CYT,,,Android, 4.1.5,,,,,,
8/29/2017,8:30:38.32 PM,0m 11.7s,11.7,39.96120295,-106.21637078,0,0,0.3,8128,0,1.1,0,0,0,0,0,0,0,-0.1,-110.4,249.6,Manual Takeoff,Other,Takeoff (RC Assisted),17,5,True,,Inspire 2,True,False,,Smart,RC,True,True,False,,,True,,False,False,False,False,False,False,False,False,False,False,0,Follow Yaw,0,0,-110.2,249.8,False,False,False,False,False,True,,True,Normal,,,1024,1024,1024,1024,1,False,False,False,False,False,0,False,False,False,False,60,,,,23.84,True,,,,,,,,False,False,,,,,0,0,0,0,0,0.0,2842.40,,Idle,0,15,False,7,True,,Go Home,39.9612237,-106.21625042,34.5,8111.7,1312.3,True,1,1,False,False,False,False,0,False,False,False,Course Lock,98.4,,23.0,Calm,5,Android, 4.1.5,DF026,095XDB800200GQ,09CLDBW00500ZN,09KL3A0CYT,09UADBH03101HA,365.823,5713.6,274.3,34.9,9.6,0,0,DF026,,,09KL3A0CYT,,,Android, 4.1.5,,,,,,
8/29/2017,8:30:38.42 PM,0m 11.8s,11.8,39.96120294,-106.21637075,0,0,0.3,8128,0,1.1,0,0,0,0,0,0,0,-0.1,-110.4,249.6,Manual Takeoff,Other,Takeoff (RC Assisted),17,5,True,,Inspire 2,True,False,,Smart,RC,True,True,False,,,True,,False,False,False,False,False,False,False,False,False,False,0,Follow Yaw,0,0,-110.2,249.8,False,False,False,False,False,True,,True,Normal,,,1024,1024,1024,1024,1,False,False,False,False,False,0,False,False,False,False,60,,,,23.84,True,,,,,,,,False,False,,,,,0,0,0,0,0,0.0,2842.40,,Idle,0,15,False,7,True,,Go Home,39.9612237,-106.21625042,34.5,8111.7,1312.3,True,1,1,False,False,False,False,0,False,False,False,Course Lock,98.4,,23.0,Calm,5,Android, 4.1.5,DF026,095XDB800200GQ,09CLDBW00500ZN,09KL3A0CYT,09UADBH03101HA,365.823,5713.6,274.3,34.9,9.6,0,0,DF026,,,09KL3A0CYT,,,Android, 4.1.5,,,,,,
8/29/2017,8:30:38.62 PM,0m 11.9s,11.9,39.96120294,-106.21637075,0,0,0.3,8128,0,1.1,0,0,0,0,0,0,0,-0.1,-110.4,249.6,Manual Takeoff,Other,Takeoff (RC Assisted),17,5,True,,Inspire 2,True,False,,Smart,RC,True,True,False,,,True,,False,False,False,False,False,False,False,False,False,False,0,Follow Yaw,0,0,-110.2,249.8,False,False,False,False,False,True,,True,Normal,,,1024,1024,1024,1024,1,False,False,False,False,False,0,False,False,False,False,60,,,,66.069,False,32.774,33.295,,,,,0.521,True,False,,,,,0,0,0,0,0,0.0,2842.40,,Idle,0,15,False,7,True,,Go Home,39.9612237,-106.21625042,34.5,8111.7,1312.3,True,1,1,False,False,False,False,0,False,False,False,Course Lock,98.4,,23.0,Calm,5,Android, 4.1.5,DF026,095XDB800200GQ,09CLDBW00500ZN,09KL3A0CYT,09UADBH03101HA,365.823,5713.6,274.3,34.9,9.6,0,0,DF026,,,09KL3A0CYT,,,Android, 4.1.5,,,,,,
8/29/2017,8:30:38.83 PM,0m 12.0s,12.0,39.96120294,-106.21637075,0,0,0.3,8128,0,1.1,0,0,0,0,0,0,0,-0.1,-110.4,249.6,Manual Takeoff,Other,Takeoff (RC Assisted),17,5,True,,Inspire 2,True,False,,Smart,RC,True,True,False,,,True,,False,False,False,False,False,False,False,False,False,False,0,Follow Yaw,0,0,-110.2,249.8,False,False,False,False,False,True,,True,Normal,,,1024,1024,1024,1024,1,False,False,False,False,False,0,False,False,False,False,60,,,,66.069,False,32.774,33.295,,,,,0.521,True,False,,,,,0,0,0,0,0,0.0,2842.40,,Idle,0,15,False,7,True,,Go Home,39.9612237,-106.21625042,34.5,8111.7,1312.3,True,1,1,False,False,False,False,0,False,False,False,Course Lock,98.4,,23.0,Calm,5,Android, 4.1.5,DF026,095XDB800200GQ,09CLDBW00500ZN,09KL3A0CYT,09UADBH03101HA,365.823,5713.6,274.3,34.9,9.6,0,0,DF026,,,09KL3A0CYT,,,Android, 4.1.5,,,,,,
8/29/2017,8:30:39.03 PM,0m 12.1s,12.1,39.96120297,-106.21637078,0,0,0.3,8128,0,1.1,0,0,0,0,0,0,0,-0.1,-110.4,249.6,Manual Takeoff,Other,Takeoff (RC Assisted),17,5,True,,Inspire 2,True,False,,Smart,RC,True,True,False,,,True,,False,False,False,False,False,False,False,False,False,False,0,Follow Yaw,0,0,-110.2,249.8,False,False,False,False,False,True,,True,Normal,,,1024,1024,1024,1024,1,False,False,False,False,False,0,False,False,False,False,60,,,,66.069,False,32.774,33.295,,,,,0.521,True,False,,,,,0,0,0,0,0,0.0,2842.40,,Idle,0,15,False,7,True,,Go Home,39.9612237,-106.21625042,34.5,8111.7,1312.3,True,1,1,False,False,False,False,0,False,False,False,Course Lock,98.4,,23.0,Calm,5,Android, 4.1.5,DF026,095XDB800200GQ,09CLDBW00500ZN,09KL3A0CYT,09UADBH03101HA,365.823,5713.6,274.3,34.9,9.6,0,0,DF026,,,09KL3A0CYT,,,Android, 4.1.5,,,,,,
8/29/2017,8:30:39.26 PM,0m 12.2s,12.2,39.961203,-106.2163708,0,0,0.3,8128,0,1.1,0,0,0,0,0,0,0,-0.1,-110.4,249.6,Manual Takeoff,Other,Takeoff (RC Assisted),17,5,True,,Inspire 2,True,False,,Smart,RC,True,True,False,,,True,,False,False,False,False,False,False,False,False,False,False,0,Follow Yaw,0,0,-110.2,249.8,False,False,False,False,False,True,,True,Normal,,,1024,1024,1024,1024,1,False,False,False,False,False,0,False,False,False,False,60,,,,66.069,False,32.774,33.295,,,,,0.521,True,False,,,,,0,0,0,0,0,0.0,2842.40,,Idle,0,15,False,7,True,,Go Home,39.9612237,-106.21625042,34.5,8111.7,1312.3,True,1,1,False,False,False,False,0,False,False,False,Course Lock,98.4,,23.0,Calm,5,Android, 4.1.5,DF026,095XDB800200GQ,09CLDBW00500ZN,09KL3A0CYT,09UADBH03101HA,365.823,5713.6,274.3,34.9,9.6,0,0,DF026,,,09KL3A0CYT,,,Android, 4.1.5,,,,,,
8/29/2017,8:30:39.37 PM,0m 12.3s,12.3,39.96120302,-106.21637083,0,0,0.3,8128,0,1.1,0,0,0,0,0,0,0,-0.1,-110.4,249.6,Manual Takeoff,Other,Takeoff (RC Assisted),17,5,True,,Inspire 2,True,False,,Smart,RC,True,True,False,,,True,,False,False,False,False,False,False,False,False,False,False,0,Follow Yaw,0,0,-110.2,249.8,False,False,False,False,False,True,,True,Normal,,,1024,1024,1024,1024,1,False,False,False,False,False,0,False,False,False,False,6,6104.066,30464,40192,23.84,False,32.774,33.295,,,,,0.521,True,False,0,,9939.2,,0,0,0,0,0,0.0,3046.21,,Idle,0,15,False,7,True,,Go Home,39.9612237,-106.21625042,34.5,8111.7,1312.3,True,1,1,False,False,False,False,0,False,False,False,Course Lock,98.4,,23.0,Calm,5,Android, 4.1.5,DF026,095XDB800200GQ,09CLDBW00500ZN,09KL3A0CYT,09UADBH03101HA,365.823,5713.6,274.3,34.9,9.6,0,0,DF026,,,09KL3A0CYT,,,Android, 4.1.5,,,,,,
