sep=,
CUSTOM.date [local], CUSTOM.updateTime [local], OSD.flyTime, OSD.flyTime [s], OSD.latitude, OSD.longitude, OSD.height [ft], OSD.heightMax [ft], OSD.vpsHeight [ft], OSD.altitude [ft], OSD.hSpeed [MPH], OSD.hSpeedMax [MPH], OSD.xSpeed [MPH], OSD.xSpeedMax [MPH], OSD.ySpeed [MPH], OSD.ySpeedMax [MPH], OSD.zSpeed [MPH], OSD.zSpeedMax [MPH], OSD.pitch, OSD.roll, OSD.yaw, OSD.yaw [360], OSD.flycState, OSD.flycCommand, OSD.flightAction, OSD.gpsNum, OSD.gpsLevel, OSD.isGPSUsed, OSD.nonGPSCause, OSD.droneType, OSD.isSwaveWork, OSD.waveError, OSD.goHomeStatus, OSD.batteryType, OSD.ctrlDevice, OSD.isOnGround, OSD.isMotorOn, OSD.isMotorBlocked, OSD.motorStartFailedCause, OSD.motorFailReason, OSD.isImuPreheated, OSD.imuInitFailReason, OSD.isAcceletorOverRange, OSD.isBarometerDeadInAir, OSD.isCompassError, OSD.isGoHomeHeightModified, OSD.canIOCWork, OSD.isNotEnoughForce, OSD.isOutOfLimit, OSD.isPropellerCatapult, OSD.isVibrating, OSD.isVisionUsed, OSD.voltageWarning, GIMBAL.mode, GIMBAL.pitch, GIMBAL.roll, GIMBAL.yaw, GIMBAL.yaw [360], GIMBAL.isPitchAtLimit, GIMBAL.isRollAtLimit, GIMBAL.isYawAtLimit, GIMBAL.isStuck, CAMERA.isPhoto, CAMERA.isVideo, CAMERA.filename, CAMERA.sdCardIsInserted, CAMERA.sdCardState, RC.downlinkSignal, RC.uplinkSignal, RC.aileron, RC.elevator, RC.throttle, RC.rudder, RC.mode, RC.goHomeDepressed, RC.recordDepressed, RC.shutterDepressed, RC.playbackDepressed, RC.wheelDepressed, RC.wheelOffset, RC.custom1Depressed, RC.custom2Depressed, RC.custom3Depressed, RC.custom4Depressed, BATTERY.chargeLevel, BATTERY.currentPV [V], BATTERY.currentCapacity [mAh], BATTERY.fullCapacity [mAh], BATTERY.voltage [V], BATTERY.isCellVoltageEstimated, BATTERY.cellVoltage1 [V], BATTERY.cellVoltage2 [V], BATTERY.cellVoltage3 [V], BATTERY.cellVoltage4 [V], BATTERY.cellVoltage5 [V], BATTERY.cellVoltage6 [V], BATTERY.maxCellVoltageDeviation, BATTERY.isCellVoltageDeviationHigh, BATTERY.isVoltageLow, BATTERY2.cellVoltage1 [V], BATTERY2.cellVoltage2 [V], BATTERY2.cellVoltage3 [V], BATTERY2.cellVoltage4 [V], BATTERY2.cellVoltage5 [V], BATTERY2.cellVoltage6 [V], BATTERY2.maxCellVoltageDeviation, BATTERY2.isCellVoltageDeviationHigh, BATTERY2.isVoltageLow, BATTERY.current [A], BATTERY.temperature [F], BATTERY.minTemperature [F], BATTERY.maxTemperature [F], BATTERY.usefulTime [s], BATTERY.goHomeTime [s], BATTERY.landTime [s], BATTERY.goHomeBattery, BATTERY.landBattery, BATTERY.safeFlyRadius, BATTERY.volumeConsume, BATTERY.status, BATTERY.goHomeStatus, BATTERY.goHomeCountdown, BATTERY.lowWarning, BATTERY.lowWarningGoHome, BATTERY.seriousLowWarning, BATTERY.seriousLowWarningLanding, MC.failSafeAction, HOME.latitude, HOME.longitude, HOME.distance [ft], HOME.height [ft], HOME.heightLimit [ft], HOME.isHomeRecord, HOME.goHomeMode, HOME.aircraftHeadDirection, HOME.isDynamicHomePointEnabled, HOME.isReachedLimitDistance, HOME.isReachedLimitHeight, HOME.isCompassCeleing, HOME.compassCeleStatus, HOME.isMultipleFlightModeEnabled, HOME.isBeginnerMode, HOME.isIOCEnabled, HOME.iocMode, HOME.goHomeHeight [ft], HOME.courseLockAngle, HOME.forceLandingHeight [ft], HOME.wind, HOME.dataRecorderFileIndex, RECOVER.appType, RECOVER.appVersion, RECOVER.aircraftName, RECOVER.aircraftSerial, RECOVER.cameraSerial, RECOVER.rcSerial, RECOVER.batterySerial, DETAILS.totalTime [s], DETAILS.totalDistance [ft], DETAILS.maxHeight [ft], DETAILS.maxHorizontalSpeed [MPH], DETAILS.maxVerticalSpeed [MPH], DETAILS.photoNum, DETAILS.videoTime [s], DETAILS.aircraftName, DETAILS.aircraftSerial, DETAILS.cameraSerial, DETAILS.rcSerial, DETAILS.batterySerial, DETAILS.appName, DETAILS.appType, DETAILS.appVersion, APPGPS.latitude, APPGPS.longitude, APPGPS.accuracy, APP.message, APP.tip, APP.warning
6/21/2018,10:39:48.50 PM,0m 0.0s,0.0,39.9611591,-106.21646866,0,0,0.3,8128,0,0,0,0,0,0,0,0,0.9,-1.9,135.9,135.9,Starting Motors,Other,Takeoff (RC Assisted),16,5,True,,Matrice 210,True,False,,Smart,RC,True,True,False,,,True,,False,False,False,False,False,False,False,False,False,False,0,Free,0,0,0,0,False,False,False,False,False,False,,False,Normal,,,1024,1024,1024,1024,0,False,False,False,False,False,0,False,False,False,False,100,,,,25.975,True,,,,,,,,False,False,,,,,,,,False,False,,,,,0,0,0,0,0,0.0,990.66,,Idle,0,20,False,10,True,Go Home,39.96113951,-106.21647318,7.3,8211.5,393.7,True,1,1,False,False,False,False,0,False,False,False,Course Lock,98.4,237.2,23.0,Calm,18,, 4.5.0,DF059,095XF1800201C0,,0JFJ4006F4,0KPAF1T231018F,40.7,42.7,5.6,4.7,4.9,0,0,DF059,095XF1800201C0,,0JFJ4006F4,0KPAF1T231018F,,, 4.5.0,,,,Data Recorder File Index is 18.,,
6/21/2018,10:39:48.59 PM,0m 0.1s,0.1,39.96115908,-106.21646864,0,0,0.3,8128,0,0,0,0,0,0,0,0,0.9,-1.9,135.8,135.8,Starting Motors,Other,Takeoff (RC Assisted),16,5,True,,Matrice 210,True,False,,Smart,RC,True,True,False,,,True,,False,False,False,False,False,False,False,False,False,False,0,Free,0,0,0,0,False,False,False,False,False,False,,False,Normal,,,1024,1024,1024,1024,0,False,False,False,False,False,0,False,False,False,False,100,,,,25.975,True,,,,,,,,False,False,,,,,,,,False,False,,,,,0,0,0,0,0,0.0,990.66,,Idle,0,20,False,10,True,Go Home,39.96113951,-106.21647318,7.2,8211.5,393.7,True,1,1,False,False,False,False,0,False,False,False,Course Lock,98.4,237.2,23.0,Calm,18,, 4.5.0,DF059,095XF1800201C0,,0JFJ4006F4,0KPAF1T231018F,40.7,42.7,5.6,4.7,4.9,0,0,DF059,095XF1800201C0,,0JFJ4006F4,0KPAF1T231018F,,, 4.5.0,,,,,,
6/21/2018,10:39:48.70 PM,0m 0.2s,0.2,39.96115912,-106.2164686,0,0,0.3,8128,0,0,0,0,0,0,0,0,0.9,-1.9,135.8,135.8,Starting Motors,Other,Takeoff (RC Assisted),16,5,True,,Matrice 210,True,False,,Smart,RC,True,True,False,,,True,,False,False,False,False,False,False,False,False,False,False,0,Free,0,0,0,0,False,False,False,False,False,False,,False,Normal,,,1004,1024,766,1356,1,False,False,False,False,False,0,False,False,False,False,100,,,,25.975,True,,,,,,,,False,False,,,,,,,0.015,False,False,,,,,0,0,0,0,0,0.0,990.66,,Idle,0,20,False,10,True,Go Home,39.96113951,-106.21647318,7.3,8211.5,393.7,True,1,1,False,False,False,False,0,False,False,False,Course Lock,98.4,237.2,23.0,Calm,18,, 4.5.0,DF059,095XF1800201C0,,0JFJ4006F4,0KPAF1T231018F,40.7,42.7,5.6,4.7,4.9,0,0,DF059,095XF1800201C0,,0JFJ4006F4,0KPAF1T231018F,,, 4.5.0,,,,,,
6/21/2018,10:39:48.80 PM,0m 0.3s,0.3,39.96115915,-106.21646857,0,0,0.3,8128,1.1,1.1,0,0,0,0,0,0,0.9,-1.9,135.8,135.8,Starting Motors,Other,Takeoff (RC Assisted),16,5,True,,Matrice 210,True,False,,Smart,RC,True,True,False,,,True,,False,False,False,False,False,False,False,False,False,False,0,Free,0,0,0,0,False,False,False,False,False,False,,False,Normal,,,1024,1024,1024,1024,1,False,False,False,False,False,0,False,False,False,False,100,,,,25.986,False,4.327,4.329,4.329,4.336,4.327,4.338,0.011,False,False,4.322,4.324,4.325,4.323,4.325,4.31,0.015,False,False,,,,,0,0,0,0,0,0.0,990.66,,Idle,0,20,False,10,True,Go Home,39.96113951,-106.21647318,7.3,8211.5,393.7,True,1,1,False,False,False,False,0,False,False,False,Course Lock,98.4,237.2,23.0,Calm,18,, 4.5.0,DF059,095XF1800201C0,,0JFJ4006F4,0KPAF1T231018F,40.7,42.7,5.6,4.7,4.9,0,0,DF059,095XF1800201C0,,0JFJ4006F4,0KPAF1T231018F,,, 4.5.0,,,,,,
6/21/2018,10:39:48.90 PM,0m 0.4s,0.4,39.96115916,-106.21646849,0,0,0.3,8128,0,1.1,0,0,0,0,0,0,0.9,-1.9,135.8,135.8,Starting Motors,Other,Takeoff (RC Assisted),16,5,True,,Matrice 210,True,False,,Smart,RC,True,True,False,,,True,,False,False,False,False,False,False,False,False,False,False,0,Free,0,0,0,0,False,False,False,False,False,False,,False,Normal,,,1024,1024,1024,1024,1,False,False,False,False,False,0,False,False,False,False,100,,,,25.986,False,4.327,4.329,4.329,4.336,4.327,4.338,0.011,False,False,4.322,4.324,4.325,4.323,4.325,4.31,0.015,False,False,,,,,0,0,0,0,0,0.0,990.66,,Idle,0,20,False,10,True,Go Home,39.96113951,-106.21647318,7.3,8211.5,393.7,True,1,1,False,False,False,False,0,False,False,False,Course Lock,98.4,237.2,23.0,Calm,18,, 4.5.0,DF059,095XF1800201C0,,0JFJ4006F4,0KPAF1T231018F,40.7,42.7,5.6,4.7,4.9,0,0,DF059,095XF1800201C0,,0JFJ4006F4,0KPAF1T231018F,,, 4.5.0,,,,,,
6/21/2018,10:39:49.00 PM,0m 0.5s,0.5,39.96115917,-106.21646836,0,0,0.3,8128,0,1.1,0,0,0,0,0,0,0.9,-1.9,135.8,135.8,Starting Motors,Other,Takeoff (RC Assisted),16,5,True,,Matrice 210,True,False,,Smart,RC,True,True,False,,,True,,False,False,False,False,False,False,False,False,False,False,0,Free,0,0,0,0,False,False,False,False,False,False,,False,Normal,,,1024,1024,1024,1024,1,False,False,False,False,False,0,False,False,False,False,100,,,,25.986,False,4.327,4.329,4.329,4.336,4.327,4.338,0.011,False,False,4.322,4.324,4.325,4.323,4.325,4.31,0.015,False,False,,,,,0,0,0,0,0,0.0,990.66,,Idle,0,20,False,10,True,Go Home,39.96113951,-106.21647318,7.3,8211.5,393.7,True,1,1,False,False,False,False,0,False,False,False,Course Lock,98.4,237.2,23.0,Calm,18,, 4.5.0,DF059,095XF1800201C0,,0JFJ4006F4,0KPAF1T231018F,40.7,42.7,5.6,4.7,4.9,0,0,DF059,095XF1800201C0,,0JFJ4006F4,0KPAF1T231018F,,, 4.5.0,,,,,,
6/21/2018,10:39:49.10 PM,0m 0.6s,0.6,39.96115917,-106.21646833,0,0,0.3,8128,0,1.1,0,0,0,0,0,0,0.9,-1.9,135.8,135.8,Starting Motors,Other,Takeoff (RC Assisted),16,5,True,,Matrice 210,True,False,,Smart,RC,True,True,False,,,True,,False,False,False,False,False,False,False,False,False,False,0,Free,0,0,0,0,False,False,False,False,False,False,,False,Normal,,,1024,1024,1024,1024,1,False,False,False,False,False,0,False,False,False,False,100,,,,25.986,False,4.327,4.329,4.329,4.336,4.327,4.338,0.011,False,False,4.322,4.324,4.325,4.323,4.325,4.31,0.015,False,False,,,,,0,0,0,0,0,0.0,990.66,,Idle,0,20,False,10,True,Go Home,39.96113951,-106.21647318,7.3,8211.5,393.7,True,1,1,False,False,False,False,0,False,False,False,Course Lock,98.4,237.2,23.0,Calm,18,, 4.5.0,DF059,095XF1800201C0,,0JFJ4006F4,0KPAF1T231018F,40.7,42.7,5.6,4.7,4.9,0,0,DF059,095XF1800201C0,,0JFJ4006F4,0KPAF1T231018F,,, 4.5.0,,,,,,
6/21/2018,10:39:49.20 PM,0m 0.7s,0.7,39.96115917,-106.2164683,0,0,0.3,8128,1.1,1.1,0,0,0,0,0,0,0.9,-1.9,135.8,135.8,Starting Motors,Other,Takeoff (RC Assisted),16,5,True,,Matrice 210,True,False,,Smart,RC,True,True,False,,,True,,False,False,False,False,False,False,False,False,False,False,0,Free,0,0,0,0,False,False,False,False,False,False,,False,Normal,,,1024,1024,1024,1024,1,False,False,False,False,False,0,False,False,False,False,100,,,,25.986,False,4.327,4.329,4.329,4.336,4.327,4.338,0.011,False,False,4.322,4.324,4.325,4.323,4.325,4.31,0.015,False,False,,,,,0,0,0,0,0,0.0,990.66,,Idle,0,20,False,10,True,Go Home,39.96113951,-106.21647318,7.3,8211.5,393.7,True,1,1,False,False,False,False,0,False,False,False,Course Lock,98.4,237.2,23.0,Calm,18,, 4.5.0,DF059,095XF1800201C0,,0JFJ4006F4,0KPAF1T231018F,40.7,42.7,5.6,4.7,4.9,0,0,DF059,095XF1800201C0,,0JFJ4006F4,0KPAF1T231018F,,, 4.5.0,,,,,,
6/21/2018,10:39:49.30 PM,0m 0.8s,0.8,39.96115918,-106.21646829,0,0,0.3,8128,0,1.1,0,0,0,0,0,0,0.9,-1.9,135.8,135.8,Starting Motors,Other,Takeoff (RC Assisted),16,5,True,,Matrice 210,True,False,,Smart,RC,True,True,False,,,True,,False,False,False,False,False,False,False,False,False,False,0,Free,0,0,0,0,False,False,False,False,False,False,,False,Normal,,,1024,1024,1024,1024,1,False,False,False,False,False,0,False,False,False,False,100,,,,25.986,False,4.327,4.329,4.329,4.336,4.327,4.338,0.011,False,False,4.322,4.324,4.325,4.323,4.325,4.31,0.015,False,False,,,,,0,0,0,0,0,0.0,990.66,,Idle,0,20,False,10,True,Go Home,39.96113951,-106.21647318,7.3,8211.5,393.7,True,1,1,False,False,False,False,0,False,False,False,Course Lock,98.4,237.2,23.0,Calm,18,, 4.5.0,DF059,095XF1800201C0,,0JFJ4006F4,0KPAF1T231018F,40.7,42.7,5.6,4.7,4.9,0,0,DF059,095XF1800201C0,,0JFJ4006F4,0KPAF1T231018F,,, 4.5.0,,,,,,
6/21/2018,10:39:49.41 PM,0m 0.9s,0.9,39.96115913,-106.21646837,0,0,0.3,8128,0,1.1,0,0,0,0,0,0,0.9,-1.9,135.8,135.8,Starting Motors,Other,Takeoff (RC Assisted),16,5,True,,Matrice 210,True,False,,Smart,RC,True,True,False,,,True,,False,False,False,False,False,False,False,False,False,False,0,Follow Yaw,0,-2.9,135.9,135.9,False,False,False,False,False,False,,False,Normal,,,1024,1024,1024,1024,1,False,False,False,False,False,0,False,False,False,False,100,,,,25.986,False,4.327,4.329,4.329,4.336,4.327,4.338,0.011,False,False,4.322,4.324,4.325,4.323,4.325,4.31,0.015,False,False,,,,,0,0,0,0,0,0.0,990.66,,Idle,0,20,False,10,True,Go Home,39.96113951,-106.21647318,7.3,8211.5,393.7,True,1,1,False,False,False,False,0,False,False,False,Course Lock,98.4,237.2,23.0,Calm,18,, 4.5.0,DF059,095XF1800201C0,,0JFJ4006F4,0KPAF1T231018F,40.7,42.7,5.6,4.7,4.9,0,0,DF059,095XF1800201C0,,0JFJ4006F4,0KPAF1T231018F,,, 4.5.0,,,,,,
6/21/2018,10:39:49.51 PM,0m 1.0s,1.0,39.96115914,-106.21646837,0,0,0.3,8128,0,1.1,0,0,0,0,0,0,0.9,-1.9,135.8,135.8,Starting Motors,Other,Takeoff (RC Assisted),16,5,True,,Matrice 210,True,False,,Smart,RC,True,True,False,,,True,,False,False,False,False,False,False,False,False,False,False,0,Follow Yaw,0,-3,135.9,135.9,False,False,False,False,False,False,,False,Normal,,,1024,1024,1024,1024,1,False,False,False,False,False,0,False,False,False,False,100,,,,25.861,False,4.327,4.329,4.329,4.336,4.327,4.338,0.011,False,False,4.322,4.324,4.325,4.323,4.325,4.31,0.015,False,False,,,,,0,0,0,0,0,0.0,991.71,,Idle,0,20,False,10,True,Go Home,39.96113951,-106.21647318,7.3,8211.5,393.7,True,1,1,False,False,False,False,0,False,False,False,Course Lock,98.4,237.2,23.0,Calm,18,, 4.5.0,DF059,095XF1800201C0,,0JFJ4006F4,0KPAF1T231018F,40.7,42.7,5.6,4.7,4.9,0,0,DF059,095XF1800201C0,,0JFJ4006F4,0KPAF1T231018F,,, 4.5.0,,,,,,
6/21/2018,10:39:49.61 PM,0m 1.1s,1.1,39.96115916,-106.21646837,0,0,0.3,8128,0,1.1,0,0,0,0,0,0,0.9,-1.9,135.8,135.8,Starting Motors,Other,Takeoff (RC Assisted),16,5,True,,Matrice 210,True,False,,Smart,RC,True,True,False,,,True,,False,False,False,False,False,False,False,False,False,False,0,Follow Yaw,0,-3,135.9,135.9,False,False,False,False,False,False,,False,Normal,,,1024,1024,1024,1024,1,False,False,False,False,False,0,False,False,False,False,100,,,,25.861,False,4.327,4.329,4.329,4.336,4.327,4.338,0.011,False,False,4.322,4.324,4.325,4.323,4.325,4.31,0.015,False,False,,,,,0,0,0,0,0,0.0,991.71,,Idle,0,20,False,10,True,Go Home,39.96113951,-106.21647318,7.3,8211.5,393.7,True,1,1,False,False,False,False,0,False,False,False,Course Lock,98.4,237.2,23.0,Calm,18,, 4.5.0,DF059,095XF1800201C0,,0JFJ4006F4,0KPAF1T231018F,40.7,42.7,5.6,4.7,4.9,0,0,DF059,095XF1800201C0,,0JFJ4006F4,0KPAF1T231018F,,, 4.5.0,,,,,,
6/21/2018,10:39:49.71 PM,0m 1.2s,1.2,39.96115917,-106.21646836,0,0,0.3,8128,0,1.1,0,0,0,0,0,0,0.9,-1.9,135.8,135.8,Starting Motors,Other,Takeoff (RC Assisted),16,5,True,,Matrice 210,True,False,,Smart,RC,True,True,False,,,True,,False,False,False,False,False,False,False,False,False,False,0,Follow Yaw,0,-3,135.8,135.8,False,False,False,False,False,False,,False,Normal,,,1024,1024,1024,1024,1,False,False,False,False,False,0,False,False,False,False,100,,,,25.988,False,4.327,4.329,4.329,4.336,4.329,4.338,0.011,False,False,4.282,4.289,4.29,4.288,4.29,4.275,0.015,False,False,,,,,0,0,0,0,0,0.0,991.71,,Idle,0,20,False,10,True,Go Home,39.96113951,-106.21647318,7.3,8211.5,393.7,True,1,1,False,False,False,False,0,False,False,False,Course Lock,98.4,237.2,23.0,Calm,18,, 4.5.0,DF059,095XF1800201C0,,0JFJ4006F4,0KPAF1T231018F,40.7,42.7,5.6,4.7,4.9,0,0,DF059,095XF1800201C0,,0JFJ4006F4,0KPAF1T231018F,,, 4.5.0,,,,,,
6/21/2018,10:39:49.81 PM,0m 1.3s,1.3,39.96115914,-106.21646846,0,0,0.3,8128,0,1.1,0,0,0,0,0,0,0.9,-1.9,135.8,135.8,Starting Motors,Other,Takeoff (RC Assisted),16,5,True,,Matrice 210,True,False,,Smart,RC,True,True,False,,,True,,False,False,False,False,False,False,False,False,False,False,0,Follow Yaw,0,-3,135.8,135.8,False,False,False,False,False,False,,False,Normal,,,1024,1024,1024,1024,1,False,False,False,False,False,0,False,False,False,False,100,,,,25.988,False,4.327,4.329,4.329,4.336,4.329,4.338,0.011,False,False,4.282,4.289,4.29,4.288,4.29,4.275,0.015,False,False,,,,,0,0,0,0,0,0.0,991.71,,Idle,0,20,False,10,True,Go Home,39.96113951,-106.21647318,7.3,8211.5,393.7,True,1,1,False,False,False,False,0,False,False,False,Course Lock,98.4,237.2,23.0,Calm,18,, 4.5.0,DF059,095XF1800201C0,,0JFJ4006F4,0KPAF1T231018F,40.7,42.7,5.6,4.7,4.9,0,0,DF059,095XF1800201C0,,0JFJ4006F4,0KPAF1T231018F,,, 4.5.0,,,,,,
6/21/2018,10:39:49.91 PM,0m 1.4s,1.4,39.96115914,-106.21646844,0,0,0.3,8128,0,1.1,0,0,0,0,0,0,0.9,-1.9,135.8,135.8,Starting Motors,Other,Takeoff (RC Assisted),16,5,True,,Matrice 210,True,False,,Smart,RC,True,True,False,,,True,,False,False,False,False,False,False,False,False,False,False,0,Follow Yaw,0,-3,135.9,135.9,False,False,False,False,False,False,,False,Normal,,,1024,1024,1024,1024,1,False,False,False,False,False,0,False,False,False,False,100,,,,25.988,False,4.327,4.329,4.329,4.336,4.329,4.338,0.011,False,False,4.282,4.289,4.29,4.288,4.29,4.275,0.015,False,False,,,,,0,0,0,0,0,0.0,991.71,,Idle,0,20,False,10,True,Go Home,39.96113951,-106.21647318,7.3,8211.5,393.7,True,1,1,False,False,False,False,0,False,False,False,Course Lock,98.4,237.2,23.0,Calm,18,, 4.5.0,DF059,095XF1800201C0,,0JFJ4006F4,0KPAF1T231018F,40.7,42.7,5.6,4.7,4.9,0,0,DF059,095XF1800201C0,,0JFJ4006F4,0KPAF1T231018F,,, 4.5.0,,,,,,
6/21/2018,10:39:50.01 PM,0m 1.5s,1.5,39.96115914,-106.21646842,0,0,0.3,8128,0,1.1,0,0,0,0,0,0,0.9,-1.9,135.8,135.8,Manual Takeoff,Other,Takeoff (RC Assisted),16,5,True,,Matrice 210,True,False,,Smart,RC,True,True,False,,,True,,False,False,False,False,False,False,False,False,False,False,0,Follow Yaw,0,-3,135.9,135.9,False,False,False,False,False,False,,False,Normal,,,1024,1024,1024,1024,1,False,False,False,False,False,0,False,False,False,False,100,,,,25.988,False,4.327,4.329,4.329,4.336,4.329,4.338,0.011,False,False,4.282,4.289,4.29,4.288,4.29,4.275,0.015,False,False,,,,,0,0,0,0,0,0.0,991.71,,Idle,0,20,False,10,True,Go Home,39.96113951,-106.21647318,7.3,8211.5,393.7,True,1,1,False,False,False,False,0,False,False,False,Course Lock,98.4,237.2,23.0,Calm,18,, 4.5.0,DF059,095XF1800201C0,,0JFJ4006F4,0KPAF1T231018F,40.7,42.7,5.6,4.7,4.9,0,0,DF059,095XF1800201C0,,0JFJ4006F4,0KPAF1T231018F,,, 4.5.0,,,,,,
6/21/2018,10:39:50.11 PM,0m 1.6s,1.6,39.96115908,-106.21646841,0,0,0.3,8128,0,1.1,0,0,0,0,0,0,0.9,-1.9,135.8,135.8,Manual Takeoff,Other,Takeoff (RC Assisted),16,5,True,,Matrice 210,True,False,,Smart,RC,True,True,False,,,True,,False,False,False,False,False,False,False,False,False,False,0,Follow Yaw,0,-3,135.9,135.9,False,False,False,False,False,False,,False,Normal,,,1024,1024,1024,1024,1,False,False,False,False,False,0,False,False,False,False,100,,,,25.988,False,4.327,4.329,4.329,4.336,4.329,4.338,0.011,False,False,4.282,4.289,4.29,4.288,4.29,4.275,0.015,False,False,,,,,0,0,0,0,0,0.0,991.71,,Idle,0,20,False,10,True,Go Home,39.96113951,-106.21647318,7.3,8211.5,393.7,True,1,1,False,False,False,False,0,False,False,False,Course Lock,98.4,237.2,23.0,Calm,18,, 4.5.0,DF059,095XF1800201C0,,0JFJ4006F4,0KPAF1T231018F,40.7,42.7,5.6,4.7,4.9,0,0,DF059,095XF1800201C0,,0JFJ4006F4,0KPAF1T231018F,,, 4.5.0,,,,,,
6/21/2018,10:39:50.22 PM,0m 1.7s,1.7,39.96115891,-106.21646845,0,0,0.3,8128,0,1.1,0,0,0,0,0,0,0.9,-1.9,135.8,135.8,Manual Takeoff,Other,Takeoff (RC Assisted),16,5,True,,Matrice 210,True,False,,Smart,RC,True,True,False,,,True,,False,False,False,False,False,False,False,False,False,False,0,Follow Yaw,0,-3,135.8,135.8,False,False,False,False,False,False,,False,Normal,,,1024,1024,1024,1024,1,False,False,False,False,False,0,False,False,False,False,100,,,,25.988,False,4.327,4.329,4.329,4.336,4.329,4.338,0.011,False,False,4.282,4.289,4.29,4.288,4.29,4.275,0.015,False,False,,,,,0,0,0,0,0,0.0,991.71,,Idle,0,20,False,10,True,Go Home,39.96113951,-106.21647318,7.2,8211.5,393.7,True,1,1,False,False,False,False,0,False,False,False,Course Lock,98.4,237.2,23.0,Calm,18,, 4.5.0,DF059,095XF1800201C0,,0JFJ4006F4,0KPAF1T231018F,40.7,42.7,5.6,4.7,4.9,0,0,DF059,095XF1800201C0,,0JFJ4006F4,0KPAF1T231018F,,, 4.5.0,,,,,,
6/21/2018,10:39:50.32 PM,0m 1.8s,1.8,39.96115888,-106.21646841,0,0,0.3,8128,0,1.1,0,0,0,0,0,0,0.9,-1.9,135.8,135.8,Manual Takeoff,Other,Takeoff (RC Assisted),16,5,True,,Matrice 210,True,False,,Smart,RC,True,True,False,,,True,,False,False,False,False,False,False,False,False,False,False,0,Follow Yaw,0,-3,135.8,135.8,False,False,False,False,False,False,,False,Normal,,,1024,1024,1024,1024,1,False,False,False,False,False,0,False,False,False,False,100,,,,25.988,False,4.327,4.329,4.329,4.336,4.329,4.338,0.011,False,False,4.282,4.289,4.29,4.288,4.29,4.275,0.015,False,False,,,,,0,0,0,0,0,0.0,991.71,,Idle,0,20,False,10,True,Go Home,39.96113951,-106.21647318,7.2,8211.5,393.7,True,1,1,False,False,False,False,0,False,False,False,Course Lock,98.4,237.2,23.0,Calm,18,, 4.5.0,DF059,095XF1800201C0,,0JFJ4006F4,0KPAF1T231018F,40.7,42.7,5.6,4.7,4.9,0,0,DF059,095XF1800201C0,,0JFJ4006F4,0KPAF1T231018F,,, 4.5.0,,,,,,
6/21/2018,10:39:50.42 PM,0m 1.9s,1.9,39.96115886,-106.21646836,0,0,0.3,8128,0,1.1,0,0,0,0,0,0,0.9,-1.9,135.8,135.8,Manual Takeoff,Other,Takeoff (RC Assisted),16,5,True,,Matrice 210,True,False,,Smart,RC,True,True,False,,,True,,False,False,False,False,False,False,False,False,False,False,0,Follow Yaw,0,-3,135.8,135.8,False,False,False,False,False,False,,False,Normal,,,1024,1024,1024,1024,1,False,False,False,False,False,0,False,False,False,False,100,,,,25.988,False,4.327,4.329,4.329,4.336,4.329,4.338,0.011,False,False,4.282,4.289,4.29,4.288,4.29,4.275,0.015,False,False,,,,,0,0,0,0,0,0.0,991.71,,Idle,0,20,False,10,True,Go Home,39.96113951,-106.21647318,7.2,8211.5,393.7,True,1,1,False,False,False,False,0,False,False,False,Course Lock,98.4,237.2,23.0,Calm,18,, 4.5.0,DF059,095XF1800201C0,,0JFJ4006F4,0KPAF1T231018F,40.7,42.7,5.6,4.7,4.9,0,0,DF059,095XF1800201C0,,0JFJ4006F4,0KPAF1T231018F,,, 4.5.0,,,,,,
6/21/2018,10:39:50.52 PM,0m 2.0s,2.0,39.96115885,-106.21646835,0,0,0.3,8128,0,1.1,0,0,0,0,0,0,0.9,-1.9,135.8,135.8,Manual Takeoff,Other,Takeoff (RC Assisted),16,5,True,,Matrice 210,True,False,,Smart,RC,True,True,False,,,True,,False,False,False,False,False,False,False,False,False,False,0,Follow Yaw,0,-3,135.8,135.8,False,False,False,False,False,False,,False,Normal,,,1024,1024,1024,1024,1,False,False,False,False,False,0,False,False,False,False,100,,,,26.011,False,4.327,4.329,4.329,4.336,4.329,4.338,0.011,False,False,4.282,4.289,4.29,4.288,4.29,4.275,0.015,False,False,,,,,0,0,0,0,0,0.0,993.34,,Idle,0,20,False,10,True,Go Home,39.96113951,-106.21647318,7.2,8211.5,393.7,True,1,1,False,False,False,False,0,False,False,False,Course Lock,98.4,237.2,23.0,Calm,18,, 4.5.0,DF059,095XF1800201C0,,0JFJ4006F4,0KPAF1T231018F,40.7,42.7,5.6,4.7,4.9,0,0,DF059,095XF1800201C0,,0JFJ4006F4,0KPAF1T231018F,,, 4.5.0,,,,,,
6/21/2018,10:39:50.72 PM,0m 2.1s,2.1,39.96115885,-106.21646834,0,0,0.3,8128,0,1.1,0,0,0,0,0,0,1,-1.9,135.8,135.8,Manual Takeoff,Other,Takeoff (RC Assisted),16,5,True,,Matrice 210,True,False,,Smart,RC,True,True,False,,,True,,False,False,False,False,False,False,False,False,False,False,0,Follow Yaw,0,-3,135.8,135.8,False,False,False,False,False,False,,False,Normal,,,1024,1024,1024,1024,1,False,False,False,False,False,0,False,False,False,False,100,,,,26.011,False,4.327,4.329,4.329,4.336,4.329,4.338,0.011,False,False,4.282,4.289,4.29,4.288,4.29,4.275,0.015,False,False,,,,,0,0,0,0,0,0.0,993.34,,Idle,0,20,False,10,True,Go Home,39.96113951,-106.21647318,7.2,8211.5,393.7,True,1,1,False,False,False,False,0,False,False,False,Course Lock,98.4,237.2,23.0,Calm,18,, 4.5.0,DF059,095XF1800201C0,,0JFJ4006F4,0KPAF1T231018F,40.7,42.7,5.6,4.7,4.9,0,0,DF059,095XF1800201C0,,0JFJ4006F4,0KPAF1T231018F,,, 4.5.0,,,,,,
6/21/2018,10:39:50.83 PM,0m 2.2s,2.2,39.96115891,-106.21646837,0,0,0.3,8128,0,1.1,0,0,0,0,0,0,1,-1.9,135.8,135.8,Manual Takeoff,Other,Takeoff (RC Assisted),16,5,True,,Matrice 210,True,False,,Smart,RC,True,True,False,,,True,,False,False,False,False,False,False,False,False,False,False,0,Follow Yaw,0,-3.1,135.8,135.8,False,False,False,False,False,False,,False,Normal,,,1024,1024,1024,1024,1,False,False,False,False,False,0,False,False,False,False,100,,,,25.774,False,4.288,4.295,4.294,4.299,4.294,4.304,0.016,False,False,4.317,4.317,4.319,4.32,4.319,4.305,0.015,False,False,,,,,0,0,0,0,0,0.0,993.34,,Idle,0,20,False,10,True,Go Home,39.96113951,-106.21647318,7.2,8211.5,393.7,True,1,1,False,False,False,False,0,False,False,False,Course Lock,98.4,237.2,23.0,Calm,18,, 4.5.0,DF059,095XF1800201C0,,0JFJ4006F4,0KPAF1T231018F,40.7,42.7,5.6,4.7,4.9,0,0,DF059,095XF1800201C0,,0JFJ4006F4,0KPAF1T231018F,,, 4.5.0,,,,,,
6/21/2018,10:39:50.93 PM,0m 2.3s,2.3,39.96115892,-106.21646837,0,0,0.3,8128,0,1.1,0,0,0,0,0,0,1,-1.9,135.8,135.8,Manual Takeoff,Other,Takeoff (RC Assisted),16,5,True,,Matrice 210,True,False,,Smart,RC,True,True,False,,,True,,False,False,False,False,False,False,False,False,False,False,0,Follow Yaw,0,-3.1,135.8,135.8,False,False,False,False,False,False,,False,Normal,,,1024,1024,1024,1024,1,False,False,False,False,False,0,False,False,False,False,100,,,,25.774,False,4.288,4.295,4.294,4.299,4.294,4.304,0.016,False,False,4.317,4.317,4.319,4.32,4.319,4.305,0.015,False,False,,,,,0,0,0,0,0,0.0,993.34,,Idle,0,20,False,10,True,Go Home,39.96113951,-106.21647318,7.2,8211.5,393.7,True,1,1,False,False,False,False,0,False,False,False,Course Lock,98.4,237.2,23.0,Calm,18,, 4.5.0,DF059,095XF1800201C0,,0JFJ4006F4,0KPAF1T231018F,40.7,42.7,5.6,4.7,4.9,0,0,DF059,095XF1800201C0,,0JFJ4006F4,0KPAF1T231018F,,, 4.5.0,,,,,,
6/21/2018,10:39:51.03 PM,0m 2.4s,2.4,39.96115894,-106.21646837,0,0,0.3,8128,0,1.1,0,0,0,0,0,0,1,-1.9,135.8,135.8,Manual Takeoff,Other,Takeoff (RC Assisted),16,5,True,,Matrice 210,True,False,,Smart,RC,True,True,False,,,True,,False,False,False,False,False,False,False,False,False,False,0,Follow Yaw,0,-3.1,135.8,135.8,False,False,False,False,False,False,,False,Normal,,,1024,1024,1024,1024,1,False,False,False,False,False,0,False,False,False,False,100,,,,25.774,False,4.288,4.295,4.294,4.299,4.294,4.304,0.016,False,False,4.317,4.317,4.319,4.32,4.319,4.305,0.015,False,False,,,,,0,0,0,0,0,0.0,993.34,,Idle,0,20,False,10,True,Go Home,39.96113951,-106.21647318,7.2,8211.5,393.7,True,1,1,False,False,False,False,0,False,False,False,Course Lock,98.4,237.2,23.0,Calm,18,, 4.5.0,DF059,095XF1800201C0,,0JFJ4006F4,0KPAF1T231018F,40.7,42.7,5.6,4.7,4.9,0,0,DF059,095XF1800201C0,,0JFJ4006F4,0KPAF1T231018F,,, 4.5.0,,,,,,
6/21/2018,10:39:51.13 PM,0m 2.5s,2.5,39.96115895,-106.21646836,0,0,0.3,8128,1.1,1.1,0,0,0,0,0,0,1,-1.9,135.8,135.8,Manual Takeoff,Other,Takeoff (RC Assisted),16,5,True,,Matrice 210,True,False,,Smart,RC,True,True,False,,,True,,False,False,False,False,False,False,False,False,False,False,0,Follow Yaw,0,-3.1,135.8,135.8,False,False,False,False,False,False,,False,Normal,,,1024,1024,1024,1024,1,False,False,False,False,False,0,False,False,False,False,100,,,,25.774,False,4.288,4.295,4.294,4.299,4.294,4.304,0.016,False,False,4.317,4.317,4.319,4.32,4.319,4.305,0.015,False,False,,,,,0,0,0,0,0,0.0,993.34,,Idle,0,20,False,10,True,Go Home,39.96113951,-106.21647318,7.2,8211.5,393.7,True,1,1,False,False,False,False,0,False,False,False,Course Lock,98.4,237.2,23.0,Calm,18,, 4.5.0,DF059,095XF1800201C0,,0JFJ4006F4,0KPAF1T231018F,40.7,42.7,5.6,4.7,4.9,0,0,DF059,095XF1800201C0,,0JFJ4006F4,0KPAF1T231018F,,, 4.5.0,,,,,,
6/21/2018,10:39:51.23 PM,0m 2.6s,2.6,39.96115911,-106.21646841,0,0,0.3,8128,0,1.1,0,0,0,0,0,0,1,-1.9,135.8,135.8,Manual Takeoff,Other,Takeoff (RC Assisted),16,5,True,,Matrice 210,True,False,,Smart,RC,True,True,False,,,True,,False,False,False,False,False,False,False,False,False,False,0,Follow Yaw,0,-3.1,135.8,135.8,False,False,False,False,False,False,,False,Normal,,,1024,1024,1024,1024,1,False,False,False,False,False,0,False,False,False,False,100,,,,25.774,False,4.288,4.295,4.294,4.299,4.294,4.304,0.016,False,False,4.317,4.317,4.319,4.32,4.319,4.305,0.015,False,False,,,,,0,0,0,0,0,0.0,993.34,,Idle,0,20,False,10,True,Go Home,39.96113951,-106.21647318,7.3,8211.5,393.7,True,1,1,False,False,False,False,0,False,False,False,Course Lock,98.4,237.2,23.0,Calm,18,, 4.5.0,DF059,095XF1800201C0,,0JFJ4006F4,0KPAF1T231018F,40.7,42.7,5.6,4.7,4.9,0,0,DF059,095XF1800201C0,,0JFJ4006F4,0KPAF1T231018F,,, 4.5.0,,,,,,
6/21/2018,10:39:51.33 PM,0m 2.7s,2.7,39.96115918,-106.2164684,0,0,0.3,8128,0,1.1,0,0,0,0,0,0,1,-1.9,135.8,135.8,Manual Takeoff,Other,Takeoff (RC Assisted),16,5,True,,Matrice 210,True,False,,Smart,RC,True,True,False,,,True,,False,False,False,False,False,False,False,False,False,False,0,Follow Yaw,0,-3.1,135.8,135.8,False,False,False,False,False,False,,False,Normal,,,1024,1024,1024,1024,1,False,False,False,False,False,0,False,False,False,False,100,,,,25.774,False,4.288,4.295,4.294,4.299,4.294,4.304,0.016,False,False,4.317,4.317,4.319,4.32,4.319,4.305,0.015,False,False,,,,,0,0,0,0,0,0.0,993.34,,Idle,0,20,False,10,True,Go Home,39.96113951,-106.21647318,7.3,8211.5,393.7,True,1,1,False,False,False,False,0,False,False,False,Course Lock,98.4,237.2,23.0,Calm,18,, 4.5.0,DF059,095XF1800201C0,,0JFJ4006F4,0KPAF1T231018F,40.7,42.7,5.6,4.7,4.9,0,0,DF059,095XF1800201C0,,0JFJ4006F4,0KPAF1T231018F,,, 4.5.0,,,,,,
6/21/2018,10:39:51.43 PM,0m 2.8s,2.8,39.96115925,-106.2164684,0,0,0.3,8128,0,1.1,0,0,0,0,0,0,1,-1.9,135.8,135.8,Manual Takeoff,Other,Takeoff (RC Assisted),16,5,True,,Matrice 210,True,False,,Smart,RC,True,True,False,,,True,,False,False,False,False,False,False,False,False,False,False,0,Follow Yaw,0,-3.1,135.8,135.8,False,False,False,False,False,False,,False,Normal,,,1024,1024,1024,1024,1,False,False,False,False,False,0,False,False,False,False,100,,,,25.774,False,4.288,4.295,4.294,4.299,4.294,4.304,0.016,False,False,4.317,4.317,4.319,4.32,4.319,4.305,0.015,False,False,,,,,0,0,0,0,0,0.0,993.34,,Idle,0,20,False,10,True,Go Home,39.96113951,-106.21647318,7.3,8211.5,393.7,True,1,1,False,False,False,False,0,False,False,False,Course Lock,98.4,237.2,23.0,Calm,18,, 4.5.0,DF059,095XF1800201C0,,0JFJ4006F4,0KPAF1T231018F,40.7,42.7,5.6,4.7,4.9,0,0,DF059,095XF1800201C0,,0JFJ4006F4,0KPAF1T231018F,,, 4.5.0,,,,,,
6/21/2018,10:39:51.54 PM,0m 2.9s,2.9,39.96115932,-106.21646841,0,0,0.3,8128,0,1.1,0,0,0,0,0,0,1,-1.9,135.8,135.8,Manual Takeoff,Other,Takeoff (RC Assisted),16,5,True,,Matrice 210,True,False,,Smart,RC,True,True,False,,,True,,False,False,False,False,False,False,False,False,False,False,0,Follow Yaw,0,-3.1,135.8,135.8,False,False,False,False,False,False,,False,Normal,,,1024,1024,1024,1024,1,False,False,False,False,False,0,False,False,False,False,100,,,,25.774,False,4.288,4.295,4.294,4.299,4.294,4.304,0.016,False,False,4.317,4.317,4.319,4.32,4.319,4.305,0.015,False,False,,,,,0,0,0,0,0,0.0,993.34,,Idle,0,20,False,10,True,Go Home,39.96113951,-106.21647318,7.3,8211.5,393.7,True,1,1,False,False,False,False,0,False,False,False,Course Lock,98.4,237.2,23.0,Calm,18,, 4.5.0,DF059,095XF1800201C0,,0JFJ4006F4,0KPAF1T231018F,40.7,42.7,5.6,4.7,4.9,0,0,DF059,095XF1800201C0,,0JFJ4006F4,0KPAF1T231018F,,, 4.5.0,,,,,,
6/21/2018,10:39:51.64 PM,0m 3.0s,3.0,39.96115936,-106.21646846,0,0,0.3,8128,0,1.1,0,0,0,0,0,0,1,-1.9,135.8,135.8,Manual Takeoff,Other,Takeoff (RC Assisted),16,5,True,,Matrice 210,True,False,,Smart,RC,True,True,False,,,True,,False,False,False,False,False,False,False,False,False,False,0,Follow Yaw,0,-3.1,135.8,135.8,False,False,False,False,False,False,,False,Normal,,,1024,1024,1024,1024,1,False,False,False,False,False,0,False,False,False,False,100,,,,25.978,False,4.288,4.295,4.294,4.299,4.294,4.304,0.016,False,False,4.317,4.317,4.319,4.32,4.319,4.305,0.015,False,False,,,,,0,0,0,0,0,0.0,994.96,,Idle,0,20,False,10,True,Go Home,39.96113951,-106.21647318,7.4,8211.5,393.7,True,1,1,False,False,False,False,0,False,False,False,Course Lock,98.4,237.2,23.0,Calm,18,, 4.5.0,DF059,095XF1800201C0,,0JFJ4006F4,0KPAF1T231018F,40.7,42.7,5.6,4.7,4.9,0,0,DF059,095XF1800201C0,,0JFJ4006F4,0KPAF1T231018F,,, 4.5.0,,,,,,
6/21/2018,10:39:51.74 PM,0m 3.1s,3.1,39.96115939,-106.21646847,0,0,0.3,8128,0,1.1,0,0,0,0,0,0,1,-1.9,135.8,135.8,Manual Takeoff,Other,Takeoff (RC Assisted),16,5,True,,Matrice 210,True,False,,Smart,RC,True,True,False,,,True,,False,False,False,False,False,False,False,False,False,False,0,Follow Yaw,0,-3.1,135.8,135.8,False,False,False,False,False,False,,False,Normal,,,1024,1024,1024,1024,1,False,False,False,False,False,0,False,False,False,False,100,,,,25.978,False,4.288,4.295,4.294,4.299,4.294,4.304,0.016,False,False,4.317,4.317,4.319,4.32,4.319,4.305,0.015,False,False,,,,,0,0,0,0,0,0.0,994.96,,Idle,0,20,False,10,True,Go Home,39.96113951,-106.21647318,7.4,8211.5,393.7,True,1,1,False,False,False,False,0,False,False,False,Course Lock,98.4,237.2,23.0,Calm,18,, 4.5.0,DF059,095XF1800201C0,,0JFJ4006F4,0KPAF1T231018F,40.7,42.7,5.6,4.7,4.9,0,0,DF059,095XF1800201C0,,0JFJ4006F4,0KPAF1T231018F,,, 4.5.0,,,,,,
6/21/2018,10:39:51.84 PM,0m 3.2s,3.2,39.96115944,-106.2164685,0,0,0.3,8128,0,1.1,0,0,0,0,0,0,1,-1.9,135.8,135.8,Manual Takeoff,Other,Takeoff (RC Assisted),16,5,True,,Matrice 210,True,False,,Smart,RC,True,True,False,,,True,,False,False,False,False,False,False,False,False,False,False,0,Follow Yaw,0,-3.2,135.8,135.8,False,False,False,False,False,False,,False,Normal,,,1024,1024,1024,1024,1,False,False,False,False,False,0,False,False,False,False,100,,,,25.978,False,4.288,4.295,4.294,4.299,4.294,4.304,0.016,False,False,4.316,4.317,4.319,4.316,4.317,4.302,0.017,False,False,,,,,0,0,0,0,0,0.0,994.96,,Idle,0,20,False,10,True,Go Home,39.96113951,-106.21647318,7.4,8211.5,393.7,True,1,1,False,False,False,False,0,False,False,False,Course Lock,98.4,237.2,23.0,Calm,18,, 4.5.0,DF059,095XF1800201C0,,0JFJ4006F4,0KPAF1T231018F,40.7,42.7,5.6,4.7,4.9,0,0,DF059,095XF1800201C0,,0JFJ4006F4,0KPAF1T231018F,,, 4.5.0,,,,,,
6/21/2018,10:39:51.94 PM,0m 3.3s,3.3,39.96115948,-106.21646852,0,0,0.3,8128,0,1.1,0,0,0,0,0,0,1,-1.9,135.8,135.8,Manual Takeoff,Other,Takeoff (RC Assisted),16,5,True,,Matrice 210,True,False,,Smart,RC,True,True,False,,,True,,False,False,False,False,False,False,False,False,False,False,0,Follow Yaw,0,-3.2,135.8,135.8,False,False,False,False,False,False,,False,Normal,,,1024,1024,1024,1024,1,False,False,False,False,False,0,False,False,False,False,100,,,,25.943,False,4.319,4.322,4.322,4.329,4.32,4.331,0.016,False,False,4.316,4.317,4.319,4.316,4.317,4.302,0.017,False,False,,,,,0,0,0,0,0,0.0,994.96,,Idle,0,20,False,10,True,Go Home,39.96113951,-106.21647318,7.4,8211.5,393.7,True,1,1,False,False,False,False,0,False,False,False,Course Lock,98.4,237.2,23.0,Calm,18,, 4.5.0,DF059,095XF1800201C0,,0JFJ4006F4,0KPAF1T231018F,40.7,42.7,5.6,4.7,4.9,0,0,DF059,095XF1800201C0,,0JFJ4006F4,0KPAF1T231018F,,, 4.5.0,,,,,,
6/21/2018,10:39:52.04 PM,0m 3.4s,3.4,39.96115945,-106.21646857,0,0,0.3,8128,0,1.1,0,0,0,0,0,0,1,-1.9,135.8,135.8,Manual Takeoff,Other,Takeoff (RC Assisted),16,5,True,,Matrice 210,True,False,,Smart,RC,True,True,False,,,True,,False,False,False,False,False,False,False,False,False,False,0,Follow Yaw,0,-3.2,135.8,135.8,False,False,False,False,False,False,,False,Normal,,,1024,1024,1024,1024,1,False,False,False,False,False,0,False,False,False,False,100,,,,25.943,False,4.319,4.322,4.322,4.329,4.32,4.331,0.016,False,False,4.316,4.317,4.319,4.316,4.317,4.302,0.017,False,False,,,,,0,0,0,0,0,0.0,994.96,,Idle,0,20,False,10,True,Go Home,39.96113951,-106.21647318,7.4,8211.5,393.7,True,1,1,False,False,False,False,0,False,False,False,Course Lock,98.4,237.2,23.0,Calm,18,, 4.5.0,DF059,095XF1800201C0,,0JFJ4006F4,0KPAF1T231018F,40.7,42.7,5.6,4.7,4.9,0,0,DF059,095XF1800201C0,,0JFJ4006F4,0KPAF1T231018F,,, 4.5.0,,,,,,
6/21/2018,10:39:52.14 PM,0m 3.5s,3.5,39.96115947,-106.21646859,0,0,0.3,8128,0,1.1,0,0,0,0,0,0,1,-1.9,135.8,135.8,Manual Takeoff,Other,Takeoff (RC Assisted),16,5,True,,Matrice 210,True,False,,Smart,RC,True,True,False,,,True,,False,False,False,False,False,False,False,False,False,False,0,Follow Yaw,0,-3.2,135.8,135.8,False,False,False,False,False,False,,False,Normal,,,1024,1024,1024,1024,1,False,False,False,False,False,0,False,False,False,False,100,,,,25.943,False,4.319,4.322,4.322,4.329,4.32,4.331,0.016,False,False,4.316,4.317,4.319,4.316,4.317,4.302,0.017,False,False,,,,,0,0,0,0,0,0.0,994.96,,Idle,0,20,False,10,True,Go Home,39.96113951,-106.21647318,7.4,8211.5,393.7,True,1,1,False,False,False,False,0,False,False,False,Course Lock,98.4,237.2,23.0,Calm,18,, 4.5.0,DF059,095XF1800201C0,,0JFJ4006F4,0KPAF1T231018F,40.7,42.7,5.6,4.7,4.9,0,0,DF059,095XF1800201C0,,0JFJ4006F4,0KPAF1T231018F,,, 4.5.0,,,,,,
6/21/2018,10:39:52.24 PM,0m 3.6s,3.6,39.96115951,-106.21646861,0,0,0.3,8128,0,1.1,0,0,0,0,0,0,1,-1.9,135.8,135.8,Manual Takeoff,Other,Takeoff (RC Assisted),16,5,True,,Matrice 210,True,False,,Smart,RC,True,True,False,,,True,,False,False,False,False,False,False,False,False,False,False,0,Follow Yaw,0,-3.2,135.8,135.8,False,False,False,False,False,False,,False,Normal,,,1024,1024,1024,1024,1,False,False,False,False,False,0,False,False,False,False,100,,,,25.943,False,4.319,4.322,4.322,4.329,4.32,4.331,0.016,False,False,4.316,4.317,4.319,4.316,4.317,4.302,0.017,False,False,,,,,0,0,0,0,0,0.0,994.96,,Idle,0,20,False,10,True,Go Home,39.96113951,-106.21647318,7.4,8211.5,393.7,True,1,1,False,False,False,False,0,False,False,False,Course Lock,98.4,237.2,23.0,Calm,18,, 4.5.0,DF059,095XF1800201C0,,0JFJ4006F4,0KPAF1T231018F,40.7,42.7,5.6,4.7,4.9,0,0,DF059,095XF1800201C0,,0JFJ4006F4,0KPAF1T231018F,,, 4.5.0,,,,,,
6/21/2018,10:39:52.35 PM,0m 3.7s,3.7,39.96115956,-106.21646863,0,0,0.3,8128,0,1.1,0,0,0,0,0,0,1,-1.9,135.8,135.8,Manual Takeoff,Other,Takeoff (RC Assisted),16,5,True,,Matrice 210,True,False,,Smart,RC,True,True,False,,,True,,False,False,False,False,False,False,False,False,False,False,0,Follow Yaw,0,-3.1,135.8,135.8,False,False,False,False,False,False,,False,Normal,,,1024,1024,1024,1024,1,False,False,False,False,False,0,False,False,False,False,100,,,,25.943,False,4.319,4.322,4.322,4.329,4.32,4.331,0.016,False,False,4.316,4.317,4.319,4.316,4.317,4.302,0.017,False,False,,,,,0,0,0,0,0,0.0,994.96,,Idle,0,20,False,10,True,Go Home,39.96113951,-106.21647318,7.4,8211.5,393.7,True,1,1,False,False,False,False,0,False,False,False,Course Lock,98.4,237.2,23.0,Calm,18,, 4.5.0,DF059,095XF1800201C0,,0JFJ4006F4,0KPAF1T231018F,40.7,42.7,5.6,4.7,4.9,0,0,DF059,095XF1800201C0,,0JFJ4006F4,0KPAF1T231018F,,, 4.5.0,,,,,,
6/21/2018,10:39:52.37 PM,0m 3.8s,3.8,39.96115957,-106.21646864,0,0,0.3,8128,0,1.1,0,0,0,0,0,0,1,-1.9,135.8,135.8,Manual Takeoff,Other,Takeoff (RC Assisted),16,5,True,,Matrice 210,True,False,,Smart,RC,True,True,False,,,True,,False,False,False,False,False,False,False,False,False,False,0,Follow Yaw,0,-3.1,135.8,135.8,False,False,False,False,False,False,,False,Normal,,,1024,1024,1024,1024,1,False,False,False,False,False,0,False,False,False,False,100,,,,25.943,False,4.319,4.322,4.322,4.329,4.32,4.331,0.016,False,False,4.316,4.317,4.319,4.316,4.317,4.302,0.017,False,False,,,,,0,0,0,0,0,0.0,994.96,,Idle,0,20,False,10,True,Go Home,39.96113951,-106.21647318,7.4,8211.5,393.7,True,1,1,False,False,False,False,0,False,False,False,Course Lock,98.4,237.2,23.0,Calm,18,, 4.5.0,DF059,095XF1800201C0,,0JFJ4006F4,0KPAF1T231018F,40.7,42.7,5.6,4.7,4.9,0,0,DF059,095XF1800201C0,,0JFJ4006F4,0KPAF1T231018F,,, 4.5.0,,,,,,
6/21/2018,10:39:52.45 PM,0m 3.9s,3.9,39.96115955,-106.21646862,0,0,0.3,8128,0,1.1,0,0,0,0,0,0,0.9,-1.9,135.8,135.8,Manual Takeoff,Other,Takeoff (RC Assisted),16,5,True,,Matrice 210,True,False,,Smart,RC,True,True,False,,,True,,False,False,False,False,False,False,False,False,False,False,0,Follow Yaw,0,-3.1,135.8,135.8,False,False,False,False,False,False,,False,Normal,,,1024,1024,1024,1024,1,False,False,False,False,False,0,False,False,False,False,100,,,,25.943,False,4.319,4.322,4.322,4.329,4.32,4.331,0.016,False,False,4.316,4.317,4.319,4.316,4.317,4.302,0.017,False,False,,,,,0,0,0,0,0,0.0,994.96,,Idle,0,20,False,10,True,Go Home,39.96113951,-106.21647318,7.4,8211.5,393.7,True,1,1,False,False,False,False,0,False,False,False,Course Lock,98.4,237.2,23.0,Calm,18,, 4.5.0,DF059,095XF1800201C0,,0JFJ4006F4,0KPAF1T231018F,40.7,42.7,5.6,4.7,4.9,0,0,DF059,095XF1800201C0,,0JFJ4006F4,0KPAF1T231018F,,, 4.5.0,,,,,,
6/21/2018,10:39:52.55 PM,0m 4.0s,4.0,39.9611596,-106.21646863,0,0,0.3,8128,0,1.1,0,0,0,0,0,0,0.9,-1.9,135.8,135.8,Manual Takeoff,Other,Takeoff (RC Assisted),16,5,True,,Matrice 210,True,False,,Smart,RC,True,True,False,,,True,,False,False,False,False,False,False,False,False,False,False,0,Follow Yaw,0,-3.1,135.8,135.8,False,False,False,False,False,False,,False,Normal,,,1024,1024,1024,1024,1,False,False,False,False,False,0,False,False,False,False,100,,,,25.977,False,4.319,4.322,4.322,4.329,4.32,4.331,0.016,False,False,4.316,4.317,4.319,4.316,4.317,4.302,0.017,False,False,,,,,0,0,0,0,0,0.0,1052.79,,Idle,0,20,False,10,True,Go Home,39.96113951,-106.21647318,7.4,8211.5,393.7,True,1,1,False,False,False,False,0,False,False,False,Course Lock,98.4,237.2,23.0,Calm,18,, 4.5.0,DF059,095XF1800201C0,,0JFJ4006F4,0KPAF1T231018F,40.7,42.7,5.6,4.7,4.9,0,0,DF059,095XF1800201C0,,0JFJ4006F4,0KPAF1T231018F,,, 4.5.0,,,,,,
6/21/2018,10:39:52.65 PM,0m 4.1s,4.1,39.96115965,-106.21646863,0,0,0.3,8128,0,1.1,0,0,0,0,0,0,0.9,-1.9,135.8,135.8,Manual Takeoff,Other,Takeoff (RC Assisted),16,5,True,,Matrice 210,True,False,,Smart,RC,True,True,False,,,True,,False,False,False,False,False,False,False,False,False,False,0,Follow Yaw,0,-3.1,135.8,135.8,False,False,False,False,False,False,,False,Normal,,,1024,1024,1024,1024,1,False,False,False,False,False,0,False,False,False,False,100,,,,25.977,False,4.319,4.322,4.322,4.329,4.32,4.331,0.016,False,False,4.316,4.317,4.319,4.316,4.317,4.302,0.017,False,False,,,,,0,0,0,0,0,0.0,1052.79,,Idle,0,20,False,10,True,Go Home,39.96113951,-106.21647318,7.4,8211.5,393.7,True,1,1,False,False,False,False,0,False,False,False,Course Lock,98.4,237.2,23.0,Calm,18,, 4.5.0,DF059,095XF1800201C0,,0JFJ4006F4,0KPAF1T231018F,40.7,42.7,5.6,4.7,4.9,0,0,DF059,095XF1800201C0,,0JFJ4006F4,0KPAF1T231018F,,, 4.5.0,,,,,,
6/21/2018,10:39:52.85 PM,0m 4.2s,4.2,39.96115967,-106.21646864,0,0,0.3,8128,0,1.1,0,0,0,0,0,0,1,-1.9,135.8,135.8,Manual Takeoff,Other,Takeoff (RC Assisted),16,5,True,,Matrice 210,True,False,,Smart,RC,True,True,False,,,True,,False,False,False,False,False,False,False,False,False,False,0,Follow Yaw,0,-3.1,135.8,135.8,False,False,False,False,False,False,,False,Normal,,,1024,1024,1024,1024,1,False,False,False,False,False,0,False,False,False,False,100,,,,25.977,False,4.319,4.322,4.322,4.329,4.32,4.331,0.016,False,False,4.317,4.317,4.319,4.318,4.317,4.302,0.017,False,False,,,,,0,0,0,0,0,0.0,1052.79,,Idle,0,20,False,10,True,Go Home,39.96113951,-106.21647318,7.5,8211.5,393.7,True,1,1,False,False,False,False,0,False,False,False,Course Lock,98.4,237.2,23.0,Calm,18,, 4.5.0,DF059,095XF1800201C0,,0JFJ4006F4,0KPAF1T231018F,40.7,42.7,5.6,4.7,4.9,0,0,DF059,095XF1800201C0,,0JFJ4006F4,0KPAF1T231018F,,, 4.5.0,,,,,,
6/21/2018,10:39:52.87 PM,0m 4.3s,4.3,39.96115966,-106.21646858,0,0,0.3,8128,0,1.1,0,0,0,0,0,0,0.9,-1.9,135.8,135.8,Manual Takeoff,Other,Takeoff (RC Assisted),16,5,True,,Matrice 210,True,False,,Smart,RC,True,True,False,,,True,,False,False,False,False,False,False,False,False,False,False,0,Follow Yaw,0,-3.1,135.8,135.8,False,False,False,False,False,False,,False,Normal,,,1024,1024,1024,1024,1,False,False,False,False,False,0,False,False,False,False,100,,,,25.977,False,4.319,4.322,4.322,4.329,4.32,4.331,0.016,False,False,4.317,4.317,4.319,4.318,4.317,4.302,0.017,False,False,,,,,0,0,0,0,0,0.0,1052.79,,Idle,0,20,False,10,True,Go Home,39.96113951,-106.21647318,7.5,8211.5,393.7,True,1,1,False,False,False,False,0,False,False,False,Course Lock,98.4,237.2,23.0,Calm,18,, 4.5.0,DF059,095XF1800201C0,,0JFJ4006F4,0KPAF1T231018F,40.7,42.7,5.6,4.7,4.9,0,0,DF059,095XF1800201C0,,0JFJ4006F4,0KPAF1T231018F,,, 4.5.0,,,,,,
6/21/2018,10:39:52.95 PM,0m 4.4s,4.4,39.96115971,-106.21646858,0,0,0.3,8128,0,1.1,0,0,0,0,0,0,1,-1.9,135.8,135.8,Manual Takeoff,Other,Takeoff (RC Assisted),16,5,True,,Matrice 210,True,False,,Smart,RC,True,True,False,,,True,,False,False,False,False,False,False,False,False,False,False,0,Follow Yaw,0,-3.1,135.8,135.8,False,False,False,False,False,False,,False,Normal,,,1024,1024,1024,1024,1,False,False,False,False,False,0,False,False,False,False,100,,,,25.939,False,4.319,4.324,4.32,4.327,4.319,4.33,0.016,False,False,4.317,4.317,4.319,4.318,4.317,4.302,0.017,False,False,,,,,0,0,0,0,0,0.0,1052.79,,Idle,0,20,False,10,True,Go Home,39.96113951,-106.21647318,7.5,8211.5,393.7,True,1,1,False,False,False,False,0,False,False,False,Course Lock,98.4,237.2,23.0,Calm,18,, 4.5.0,DF059,095XF1800201C0,,0JFJ4006F4,0KPAF1T231018F,40.7,42.7,5.6,4.7,4.9,0,0,DF059,095XF1800201C0,,0JFJ4006F4,0KPAF1T231018F,,, 4.5.0,,,,,,
6/21/2018,10:39:53.06 PM,0m 4.5s,4.5,39.96115975,-106.2164686,0,0,0.3,8128,0,1.1,0,0,0,0,0,0,1,-1.9,135.8,135.8,Manual Takeoff,Other,Takeoff (RC Assisted),16,5,True,,Matrice 210,True,False,,Smart,RC,True,True,False,,,True,,False,False,False,False,False,False,False,False,False,False,0,Follow Yaw,0,-3.1,135.8,135.8,False,False,False,False,False,False,,False,Normal,,,1024,1024,1024,1024,1,False,False,False,False,False,0,False,False,False,False,100,,,,25.939,False,4.319,4.324,4.32,4.327,4.319,4.33,0.016,False,False,4.317,4.317,4.319,4.318,4.317,4.302,0.017,False,False,,,,,0,0,0,0,0,0.0,1052.79,,Idle,0,20,False,10,True,Go Home,39.96113951,-106.21647318,7.5,8211.5,393.7,True,1,1,False,False,False,False,0,False,False,False,Course Lock,98.4,237.2,23.0,Calm,18,, 4.5.0,DF059,095XF1800201C0,,0JFJ4006F4,0KPAF1T231018F,40.7,42.7,5.6,4.7,4.9,0,0,DF059,095XF1800201C0,,0JFJ4006F4,0KPAF1T231018F,,, 4.5.0,,,,,,
6/21/2018,10:39:53.16 PM,0m 4.6s,4.6,39.96115977,-106.21646861,0,0,0.3,8128,0,1.1,0,0,0,0,0,0,1,-1.9,135.8,135.8,Manual Takeoff,Other,Takeoff (RC Assisted),16,5,True,,Matrice 210,True,False,,Smart,RC,True,True,False,,,True,,False,False,False,False,False,False,False,False,False,False,0,Follow Yaw,0,-3.1,135.8,135.8,False,False,False,False,False,False,,False,Normal,,,1024,1024,1024,1024,1,False,False,False,False,False,0,False,False,False,False,100,,,,25.939,False,4.319,4.324,4.32,4.327,4.319,4.33,0.016,False,False,4.317,4.317,4.319,4.318,4.317,4.302,0.017,False,False,,,,,0,0,0,0,0,0.0,1052.79,,Idle,0,20,False,10,True,Go Home,39.96113951,-106.21647318,7.5,8211.5,393.7,True,1,1,False,False,False,False,0,False,False,False,Course Lock,98.4,237.2,23.0,Calm,18,, 4.5.0,DF059,095XF1800201C0,,0JFJ4006F4,0KPAF1T231018F,40.7,42.7,5.6,4.7,4.9,0,0,DF059,095XF1800201C0,,0JFJ4006F4,0KPAF1T231018F,,, 4.5.0,,,,,,
6/21/2018,10:39:53.26 PM,0m 4.7s,4.7,39.96115976,-106.21646859,0,0,0.3,8128,0,1.1,0,0,0,0,0,0,1,-1.9,135.8,135.8,Manual Takeoff,Other,Takeoff (RC Assisted),16,5,True,,Matrice 210,True,False,,Smart,RC,True,True,False,,,True,,False,False,False,False,False,False,False,False,False,False,0,Follow Yaw,0,-3.1,135.8,135.8,False,False,False,False,False,False,,False,Normal,,,1024,1024,1024,1024,1,False,False,False,False,False,0,False,False,False,False,100,,,,25.939,False,4.319,4.324,4.32,4.327,4.319,4.33,0.016,False,False,4.317,4.317,4.319,4.318,4.317,4.302,0.017,False,False,,,,,0,0,0,0,0,0.0,1052.79,,Idle,0,20,False,10,True,Go Home,39.96113951,-106.21647318,7.5,8211.5,393.7,True,1,1,False,False,False,False,0,False,False,False,Course Lock,98.4,237.2,23.0,Calm,18,, 4.5.0,DF059,095XF1800201C0,,0JFJ4006F4,0KPAF1T231018F,40.7,42.7,5.6,4.7,4.9,0,0,DF059,095XF1800201C0,,0JFJ4006F4,0KPAF1T231018F,,, 4.5.0,,,,,,
6/21/2018,10:39:53.36 PM,0m 4.8s,4.8,39.96115982,-106.21646859,0,0,0.3,8128,0,1.1,0,0,0,0,0,0,1,-1.9,135.8,135.8,Manual Takeoff,Other,Takeoff (RC Assisted),16,5,True,,Matrice 210,True,False,,Smart,RC,True,True,False,,,True,,False,False,False,False,False,False,False,False,False,False,0,Follow Yaw,0,-3.1,135.8,135.8,False,False,False,False,False,False,,False,Normal,,,1024,1024,1024,1024,1,False,False,False,False,False,0,False,False,False,False,100,,,,25.939,False,4.319,4.324,4.32,4.327,4.319,4.33,0.016,False,False,4.317,4.317,4.319,4.318,4.317,4.302,0.017,False,False,,,,,0,0,0,0,0,0.0,1052.79,,Idle,0,20,False,10,True,Go Home,39.96113951,-106.21647318,7.5,8211.5,393.7,True,1,1,False,False,False,False,0,False,False,False,Course Lock,98.4,237.2,23.0,Calm,18,, 4.5.0,DF059,095XF1800201C0,,0JFJ4006F4,0KPAF1T231018F,40.7,42.7,5.6,4.7,4.9,0,0,DF059,095XF1800201C0,,0JFJ4006F4,0KPAF1T231018F,,, 4.5.0,,,,,,
6/21/2018,10:39:53.46 PM,0m 4.9s,4.9,39.96115987,-106.2164686,0,0,0.3,8128,0,1.1,0,0,0,0,0,0,0.9,-1.9,135.8,135.8,Manual Takeoff,Other,Takeoff (RC Assisted),16,5,True,,Matrice 210,True,False,,Smart,RC,True,True,False,,,True,,False,False,False,False,False,False,False,False,False,False,0,Follow Yaw,0,-3.1,135.8,135.8,False,False,False,False,False,False,,False,Normal,,,1024,1024,1024,1024,1,False,False,False,False,False,0,False,False,False,False,100,,,,25.939,False,4.319,4.324,4.32,4.327,4.319,4.33,0.016,False,False,4.317,4.317,4.319,4.318,4.317,4.302,0.017,False,False,,,,,0,0,0,0,0,0.0,1052.79,,Idle,0,20,False,10,True,Go Home,39.96113951,-106.21647318,7.5,8211.5,393.7,True,1,1,False,False,False,False,0,False,False,False,Course Lock,98.4,237.2,23.0,Calm,18,, 4.5.0,DF059,095XF1800201C0,,0JFJ4006F4,0KPAF1T231018F,40.7,42.7,5.6,4.7,4.9,0,0,DF059,095XF1800201C0,,0JFJ4006F4,0KPAF1T231018F,,, 4.5.0,,,,,,
6/21/2018,10:39:53.56 PM,0m 5.0s,5.0,39.96115985,-106.21646862,0,0,0.3,8128,0,1.1,0,0,0,0,0,0,0.9,-1.9,135.8,135.8,Manual Takeoff,Other,Takeoff (RC Assisted),16,5,True,,Matrice 210,True,False,,Smart,RC,True,True,False,,,True,,False,False,False,False,False,False,False,False,False,False,0,Follow Yaw,0,-3.1,135.8,135.8,False,False,False,False,False,False,,False,Normal,,,1024,1024,1024,1024,1,False,False,False,False,False,0,False,False,False,False,100,,,,25.952,False,4.319,4.324,4.32,4.327,4.319,4.33,0.016,False,False,4.317,4.317,4.319,4.318,4.317,4.302,0.017,False,False,,,,,0,0,0,0,0,0.0,1245.15,,Idle,0,20,False,10,True,Go Home,39.96113951,-106.21647318,7.5,8211.5,393.7,True,1,1,False,False,False,False,0,False,False,False,Course Lock,98.4,237.2,23.0,Calm,18,, 4.5.0,DF059,095XF1800201C0,,0JFJ4006F4,0KPAF1T231018F,40.7,42.7,5.6,4.7,4.9,0,0,DF059,095XF1800201C0,,0JFJ4006F4,0KPAF1T231018F,,, 4.5.0,,,,,,
6/21/2018,10:39:53.66 PM,0m 5.1s,5.1,39.96115971,-106.21646859,0,0,0.3,8128,0,1.1,0,0,0,0,0,0,0.9,-1.9,135.8,135.8,Manual Takeoff,Other,Takeoff (RC Assisted),16,5,True,,Matrice 210,True,False,,Smart,RC,True,True,False,,,True,,False,False,False,False,False,False,False,False,False,False,0,Follow Yaw,0,-3.1,135.8,135.8,False,False,False,False,False,False,,False,Normal,,,1024,1024,1024,1024,1,False,False,False,False,False,0,False,False,False,False,100,,,,25.952,False,4.319,4.324,4.32,4.327,4.319,4.33,0.016,False,False,4.317,4.317,4.319,4.318,4.317,4.302,0.017,False,False,,,,,0,0,0,0,0,0.0,1245.15,,Idle,0,20,False,10,True,Go Home,39.96113951,-106.21647318,7.5,8211.5,393.7,True,1,1,False,False,False,False,0,False,False,False,Course Lock,98.4,237.2,23.0,Calm,18,, 4.5.0,DF059,095XF1800201C0,,0JFJ4006F4,0KPAF1T231018F,40.7,42.7,5.6,4.7,4.9,0,0,DF059,095XF1800201C0,,0JFJ4006F4,0KPAF1T231018F,,, 4.5.0,,,,,,
6/21/2018,10:39:53.77 PM,0m 5.2s,5.2,39.96115971,-106.21646859,0,0,0.3,8128,0,1.1,0,0,0,0,0,0,0.9,-1.9,135.8,135.8,Manual Takeoff,Other,Takeoff (RC Assisted),16,5,True,,Matrice 210,True,False,,Smart,RC,True,True,False,,,True,,False,False,False,False,False,False,False,False,False,False,0,Follow Yaw,0,-3.1,135.8,135.8,False,False,False,False,False,False,,False,Normal,,,1024,1024,1024,1024,1,False,False,False,False,False,0,False,False,False,False,100,,,,25.952,False,4.319,4.324,4.32,4.327,4.319,4.33,0.016,False,False,4.316,4.317,4.319,4.316,4.317,4.303,0.017,False,False,,,,,0,0,0,0,0,0.0,1245.15,,Idle,0,20,False,10,True,Go Home,39.96113951,-106.21647318,7.5,8211.5,393.7,True,1,1,False,False,False,False,0,False,False,False,Course Lock,98.4,237.2,23.0,Calm,18,, 4.5.0,DF059,095XF1800201C0,,0JFJ4006F4,0KPAF1T231018F,40.7,42.7,5.6,4.7,4.9,0,0,DF059,095XF1800201C0,,0JFJ4006F4,0KPAF1T231018F,,, 4.5.0,,,,,,
6/21/2018,10:39:53.87 PM,0m 5.3s,5.3,39.9611597,-106.2164686,0,0,0.3,8128,0,1.1,0,0,0,0,0,0,0.9,-1.9,135.8,135.8,Manual Takeoff,Other,Takeoff (RC Assisted),16,5,True,,Matrice 210,True,False,,Smart,RC,True,True,False,,,True,,False,False,False,False,False,False,False,False,False,False,0,Follow Yaw,0,-3.1,135.8,135.8,False,False,False,False,False,False,,False,Normal,,,1024,1024,1024,1024,1,False,False,False,False,False,0,False,False,False,False,100,,,,25.936,False,4.317,4.322,4.32,4.327,4.32,4.33,0.016,False,False,4.316,4.317,4.319,4.316,4.317,4.303,0.017,False,False,,,,,0,0,0,0,0,0.0,1245.15,,Idle,0,20,False,10,True,Go Home,39.96113951,-106.21647318,7.5,8211.5,393.7,True,1,1,False,False,False,False,0,False,False,False,Course Lock,98.4,237.2,23.0,Calm,18,, 4.5.0,DF059,095XF1800201C0,,0JFJ4006F4,0KPAF1T231018F,40.7,42.7,5.6,4.7,4.9,0,0,DF059,095XF1800201C0,,0JFJ4006F4,0KPAF1T231018F,,, 4.5.0,,,,,,
6/21/2018,10:39:53.97 PM,0m 5.4s,5.4,39.96115972,-106.21646862,0,0,0.3,8128,0,1.1,0,0,0,0,0,0,0.9,-1.9,135.8,135.8,Manual Takeoff,Other,Takeoff (RC Assisted),16,5,True,,Matrice 210,True,False,,Smart,RC,True,True,False,,,True,,False,False,False,False,False,False,False,False,False,False,0,Follow Yaw,0,-3.1,135.8,135.8,False,False,False,False,False,False,,False,Normal,,,1024,1024,1024,1024,1,False,False,False,False,False,0,False,False,False,False,100,,,,25.936,False,4.317,4.322,4.32,4.327,4.32,4.33,0.016,False,False,4.316,4.317,4.319,4.316,4.317,4.303,0.017,False,False,,,,,0,0,0,0,0,0.0,1245.15,,Idle,0,20,False,10,True,Go Home,39.96113951,-106.21647318,7.5,8211.5,393.7,True,1,1,False,False,False,False,0,False,False,False,Course Lock,98.4,237.2,23.0,Calm,18,, 4.5.0,DF059,095XF1800201C0,,0JFJ4006F4,0KPAF1T231018F,40.7,42.7,5.6,4.7,4.9,0,0,DF059,095XF1800201C0,,0JFJ4006F4,0KPAF1T231018F,,, 4.5.0,,,,,,
6/21/2018,10:39:54.07 PM,0m 5.5s,5.5,39.96115973,-106.21646864,0,0,0.3,8128,0,1.1,0,0,0,0,0,0,0.9,-1.9,135.8,135.8,Manual Takeoff,Other,Takeoff (RC Assisted),16,5,True,,Matrice 210,True,False,,Smart,RC,True,True,False,,,True,,False,False,False,False,False,False,False,False,False,False,0,Follow Yaw,0,-3,135.8,135.8,False,False,False,False,False,False,,False,Normal,,,1024,1024,1024,1024,1,False,False,False,False,False,0,False,False,False,False,100,,,,25.936,False,4.317,4.322,4.32,4.327,4.32,4.33,0.016,False,False,4.316,4.317,4.319,4.316,4.317,4.303,0.017,False,False,,,,,0,0,0,0,0,0.0,1245.15,,Idle,0,20,False,10,True,Go Home,39.96113951,-106.21647318,7.5,8211.5,393.7,True,1,1,False,False,False,False,0,False,False,False,Course Lock,98.4,237.2,23.0,Calm,18,, 4.5.0,DF059,095XF1800201C0,,0JFJ4006F4,0KPAF1T231018F,40.7,42.7,5.6,4.7,4.9,0,0,DF059,095XF1800201C0,,0JFJ4006F4,0KPAF1T231018F,,, 4.5.0,,,,,,
6/21/2018,10:39:54.17 PM,0m 5.6s,5.6,39.96115952,-106.21646859,0,0,0.3,8128,0,1.1,0,0,0,0,0,0,0.9,-1.9,135.8,135.8,Manual Takeoff,Other,Takeoff (RC Assisted),16,5,True,,Matrice 210,True,False,,Smart,RC,True,True,False,,,True,,False,False,False,False,False,False,False,False,False,False,0,Follow Yaw,0,-3,135.8,135.8,False,False,False,False,False,False,,False,Normal,,,1024,1024,1024,1024,1,False,False,False,False,False,0,False,False,False,False,100,,,,25.936,False,4.317,4.322,4.32,4.327,4.32,4.33,0.016,False,False,4.316,4.317,4.319,4.316,4.317,4.303,0.017,False,False,,,,,0,0,0,0,0,0.0,1245.15,,Idle,0,20,False,10,True,Go Home,39.96113951,-106.21647318,7.4,8211.5,393.7,True,1,1,False,False,False,False,0,False,False,False,Course Lock,98.4,237.2,23.0,Calm,18,, 4.5.0,DF059,095XF1800201C0,,0JFJ4006F4,0KPAF1T231018F,40.7,42.7,5.6,4.7,4.9,0,0,DF059,095XF1800201C0,,0JFJ4006F4,0KPAF1T231018F,,, 4.5.0,,,,,,
6/21/2018,10:39:54.27 PM,0m 5.7s,5.7,39.96115949,-106.21646859,0,0,0.3,8128,1.1,1.1,0,0,0,0,0,0,0.9,-1.9,135.9,135.9,Manual Takeoff,Other,Takeoff (RC Assisted),16,5,True,,Matrice 210,True,False,,Smart,RC,True,True,False,,,True,,False,False,False,False,False,False,False,False,False,False,0,Follow Yaw,0,-3,135.8,135.8,False,False,False,False,False,False,,False,Normal,,,1024,1024,1024,1024,1,False,False,False,False,False,0,False,False,False,False,100,,,,25.936,False,4.317,4.322,4.32,4.327,4.32,4.33,0.016,False,False,4.316,4.317,4.319,4.316,4.317,4.303,0.017,False,False,,,,,0,0,0,0,0,0.0,1245.15,,Idle,0,20,False,10,True,Go Home,39.96113951,-106.21647318,7.4,8211.5,393.7,True,1,1,False,False,False,False,0,False,False,False,Course Lock,98.4,237.2,23.0,Calm,18,, 4.5.0,DF059,095XF1800201C0,,0JFJ4006F4,0KPAF1T231018F,40.7,42.7,5.6,4.7,4.9,0,0,DF059,095XF1800201C0,,0JFJ4006F4,0KPAF1T231018F,,, 4.5.0,,,,,,
6/21/2018,10:39:54.37 PM,0m 5.8s,5.8,39.9611595,-106.21646859,0,0,0.3,8128,0,1.1,0,0,0,0,0,0,0.9,-1.9,135.8,135.8,Manual Takeoff,Other,Takeoff (RC Assisted),16,5,True,,Matrice 210,True,False,,Smart,RC,True,True,False,,,True,,False,False,False,False,False,False,False,False,False,False,0,Follow Yaw,0,-3,135.8,135.8,False,False,False,False,False,False,,False,Normal,,,1024,1024,1024,1024,1,False,False,False,False,False,0,False,False,False,False,100,,,,25.936,False,4.317,4.322,4.32,4.327,4.32,4.33,0.016,False,False,4.316,4.317,4.319,4.316,4.317,4.303,0.017,False,False,,,,,0,0,0,0,0,0.0,1245.15,,Idle,0,20,False,10,True,Go Home,39.96113951,-106.21647318,7.4,8211.5,393.7,True,1,1,False,False,False,False,0,False,False,False,Course Lock,98.4,237.2,23.0,Calm,18,, 4.5.0,DF059,095XF1800201C0,,0JFJ4006F4,0KPAF1T231018F,40.7,42.7,5.6,4.7,4.9,0,0,DF059,095XF1800201C0,,0JFJ4006F4,0KPAF1T231018F,,, 4.5.0,,,,,,
6/21/2018,10:39:54.48 PM,0m 5.9s,5.9,39.96115951,-106.21646859,0,0,0.3,8128,0,1.1,0,0,0,0,0,0,0.9,-1.9,135.8,135.8,Manual Takeoff,Other,Takeoff (RC Assisted),16,5,True,,Matrice 210,True,False,,Smart,RC,True,True,False,,,True,,False,False,False,False,False,False,False,False,False,False,0,Follow Yaw,0,-3,135.8,135.8,False,False,False,False,False,False,,False,Normal,,,1024,1024,1024,1024,1,False,False,False,False,False,0,False,False,False,False,100,,,,25.936,False,4.317,4.322,4.32,4.327,4.32,4.33,0.016,False,False,4.316,4.317,4.319,4.316,4.317,4.303,0.017,False,False,,,,,0,0,0,0,0,0.0,1245.15,,Idle,0,20,False,10,True,Go Home,39.96113951,-106.21647318,7.4,8211.5,393.7,True,1,1,False,False,False,False,0,False,False,False,Course Lock,98.4,237.2,23.0,Calm,18,, 4.5.0,DF059,095XF1800201C0,,0JFJ4006F4,0KPAF1T231018F,40.7,42.7,5.6,4.7,4.9,0,0,DF059,095XF1800201C0,,0JFJ4006F4,0KPAF1T231018F,,, 4.5.0,,,,,,
6/21/2018,10:39:54.58 PM,0m 6.0s,6.0,39.96115939,-106.21646854,0,0,0.3,8128,0,1.1,0,0,0,0,0,0,0.9,-1.9,135.8,135.8,Manual Takeoff,Other,Takeoff (RC Assisted),16,5,True,,Matrice 210,True,False,,Smart,RC,True,True,False,,,True,,False,False,False,False,False,False,False,False,False,False,0,Follow Yaw,0,-3,135.8,135.8,False,False,False,False,False,False,,False,Normal,,,1024,1024,1024,1024,1,False,False,False,False,False,0,False,False,False,False,100,,,,25.948,False,4.317,4.322,4.32,4.327,4.32,4.33,0.016,False,False,4.316,4.317,4.319,4.316,4.317,4.303,0.017,False,False,,,,,0,0,0,0,0,0.0,1524.87,,Idle,0,20,False,10,True,Go Home,39.96113951,-106.21647318,7.4,8211.5,393.7,True,1,1,False,False,False,False,0,False,False,False,Course Lock,98.4,237.2,23.0,Calm,18,, 4.5.0,DF059,095XF1800201C0,,0JFJ4006F4,0KPAF1T231018F,40.7,42.7,5.6,4.7,4.9,0,0,DF059,095XF1800201C0,,0JFJ4006F4,0KPAF1T231018F,,, 4.5.0,,,,,,
6/21/2018,10:39:54.68 PM,0m 6.1s,6.1,39.96115937,-106.21646853,0,0,0.3,8128,0,1.1,0,0,0,0,0,0,0.9,-1.9,135.8,135.8,Manual Takeoff,Other,Takeoff (RC Assisted),16,5,True,,Matrice 210,True,False,,Smart,RC,True,True,False,,,True,,False,False,False,False,False,False,False,False,False,False,0,Follow Yaw,0,-3,135.8,135.8,False,False,False,False,False,False,,False,Normal,,,1024,1024,1024,1024,1,False,False,False,False,False,0,False,False,False,False,100,,,,25.948,False,4.317,4.322,4.32,4.327,4.32,4.33,0.016,False,False,4.316,4.317,4.319,4.316,4.317,4.303,0.017,False,False,,,,,0,0,0,0,0,0.0,1524.87,,Idle,0,20,False,10,True,Go Home,39.96113951,-106.21647318,7.4,8211.5,393.7,True,1,1,False,False,False,False,0,False,False,False,Course Lock,98.4,237.2,23.0,Calm,18,, 4.5.0,DF059,095XF1800201C0,,0JFJ4006F4,0KPAF1T231018F,40.7,42.7,5.6,4.7,4.9,0,0,DF059,095XF1800201C0,,0JFJ4006F4,0KPAF1T231018F,,, 4.5.0,,,,,,
