sep=,
CUSTOM.date [local], CUSTOM.updateTime [local], OSD.flyTime, OSD.flyTime [s], OSD.latitude, OSD.longitude, OSD.height [ft], OSD.heightMax [ft], OSD.vpsHeight [ft], OSD.altitude [ft], OSD.hSpeed [MPH], OSD.hSpeedMax [MPH], OSD.xSpeed [MPH], OSD.xSpeedMax [MPH], OSD.ySpeed [MPH], OSD.ySpeedMax [MPH], OSD.zSpeed [MPH], OSD.zSpeedMax [MPH], OSD.pitch, OSD.roll, OSD.yaw, OSD.yaw [360], OSD.flycState, OSD.flycCommand, OSD.flightAction, OSD.gpsNum, OSD.gpsLevel, OSD.isGPSUsed, OSD.nonGPSCause, OSD.droneType, OSD.isSwaveWork, OSD.waveError, OSD.goHomeStatus, OSD.batteryType, OSD.ctrlDevice, OSD.isOnGround, OSD.isMotorOn, OSD.isMotorBlocked, OSD.motorStartFailedCause, OSD.motorFailReason, OSD.isImuPreheated, OSD.imuInitFailReason, OSD.isAcceletorOverRange, OSD.isBarometerDeadInAir, OSD.isCompassError, OSD.isGoHomeHeightModified, OSD.canIOCWork, OSD.isNotEnoughForce, OSD.isOutOfLimit, OSD.isPropellerCatapult, OSD.isVibrating, OSD.isVisionUsed, OSD.voltageWarning, GIMBAL.mode, GIMBAL.pitch, GIMBAL.roll, GIMBAL.yaw, GIMBAL.yaw [360], GIMBAL.isPitchAtLimit, GIMBAL.isRollAtLimit, GIMBAL.isYawAtLimit, GIMBAL.isStuck, CAMERA.isPhoto, CAMERA.isVideo, CAMERA.filename, CAMERA.sdCardIsInserted, CAMERA.sdCardState, RC.downlinkSignal, RC.uplinkSignal, RC.aileron, RC.elevator, RC.throttle, RC.rudder, RC.mode, RC.goHomeDepressed, RC.recordDepressed, RC.shutterDepressed, RC.playbackDepressed, RC.wheelDepressed, RC.wheelOffset, RC.custom1Depressed, RC.custom2Depressed, RC.custom3Depressed, RC.custom4Depressed, BATTERY.chargeLevel, BATTERY.currentPV [V], BATTERY.currentCapacity [mAh], BATTERY.fullCapacity [mAh], BATTERY.voltage [V], BATTERY.isCellVoltageEstimated, BATTERY.cellVoltage1 [V], BATTERY.cellVoltage2 [V], BATTERY.cellVoltage3 [V], BATTERY.cellVoltage4 [V], BATTERY.cellVoltage5 [V], BATTERY.cellVoltage6 [V], BATTERY.maxCellVoltageDeviation, BATTERY.isCellVoltageDeviationHigh, BATTERY.isVoltageLow, BATTERY2.cellVoltage1 [V], BATTERY2.cellVoltage2 [V], BATTERY2.cellVoltage3 [V], BATTERY2.cellVoltage4 [V], BATTERY2.cellVoltage5 [V], BATTERY2.cellVoltage6 [V], BATTERY2.maxCellVoltageDeviation, BATTERY2.isCellVoltageDeviationHigh, BATTERY2.isVoltageLow, BATTERY.current [A], BATTERY.temperature [F], BATTERY.minTemperature [F], BATTERY.maxTemperature [F], BATTERY.usefulTime [s], BATTERY.goHomeTime [s], BATTERY.landTime [s], BATTERY.goHomeBattery, BATTERY.landBattery, BATTERY.safeFlyRadius, BATTERY.volumeConsume, BATTERY.status, BATTERY.goHomeStatus, BATTERY.goHomeCountdown, BATTERY.lowWarning, BATTERY.lowWarningGoHome, BATTERY.seriousLowWarning, BATTERY.seriousLowWarningLanding, MC.failSafeAction, HOME.latitude, HOME.longitude, HOME.distance [ft], HOME.height [ft], HOME.heightLimit [ft], HOME.isHomeRecord, HOME.goHomeMode, HOME.aircraftHeadDirection, HOME.isDynamicHomePointEnabled, HOME.isReachedLimitDistance, HOME.isReachedLimitHeight, HOME.isCompassCeleing, HOME.compassCeleStatus, HOME.isMultipleFlightModeEnabled, HOME.isBeginnerMode, HOME.isIOCEnabled, HOME.iocMode, HOME.goHomeHeight [ft], HOME.courseLockAngle, HOME.forceLandingHeight [ft], HOME.wind, HOME.dataRecorderFileIndex, RECOVER.appType, RECOVER.appVersion, RECOVER.aircraftName, RECOVER.aircraftSerial, RECOVER.cameraSerial, RECOVER.rcSerial, RECOVER.batterySerial, DETAILS.totalTime [s], DETAILS.totalDistance [ft], DETAILS.maxHeight [ft], DETAILS.maxHorizontalSpeed [MPH], DETAILS.maxVerticalSpeed [MPH], DETAILS.photoNum, DETAILS.videoTime [s], DETAILS.aircraftName, DETAILS.aircraftSerial, DETAILS.cameraSerial, DETAILS.rcSerial, DETAILS.batterySerial, DETAILS.appName, DETAILS.appType, DETAILS.appVersion, APPGPS.latitude, APPGPS.longitude, APPGPS.accuracy, APP.message, APP.tip, APP.warning
6/21/2018,10:43:08.46 PM,0m 41.5s,41.5,39.96116369,-106.21647045,0,0,0.3,8128,0,0,0,0,0,0,0,0,-1.6,-3.3,156,156,Starting Motors,Other,Takeoff (RC Assisted),16,5,True,,Matrice 210,True,False,,Smart,RC,True,True,False,,,True,,False,False,False,False,False,False,False,False,False,False,0,Follow Yaw,0,-4.7,155.8,155.8,False,False,False,False,False,False,,False,Normal,,,1024,1024,1024,1024,1,False,False,False,False,False,0,False,False,False,False,,,,,25.673,False,4.273,4.277,4.277,4.284,4.274,4.288,0.015,False,False,4.272,4.274,4.272,4.275,4.274,4.258,0.017,False,False,,,,,,,,,,,,,Idle,,,True,,False,Go Home,,,,,,False,,,False,False,False,False,0,False,False,False,,,,,Calm,,, 4.5.0,DF059,095XF1800201C0,,0JFJ4006F4,0KPAF1T231018F,51.5,43.7,9.2,2.0,1.8,0,0,DF059,095XF1800201C0,,0JFJ4006F4,0KPAF1T231018F,,, 4.5.0,,,,,,
6/21/2018,10:43:08.56 PM,0m 41.6s,41.6,39.96116371,-106.21647042,0,0,0.3,8128,0,0,0,0,0,0,0,0,-1.6,-3.3,156,156,Starting Motors,Other,Takeoff (RC Assisted),16,5,True,,Matrice 210,True,False,,Smart,RC,True,True,False,,,True,,False,False,False,False,False,False,False,False,False,False,0,Follow Yaw,0,-4.7,155.8,155.8,False,False,False,False,False,False,,False,Normal,,,1024,1024,1024,1024,1,False,False,False,False,False,0,False,False,False,False,96,,,,25.634,False,4.273,4.277,4.277,4.284,4.274,4.288,0.015,False,False,4.272,4.274,4.272,4.275,4.274,4.258,0.017,False,False,,,,,0,1,0,15,10,2956.2,992.69,,Idle,0,20,False,10,True,Go Home,39.96115898,-106.21646841,1.8,8221.3,393.7,True,1,1,False,False,False,False,0,False,False,False,Course Lock,98.4,237.2,23.0,Calm,18,, 4.5.0,DF059,095XF1800201C0,,0JFJ4006F4,0KPAF1T231018F,51.5,43.7,9.2,2.0,1.8,0,0,DF059,095XF1800201C0,,0JFJ4006F4,0KPAF1T231018F,,, 4.5.0,,,,Data Recorder File Index is 18.,,
6/21/2018,10:43:08.66 PM,0m 41.7s,41.7,39.96116372,-106.2164704,0,0,0.3,8128,0,0,0,0,0,0,0,0,-1.6,-3.3,156,156,Starting Motors,Other,Takeoff (RC Assisted),16,5,True,,Matrice 210,True,False,,Smart,RC,True,True,False,,,True,,False,False,False,False,False,False,False,False,False,False,0,Follow Yaw,0,-4.7,155.8,155.8,False,False,False,False,False,False,,False,Normal,,,1024,1024,1024,1024,1,False,False,False,False,False,0,False,False,False,False,96,,,,25.634,False,4.273,4.277,4.277,4.284,4.274,4.288,0.015,False,False,4.272,4.274,4.272,4.275,4.274,4.258,0.017,False,False,,,,,0,1,0,15,10,2956.2,992.69,,Idle,0,20,False,10,True,Go Home,39.96115898,-106.21646841,1.8,8221.3,393.7,True,1,1,False,False,False,False,0,False,False,False,Course Lock,98.4,237.2,23.0,Calm,18,, 4.5.0,DF059,095XF1800201C0,,0JFJ4006F4,0KPAF1T231018F,51.5,43.7,9.2,2.0,1.8,0,0,DF059,095XF1800201C0,,0JFJ4006F4,0KPAF1T231018F,,, 4.5.0,,,,,,
6/21/2018,10:43:08.76 PM,0m 41.8s,41.8,39.9611637,-106.21647041,0,0,0.3,8128,0,0,0,0,0,0,0,0,-1.7,-3.3,155.9,155.9,Starting Motors,Other,Takeoff (RC Assisted),16,5,True,,Matrice 210,True,False,,Smart,RC,True,True,False,,,True,,False,False,False,False,False,False,False,False,False,False,0,Follow Yaw,0,-4.7,155.8,155.8,False,False,False,False,False,False,,False,Normal,,,1024,1024,1024,1024,1,False,False,False,False,False,0,False,False,False,False,96,,,,25.634,False,4.273,4.277,4.277,4.284,4.274,4.288,0.015,False,False,4.272,4.274,4.272,4.275,4.274,4.258,0.017,False,False,,,,,0,1,0,15,10,2956.2,992.69,,Idle,0,20,False,10,True,Go Home,39.96115898,-106.21646841,1.8,8221.3,393.7,True,1,1,False,False,False,False,0,False,False,False,Course Lock,98.4,237.2,23.0,Calm,18,, 4.5.0,DF059,095XF1800201C0,,0JFJ4006F4,0KPAF1T231018F,51.5,43.7,9.2,2.0,1.8,0,0,DF059,095XF1800201C0,,0JFJ4006F4,0KPAF1T231018F,,, 4.5.0,,,,,,
6/21/2018,10:43:08.86 PM,0m 41.9s,41.9,39.96116371,-106.21647039,0,0,0.3,8128,0,0,0,0,0,0,0,0,-1.8,-3.4,155.9,155.9,Starting Motors,Other,Takeoff (RC Assisted),16,5,True,,Matrice 210,True,False,,Smart,RC,True,True,False,,,True,,False,False,False,False,False,False,False,False,False,False,0,Follow Yaw,0,-4.8,155.8,155.8,False,False,False,False,False,False,,False,Normal,,,1024,1024,1024,1024,1,False,False,False,False,False,0,False,False,False,False,96,,,,25.634,False,4.273,4.277,4.277,4.284,4.274,4.288,0.015,False,False,4.272,4.274,4.272,4.275,4.274,4.258,0.017,False,False,,,,,0,1,0,15,10,2956.2,992.69,,Idle,0,20,False,10,True,Go Home,39.96115898,-106.21646841,1.8,8221.3,393.7,True,1,1,False,False,False,False,0,False,False,False,Course Lock,98.4,237.2,23.0,Calm,18,, 4.5.0,DF059,095XF1800201C0,,0JFJ4006F4,0KPAF1T231018F,51.5,43.7,9.2,2.0,1.8,0,0,DF059,095XF1800201C0,,0JFJ4006F4,0KPAF1T231018F,,, 4.5.0,,,,,,
6/21/2018,10:43:08.88 PM,0m 42.0s,42.0,39.96116369,-106.21647033,0,0,0.3,8128,0,0,0,0,0,0,0,0,-1.7,-3.4,156,156,Starting Motors,Other,Takeoff (RC Assisted),16,5,True,,Matrice 210,True,False,,Smart,RC,True,True,False,,,True,,False,False,False,False,False,False,False,False,False,False,0,Follow Yaw,0,-4.8,155.8,155.8,False,False,False,False,False,False,,False,Normal,,,1024,1024,1024,1024,1,False,False,False,False,False,0,False,False,False,False,96,,,,25.634,False,4.273,4.277,4.277,4.284,4.274,4.288,0.015,False,False,4.272,4.274,4.272,4.275,4.274,4.258,0.017,False,False,,,,,0,1,0,15,10,2956.2,992.69,,Idle,0,20,False,10,True,Go Home,39.96115898,-106.21646841,1.8,8221.3,393.7,True,1,1,False,False,False,False,0,False,False,False,Course Lock,98.4,237.2,23.0,Calm,18,, 4.5.0,DF059,095XF1800201C0,,0JFJ4006F4,0KPAF1T231018F,51.5,43.7,9.2,2.0,1.8,0,0,DF059,095XF1800201C0,,0JFJ4006F4,0KPAF1T231018F,,, 4.5.0,,,,,,
6/21/2018,10:43:08.96 PM,0m 42.1s,42.1,39.96116368,-106.21647027,0,0,0.3,8128,0,0,0,0,0,0,0,0,-1.7,-3.3,156,156,Starting Motors,Other,Takeoff (RC Assisted),16,5,True,,Matrice 210,True,False,,Smart,RC,True,True,False,,,True,,False,False,False,False,False,False,False,False,False,False,0,Follow Yaw,0,-4.8,155.8,155.8,False,False,False,False,False,False,,False,Normal,,,1024,1024,1024,1024,1,False,False,False,False,False,0,False,False,False,False,96,,,,25.634,False,4.273,4.277,4.277,4.284,4.274,4.288,0.015,False,False,4.272,4.274,4.272,4.275,4.274,4.258,0.017,False,False,,,,,0,1,0,15,10,2956.2,992.69,,Idle,0,20,False,10,True,Go Home,39.96115898,-106.21646841,1.8,8221.3,393.7,True,1,1,False,False,False,False,0,False,False,False,Course Lock,98.4,237.2,23.0,Calm,18,, 4.5.0,DF059,095XF1800201C0,,0JFJ4006F4,0KPAF1T231018F,51.5,43.7,9.2,2.0,1.8,0,0,DF059,095XF1800201C0,,0JFJ4006F4,0KPAF1T231018F,,, 4.5.0,,,,,,
6/21/2018,10:43:09.06 PM,0m 42.2s,42.2,39.96116362,-106.21647025,0,0,0.3,8128,0,0,0,0,0,0,0,0,-1.7,-3.3,156,156,Starting Motors,Other,Takeoff (RC Assisted),16,5,True,,Matrice 210,True,False,,Smart,RC,True,True,False,,,True,,False,False,False,False,False,False,False,False,False,False,0,Follow Yaw,0,-4.8,155.8,155.8,False,False,False,False,False,False,,False,Normal,,,1024,1024,1024,1024,1,False,False,False,False,False,0,False,False,False,False,96,,,,25.634,False,4.273,4.277,4.277,4.284,4.274,4.288,0.015,False,False,4.272,4.274,4.272,4.275,4.274,4.258,0.017,False,False,,,,,0,1,0,15,10,2956.2,992.69,,Idle,0,20,False,10,True,Go Home,39.96115898,-106.21646841,1.8,8221.3,393.7,True,1,1,False,False,False,False,0,False,False,False,Course Lock,98.4,237.2,23.0,Calm,18,, 4.5.0,DF059,095XF1800201C0,,0JFJ4006F4,0KPAF1T231018F,51.5,43.7,9.2,2.0,1.8,0,0,DF059,095XF1800201C0,,0JFJ4006F4,0KPAF1T231018F,,, 4.5.0,,,,,,
6/21/2018,10:43:09.17 PM,0m 42.3s,42.3,39.9611636,-106.21647023,0,0,0.3,8128,0,0,0,0,0,0,0,0,-1.8,-3.4,155.9,155.9,Starting Motors,Other,Takeoff (RC Assisted),16,5,True,,Matrice 210,True,False,,Smart,RC,True,True,False,,,True,,False,False,False,False,False,False,False,False,False,False,0,Follow Yaw,0,-4.8,155.8,155.8,False,False,False,False,False,False,,False,Normal,,,1024,1024,1024,1024,1,False,False,False,False,False,0,False,False,False,False,96,,,,25.634,False,4.273,4.277,4.277,4.284,4.274,4.288,0.015,False,False,4.272,4.274,4.272,4.275,4.274,4.258,0.017,False,False,,,,,0,1,0,15,10,2956.2,992.69,,Idle,0,20,False,10,True,Go Home,39.96115898,-106.21646841,1.8,8221.3,393.7,True,1,1,False,False,False,False,0,False,False,False,Course Lock,98.4,237.2,23.0,Calm,18,, 4.5.0,DF059,095XF1800201C0,,0JFJ4006F4,0KPAF1T231018F,51.5,43.7,9.2,2.0,1.8,0,0,DF059,095XF1800201C0,,0JFJ4006F4,0KPAF1T231018F,,, 4.5.0,,,,,,
6/21/2018,10:43:09.27 PM,0m 42.4s,42.4,39.96116357,-106.21647017,0,0,0.3,8128,0,0,0,0,0,0,0,0,-1.7,-3.3,155.9,155.9,Manual Takeoff,Other,Takeoff (RC Assisted),16,5,True,,Matrice 210,True,False,,Smart,RC,True,True,False,,,True,,False,False,False,False,False,False,False,False,False,False,0,Follow Yaw,0,-4.8,155.8,155.8,False,False,False,False,False,False,,False,Normal,,,1024,1024,1024,1024,1,False,False,False,False,False,0,False,False,False,False,96,,,,25.634,False,4.273,4.277,4.277,4.284,4.274,4.288,0.015,False,False,4.272,4.274,4.272,4.275,4.274,4.258,0.017,False,False,,,,,0,1,0,15,10,2956.2,992.69,,Idle,0,20,False,10,True,Go Home,39.96115898,-106.21646841,1.7,8221.3,393.7,True,1,1,False,False,False,False,0,False,False,False,Course Lock,98.4,237.2,23.0,Calm,18,, 4.5.0,DF059,095XF1800201C0,,0JFJ4006F4,0KPAF1T231018F,51.5,43.7,9.2,2.0,1.8,0,0,DF059,095XF1800201C0,,0JFJ4006F4,0KPAF1T231018F,,, 4.5.0,,,,,,
6/21/2018,10:43:09.47 PM,0m 42.5s,42.5,39.96116355,-106.21647013,0,0,0.3,8128,0,0,0,0,0,0,0,0,-1.7,-3.3,156,156,Manual Takeoff,Other,Takeoff (RC Assisted),16,5,True,,Matrice 210,True,False,,Smart,RC,True,True,False,,,True,,False,False,False,False,False,False,False,False,False,False,0,Follow Yaw,0,-4.8,155.8,155.8,False,False,False,False,False,False,,False,Normal,,,1024,1024,1024,1024,1,False,False,False,False,False,0,False,False,False,False,96,,,,25.634,False,4.267,4.27,4.27,4.277,4.269,4.281,0.015,False,False,4.249,4.255,4.254,4.255,4.255,4.242,0.017,False,False,,,,,0,1,0,15,10,2956.2,992.69,,Idle,0,20,False,10,True,Go Home,39.96115898,-106.21646841,1.8,8221.3,393.7,True,1,1,False,False,False,False,0,False,False,False,Course Lock,98.4,237.2,23.0,Calm,18,, 4.5.0,DF059,095XF1800201C0,,0JFJ4006F4,0KPAF1T231018F,51.5,43.7,9.2,2.0,1.8,0,0,DF059,095XF1800201C0,,0JFJ4006F4,0KPAF1T231018F,,, 4.5.0,,,,,,
6/21/2018,10:43:09.57 PM,0m 42.6s,42.6,39.96116347,-106.2164701,0,0,0.3,8128,0,0,0,0,0,0,0,0,-1.6,-3.3,156,156,Manual Takeoff,Other,Takeoff (RC Assisted),16,5,True,,Matrice 210,True,False,,Smart,RC,True,True,False,,,True,,False,False,False,False,False,False,False,False,False,False,0,Follow Yaw,0,-4.8,155.8,155.8,False,False,False,False,False,False,,False,Normal,,,1024,1024,1033,1024,1,False,False,False,False,False,0,False,False,False,False,96,,,,25.651,False,4.267,4.27,4.27,4.277,4.269,4.281,0.015,False,False,4.249,4.255,4.254,4.255,4.255,4.242,0.017,False,False,,,,,0,1,0,15,10,2956.2,992.23,,Idle,0,20,False,10,True,Go Home,39.96115898,-106.21646841,1.7,8221.3,393.7,True,1,1,False,False,False,False,0,False,False,False,Course Lock,98.4,237.2,23.0,Calm,18,, 4.5.0,DF059,095XF1800201C0,,0JFJ4006F4,0KPAF1T231018F,51.5,43.7,9.2,2.0,1.8,0,0,DF059,095XF1800201C0,,0JFJ4006F4,0KPAF1T231018F,,, 4.5.0,,,,,,
6/21/2018,10:43:09.59 PM,0m 42.7s,42.7,39.96116335,-106.2164701,0,0,0.3,8128,0,0,0,0,0,0,0,0,-1.6,-3.3,156,156,Manual Takeoff,Other,Takeoff (RC Assisted),16,5,True,,Matrice 210,True,False,,Smart,RC,True,True,False,,,True,,False,False,False,False,False,False,False,False,False,False,0,Follow Yaw,0,-4.8,155.8,155.8,False,False,False,False,False,False,,False,Normal,,,1024,1024,1061,1024,1,False,False,False,False,False,0,False,False,False,False,96,,,,25.651,False,4.267,4.27,4.27,4.277,4.269,4.281,0.015,False,False,4.249,4.255,4.254,4.255,4.255,4.242,0.017,False,False,,,,,0,1,0,15,10,2956.2,992.23,,Idle,0,20,False,10,True,Go Home,39.96115898,-106.21646841,1.6,8221.3,393.7,True,1,1,False,False,False,False,0,False,False,False,Course Lock,98.4,237.2,23.0,Calm,18,, 4.5.0,DF059,095XF1800201C0,,0JFJ4006F4,0KPAF1T231018F,51.5,43.7,9.2,2.0,1.8,0,0,DF059,095XF1800201C0,,0JFJ4006F4,0KPAF1T231018F,,, 4.5.0,,,,,,
6/21/2018,10:43:09.68 PM,0m 42.8s,42.8,39.96116333,-106.21647005,0,0,0.3,8128,0,0,0,0,0,0,0,0,-1.6,-3.3,156,156,Manual Takeoff,Other,Takeoff (RC Assisted),16,5,True,,Matrice 210,True,False,,Smart,RC,True,True,False,,,True,,False,False,False,False,False,False,False,False,False,False,0,Follow Yaw,0,-4.8,155.8,155.8,False,False,False,False,False,False,,False,Normal,,,1024,1024,1093,1024,1,False,False,False,False,False,0,False,False,False,False,96,,,,25.651,False,4.267,4.27,4.27,4.277,4.269,4.281,0.015,False,False,4.249,4.255,4.254,4.255,4.255,4.242,0.017,False,False,,,,,0,1,0,15,10,2956.2,992.23,,Idle,0,20,False,10,True,Go Home,39.96115898,-106.21646841,1.7,8221.3,393.7,True,1,1,False,False,False,False,0,False,False,False,Course Lock,98.4,237.2,23.0,Calm,18,, 4.5.0,DF059,095XF1800201C0,,0JFJ4006F4,0KPAF1T231018F,51.5,43.7,9.2,2.0,1.8,0,0,DF059,095XF1800201C0,,0JFJ4006F4,0KPAF1T231018F,,, 4.5.0,,,,,,
6/21/2018,10:43:09.78 PM,0m 42.9s,42.9,39.9611633,-106.21647001,0,0,0.3,8128,0,0,0,0,0,0,0,0,-1.6,-3.3,156,156,Manual Takeoff,Other,Takeoff (RC Assisted),16,5,True,,Matrice 210,True,False,,Smart,RC,True,True,False,,,True,,False,False,False,False,False,False,False,False,False,False,0,Follow Yaw,0,-4.7,155.9,155.9,False,False,False,False,False,False,,False,Normal,,,1024,1024,1124,1024,1,False,False,False,False,False,0,False,False,False,False,96,,,,25.651,False,4.267,4.27,4.27,4.277,4.269,4.281,0.015,False,False,4.249,4.255,4.254,4.255,4.255,4.242,0.017,False,False,,,,,0,1,0,15,10,2956.2,992.23,,Idle,0,20,False,10,True,Go Home,39.96115898,-106.21646841,1.6,8221.3,393.7,True,1,1,False,False,False,False,0,False,False,False,Course Lock,98.4,237.2,23.0,Calm,18,, 4.5.0,DF059,095XF1800201C0,,0JFJ4006F4,0KPAF1T231018F,51.5,43.7,9.2,2.0,1.8,0,0,DF059,095XF1800201C0,,0JFJ4006F4,0KPAF1T231018F,,, 4.5.0,,,,,,
6/21/2018,10:43:09.88 PM,0m 43.0s,43.0,39.96116329,-106.21647001,0,0,0.3,8128,0,0,0,0,0,0,0,0,-1.6,-3.3,156,156,Manual Takeoff,Other,Takeoff (RC Assisted),16,5,True,,Matrice 210,True,False,,Smart,RC,True,True,False,,,True,,False,False,False,False,False,False,False,False,False,False,0,Follow Yaw,0,-4.7,155.8,155.8,False,False,False,False,False,False,,False,Normal,,,1024,1024,1128,1024,1,False,False,False,False,False,0,False,False,False,False,96,,,,25.651,False,4.267,4.27,4.27,4.277,4.269,4.281,0.015,False,False,4.249,4.255,4.254,4.255,4.255,4.242,0.017,False,False,,,,,0,1,0,15,10,2956.2,992.23,,Idle,0,20,False,10,True,Go Home,39.96115898,-106.21646841,1.6,8221.3,393.7,True,1,1,False,False,False,False,0,False,False,False,Course Lock,98.4,237.2,23.0,Calm,18,, 4.5.0,DF059,095XF1800201C0,,0JFJ4006F4,0KPAF1T231018F,51.5,43.7,9.2,2.0,1.8,0,0,DF059,095XF1800201C0,,0JFJ4006F4,0KPAF1T231018F,,, 4.5.0,,,,,,
6/21/2018,10:43:09.98 PM,0m 43.1s,43.1,39.96116337,-106.21647006,0,0,0.3,8128,0,0,0,0,0,0,0,0,-1.6,-3.3,156,156,Manual Takeoff,Other,Takeoff (RC Assisted),16,5,True,,Matrice 210,True,False,,Smart,RC,True,True,False,,,True,,False,False,False,False,False,False,False,False,False,False,0,Follow Yaw,0,-4.7,155.8,155.8,False,False,False,False,False,False,,False,Normal,,,1024,1024,1132,1024,1,False,False,False,False,False,0,False,False,False,False,96,,,,25.651,False,4.267,4.27,4.27,4.277,4.269,4.281,0.015,False,False,4.249,4.255,4.254,4.255,4.255,4.242,0.017,False,False,,,,,0,1,0,15,10,2956.2,992.23,,Idle,0,20,False,10,True,Go Home,39.96115898,-106.21646841,1.6,8221.3,393.7,True,1,1,False,False,False,False,0,False,False,False,Course Lock,98.4,237.2,23.0,Calm,18,, 4.5.0,DF059,095XF1800201C0,,0JFJ4006F4,0KPAF1T231018F,51.5,43.7,9.2,2.0,1.8,0,0,DF059,095XF1800201C0,,0JFJ4006F4,0KPAF1T231018F,,, 4.5.0,,,,,,
6/21/2018,10:43:10.09 PM,0m 43.2s,43.2,39.96116335,-106.21647002,0,0,0.3,8128,0,0,0,0,0,0,0,0,-1.7,-3.3,156,156,Manual Takeoff,Other,Takeoff (RC Assisted),16,5,True,,Matrice 210,True,False,,Smart,RC,True,True,False,,,True,,False,False,False,False,False,False,False,False,False,False,0,Follow Yaw,0,-4.7,155.8,155.8,False,False,False,False,False,False,,False,Normal,,,1024,1024,1143,1024,1,False,False,False,False,False,0,False,False,False,False,96,,,,25.651,False,4.267,4.27,4.27,4.277,4.269,4.281,0.015,False,False,4.249,4.255,4.254,4.255,4.255,4.242,0.017,False,False,,,,,0,1,0,15,10,2956.2,992.23,,Idle,0,20,False,10,True,Go Home,39.96115898,-106.21646841,1.6,8221.3,393.7,True,1,1,False,False,False,False,0,False,False,False,Course Lock,98.4,237.2,23.0,Calm,18,, 4.5.0,DF059,095XF1800201C0,,0JFJ4006F4,0KPAF1T231018F,51.5,43.7,9.2,2.0,1.8,0,0,DF059,095XF1800201C0,,0JFJ4006F4,0KPAF1T231018F,,, 4.5.0,,,,,,
6/21/2018,10:43:10.19 PM,0m 43.3s,43.3,39.96116334,-106.21647,0,0,0.3,8128,0,0,0,0,0,0,0,0,-1.7,-3.3,155.9,155.9,Manual Takeoff,Other,Takeoff (RC Assisted),16,5,True,,Matrice 210,True,False,,Smart,RC,True,True,False,,,True,,False,False,False,False,False,False,False,False,False,False,0,Follow Yaw,0,-4.6,155.8,155.8,False,False,False,False,False,False,,False,Normal,,,1024,1024,1146,1024,1,False,False,False,False,False,0,False,False,False,False,96,,,,25.651,False,4.267,4.27,4.27,4.277,4.269,4.281,0.015,False,False,4.249,4.255,4.254,4.255,4.255,4.242,0.017,False,False,,,,,0,1,0,15,10,2956.2,992.23,,Idle,0,20,False,10,True,Go Home,39.96115898,-106.21646841,1.6,8221.3,393.7,True,1,1,False,False,False,False,0,False,False,False,Course Lock,98.4,237.2,23.0,Calm,18,, 4.5.0,DF059,095XF1800201C0,,0JFJ4006F4,0KPAF1T231018F,51.5,43.7,9.2,2.0,1.8,0,0,DF059,095XF1800201C0,,0JFJ4006F4,0KPAF1T231018F,,, 4.5.0,,,,,,
6/21/2018,10:43:10.29 PM,0m 43.4s,43.4,39.96116332,-106.21647002,0,0,0.3,8128,0,0,0,0,0,0,0,0,-1.7,-3.3,155.9,155.9,Manual Takeoff,Other,Takeoff (RC Assisted),16,5,True,,Matrice 210,True,False,,Smart,RC,True,True,False,,,True,,False,False,False,False,False,False,False,False,False,False,0,Follow Yaw,0,-4.6,155.8,155.8,False,False,False,False,False,False,,False,Normal,,,1024,1024,1132,1024,1,False,False,False,False,False,0,False,False,False,False,96,,,,25.651,False,4.267,4.27,4.27,4.277,4.269,4.281,0.015,False,False,4.267,4.27,4.267,4.27,4.27,4.257,0.017,False,False,,,,,0,1,0,15,10,2956.2,992.23,,Idle,0,20,False,10,True,Go Home,39.96115898,-106.21646841,1.6,8221.3,393.7,True,1,1,False,False,False,False,0,False,False,False,Course Lock,98.4,237.2,23.0,Calm,18,, 4.5.0,DF059,095XF1800201C0,,0JFJ4006F4,0KPAF1T231018F,51.5,43.7,9.2,2.0,1.8,0,0,DF059,095XF1800201C0,,0JFJ4006F4,0KPAF1T231018F,,, 4.5.0,,,,,,
6/21/2018,10:43:10.39 PM,0m 43.5s,43.5,39.96116338,-106.21647004,0,0,0.3,8128,0,0,0,0,0,0,0,0,-1.7,-3.3,155.9,155.9,Manual Takeoff,Other,Takeoff (RC Assisted),16,5,True,,Matrice 210,True,False,,Smart,RC,True,True,False,,,True,,False,False,False,False,False,False,False,False,False,False,0,Follow Yaw,0,-4.6,155.7,155.7,False,False,False,False,False,False,,False,Normal,,,1024,1024,1125,1024,1,False,False,False,False,False,0,False,False,False,False,96,,,,25.656,False,4.272,4.274,4.275,4.281,4.27,4.284,0.015,False,False,4.267,4.27,4.267,4.27,4.27,4.257,0.017,False,False,,,,,0,1,0,15,10,2956.2,992.23,,Idle,0,20,False,10,True,Go Home,39.96115898,-106.21646841,1.7,8221.3,393.7,True,1,1,False,False,False,False,0,False,False,False,Course Lock,98.4,237.2,23.0,Calm,18,, 4.5.0,DF059,095XF1800201C0,,0JFJ4006F4,0KPAF1T231018F,51.5,43.7,9.2,2.0,1.8,0,0,DF059,095XF1800201C0,,0JFJ4006F4,0KPAF1T231018F,,, 4.5.0,,,,,,
6/21/2018,10:43:10.49 PM,0m 43.6s,43.6,39.96116336,-106.21647002,0,0,0.3,8128,0,0,0,0,0,0,0,0,-1.7,-3.4,155.9,155.9,Manual Takeoff,Other,Takeoff (RC Assisted),16,5,True,,Matrice 210,True,False,,Smart,RC,True,True,False,,,True,,False,False,False,False,False,False,False,False,False,False,0,Follow Yaw,0,-4.6,155.7,155.7,False,False,False,False,False,False,,False,Normal,,,1024,1024,1133,1024,1,False,False,False,False,False,0,False,False,False,False,96,,,,25.554,False,4.272,4.274,4.275,4.281,4.27,4.284,0.015,False,False,4.267,4.27,4.267,4.27,4.27,4.257,0.017,False,False,,,,,0,1,0,15,10,2956.2,992.23,,Idle,0,20,False,10,True,Go Home,39.96115898,-106.21646841,1.7,8221.3,393.7,True,1,1,False,False,False,False,0,False,False,False,Course Lock,98.4,237.2,23.0,Calm,18,, 4.5.0,DF059,095XF1800201C0,,0JFJ4006F4,0KPAF1T231018F,51.5,43.7,9.2,2.0,1.8,0,0,DF059,095XF1800201C0,,0JFJ4006F4,0KPAF1T231018F,,, 4.5.0,,,,,,
6/21/2018,10:43:10.59 PM,0m 43.7s,43.7,39.96116335,-106.21646999,0,0,0.3,8128,0,0,0,0,0,0,0,0,-1.8,-3.4,155.9,155.9,Manual Takeoff,Other,Takeoff (RC Assisted),16,5,True,,Matrice 210,True,False,,Smart,RC,True,True,False,,,True,,False,False,False,False,False,False,False,False,False,False,0,Follow Yaw,0,-4.6,155.7,155.7,False,False,False,False,False,False,,False,Normal,,,1024,1024,1150,1024,1,False,False,False,False,False,0,False,False,False,False,96,,,,25.554,False,4.272,4.274,4.275,4.281,4.27,4.284,0.015,False,False,4.267,4.27,4.267,4.27,4.27,4.257,0.017,False,False,,,,,0,1,0,15,10,2956.2,992.23,,Idle,0,20,False,10,True,Go Home,39.96115898,-106.21646841,1.6,8221.3,393.7,True,1,1,False,False,False,False,0,False,False,False,Course Lock,98.4,237.2,23.0,Calm,18,, 4.5.0,DF059,095XF1800201C0,,0JFJ4006F4,0KPAF1T231018F,51.5,43.7,9.2,2.0,1.8,0,0,DF059,095XF1800201C0,,0JFJ4006F4,0KPAF1T231018F,,, 4.5.0,,,,,,
6/21/2018,10:43:10.69 PM,0m 43.8s,43.8,39.96116335,-106.21646995,0,0,0.3,8128,0,0,0,0,0,0,0,0,-1.8,-3.4,155.9,155.9,Manual Takeoff,Other,Takeoff (RC Assisted),16,5,True,,Matrice 210,True,False,,Smart,RC,True,True,False,,,True,,False,False,False,False,False,False,False,False,False,False,0,Follow Yaw,0,-4.6,155.7,155.7,False,False,False,False,False,False,,False,Normal,,,1024,1024,1150,1024,1,False,False,False,False,False,0,False,False,False,False,96,,,,25.554,False,4.272,4.274,4.275,4.281,4.27,4.284,0.015,False,False,4.267,4.27,4.267,4.27,4.27,4.257,0.017,False,False,,,,,0,1,0,15,10,2956.2,992.23,,Idle,0,20,False,10,True,Go Home,39.96115898,-106.21646841,1.6,8221.3,393.7,True,1,1,False,False,False,False,0,False,False,False,Course Lock,98.4,237.2,23.0,Calm,18,, 4.5.0,DF059,095XF1800201C0,,0JFJ4006F4,0KPAF1T231018F,51.5,43.7,9.2,2.0,1.8,0,0,DF059,095XF1800201C0,,0JFJ4006F4,0KPAF1T231018F,,, 4.5.0,,,,,,
6/21/2018,10:43:10.90 PM,0m 43.9s,43.9,39.96116341,-106.21646983,0,0,0.3,8128,0,0,0,0,0,0,0,0,-2,-3.5,155.9,155.9,Manual Takeoff,Other,Takeoff (RC Assisted),16,5,True,,Matrice 210,True,False,,Smart,RC,True,True,False,,,True,,False,False,False,False,False,False,False,False,False,False,0,Follow Yaw,0,-4.7,155.7,155.7,False,False,False,False,False,False,,False,Normal,,,1024,1024,1141,1024,1,False,False,False,False,False,0,False,False,False,False,96,,,,25.554,False,4.272,4.274,4.275,4.281,4.27,4.284,0.015,False,False,4.267,4.27,4.267,4.27,4.27,4.257,0.017,False,False,,,,,0,1,0,15,10,2956.2,992.23,,Idle,0,20,False,10,True,Go Home,39.96115898,-106.21646841,1.7,8221.3,393.7,True,1,1,False,False,False,False,0,False,False,False,Course Lock,98.4,237.2,23.0,Calm,18,, 4.5.0,DF059,095XF1800201C0,,0JFJ4006F4,0KPAF1T231018F,51.5,43.7,9.2,2.0,1.8,0,0,DF059,095XF1800201C0,,0JFJ4006F4,0KPAF1T231018F,,, 4.5.0,,,,,,
6/21/2018,10:43:11.00 PM,0m 44.0s,44.0,39.96116341,-106.21646983,0,0,0.3,8128,0,0,0,0,0,0,0,0,-2.4,-3.6,155.9,155.9,Manual Takeoff,Other,Takeoff (RC Assisted),16,5,True,,Matrice 210,True,False,,Smart,RC,True,True,False,,,True,,False,False,False,False,False,False,False,False,False,False,0,Follow Yaw,0,-4.6,156,156,False,False,False,False,False,False,,False,Normal,,,1024,1024,1127,1024,1,False,False,False,False,False,0,False,False,False,False,96,,,,25.554,False,4.272,4.274,4.275,4.281,4.27,4.284,0.015,False,False,4.267,4.27,4.267,4.27,4.27,4.257,0.017,False,False,,,,,0,1,0,15,10,2956.2,992.23,,Idle,0,20,False,10,True,Go Home,39.96115898,-106.21646841,1.7,8221.3,393.7,True,1,1,False,False,False,False,0,False,False,False,Course Lock,98.4,237.2,23.0,Calm,18,, 4.5.0,DF059,095XF1800201C0,,0JFJ4006F4,0KPAF1T231018F,51.5,43.7,9.2,2.0,1.8,0,0,DF059,095XF1800201C0,,0JFJ4006F4,0KPAF1T231018F,,, 4.5.0,,,,,,
6/21/2018,10:43:11.10 PM,0m 44.1s,44.1,39.96116339,-106.2164698,0,0,0.3,8128,0,0,0,0,0,0,0,0,-3.5,-3.7,156.2,156.2,Manual Takeoff,Other,Takeoff (RC Assisted),16,5,True,,Matrice 210,True,False,,Smart,RC,True,True,False,,,True,,False,False,False,False,False,False,False,False,False,False,0,Follow Yaw,0,-4.6,156.4,156.4,False,False,False,False,False,False,,False,Normal,,,1024,1024,1123,1024,1,False,False,False,False,False,0,False,False,False,False,96,,,,25.554,False,4.272,4.274,4.275,4.281,4.27,4.284,0.015,False,False,4.267,4.27,4.267,4.27,4.27,4.257,0.017,False,False,,,,,0,1,0,15,10,2956.2,992.23,,Idle,0,20,False,10,True,Go Home,39.96115898,-106.21646841,1.7,8221.3,393.7,True,1,1,False,False,False,False,0,False,False,False,Course Lock,98.4,237.2,23.0,Calm,18,, 4.5.0,DF059,095XF1800201C0,,0JFJ4006F4,0KPAF1T231018F,51.5,43.7,9.2,2.0,1.8,0,0,DF059,095XF1800201C0,,0JFJ4006F4,0KPAF1T231018F,,, 4.5.0,,,,,,
6/21/2018,10:43:11.20 PM,0m 44.2s,44.2,39.96116334,-106.2164697,0,0,0.3,8128,0,0,0,0,0,0,0,0,-5.3,-3.5,156.9,156.9,Manual Takeoff,Other,Takeoff (RC Assisted),16,5,True,,Matrice 210,True,False,,Smart,RC,True,True,False,,,True,,False,False,False,False,False,False,False,False,False,False,0,Follow Yaw,0,-4.6,157.4,157.4,False,False,False,False,False,False,,False,Normal,,,1024,1024,1095,1024,1,False,False,False,False,False,0,False,False,False,False,96,,,,25.554,False,4.272,4.274,4.275,4.281,4.27,4.284,0.015,False,False,4.267,4.27,4.267,4.27,4.27,4.257,0.017,False,False,,,,,0,1,0,15,10,2956.2,992.23,,Idle,0,20,False,10,True,Go Home,39.96115898,-106.21646841,1.6,8221.3,393.7,True,1,1,False,False,False,False,0,False,False,False,Course Lock,98.4,237.2,23.0,Calm,18,, 4.5.0,DF059,095XF1800201C0,,0JFJ4006F4,0KPAF1T231018F,51.5,43.7,9.2,2.0,1.8,0,0,DF059,095XF1800201C0,,0JFJ4006F4,0KPAF1T231018F,,, 4.5.0,,,,,,
6/21/2018,10:43:11.30 PM,0m 44.3s,44.3,39.96116322,-106.21646954,0,0,0.3,8128,0,0,-0.2,0,0.2,0.2,-0.2,0,-7.6,-3.1,158.1,158.1,Manual Takeoff,Other,,16,5,True,,Matrice 210,True,False,,Smart,RC,False,True,False,,,True,,False,False,False,False,False,False,False,False,False,False,0,Follow Yaw,0,-4.3,157.9,157.9,False,False,False,False,False,False,,False,Normal,,,1024,1024,1024,1024,1,False,False,False,False,False,0,False,False,False,False,96,,,,25.554,False,4.272,4.274,4.275,4.281,4.27,4.284,0.015,False,False,4.267,4.27,4.267,4.27,4.27,4.257,0.017,False,False,,,,,0,1,0,15,10,2956.2,992.23,,Idle,0,20,False,10,True,Go Home,39.96115898,-106.21646841,1.6,8221.3,393.7,True,1,1,False,False,False,False,0,False,False,False,Course Lock,98.4,237.2,23.0,Calm,18,, 4.5.0,DF059,095XF1800201C0,,0JFJ4006F4,0KPAF1T231018F,51.5,43.7,9.2,2.0,1.8,0,0,DF059,095XF1800201C0,,0JFJ4006F4,0KPAF1T231018F,,, 4.5.0,,,,,,
6/21/2018,10:43:11.32 PM,0m 44.4s,44.4,39.96116311,-106.21646933,0,0,0.7,8128,0,0,-0.5,0,0.5,0.5,-0.5,0,-6.7,-1.6,158.5,158.5,P-GPS,Other,,16,5,True,,Matrice 210,True,False,,Smart,RC,False,True,False,,,True,,False,False,False,False,False,False,False,False,False,False,0,Follow Yaw,0.1,-4.2,158.1,158.1,False,False,False,False,False,False,,False,Normal,,,1024,1024,1024,1024,1,False,False,False,False,False,0,False,False,False,False,96,,,,25.554,False,4.272,4.274,4.275,4.281,4.27,4.284,0.015,False,False,4.267,4.27,4.267,4.27,4.27,4.257,0.017,False,False,,,,,0,1,0,15,10,2956.2,992.23,,Idle,0,20,False,10,True,Go Home,39.96115898,-106.21646841,1.6,8221.3,393.7,True,1,1,False,False,False,False,0,False,False,False,Course Lock,98.4,237.2,23.0,Calm,18,, 4.5.0,DF059,095XF1800201C0,,0JFJ4006F4,0KPAF1T231018F,51.5,43.7,9.2,2.0,1.8,0,0,DF059,095XF1800201C0,,0JFJ4006F4,0KPAF1T231018F,,, 4.5.0,,,,,,
6/21/2018,10:43:11.41 PM,0m 44.5s,44.5,39.96116285,-106.21646906,0,0,0.7,8128,0,0,-0.7,0,0.5,0.5,-0.5,0,-2.3,-0.6,158.2,158.2,P-GPS,Other,,16,5,True,,Matrice 210,True,False,,Smart,RC,False,True,False,,,True,,False,False,False,False,False,False,False,False,False,False,0,Follow Yaw,0,-3.9,157.9,157.9,False,False,False,False,False,False,,False,Normal,,,1024,1024,1024,1024,1,False,False,False,False,False,0,False,False,False,False,96,,,,25.554,False,4.272,4.274,4.275,4.281,4.27,4.284,0.015,False,False,4.225,4.232,4.229,4.228,4.23,4.215,0.017,False,False,,,,,0,1,0,15,10,2956.2,992.23,,Idle,0,20,False,10,True,Go Home,39.96115898,-106.21646841,1.5,8221.3,393.7,True,1,1,False,False,False,False,0,False,False,False,Course Lock,98.4,237.2,23.0,Calm,18,, 4.5.0,DF059,095XF1800201C0,,0JFJ4006F4,0KPAF1T231018F,51.5,43.7,9.2,2.0,1.8,0,0,DF059,095XF1800201C0,,0JFJ4006F4,0KPAF1T231018F,,, 4.5.0,,,,,,
6/21/2018,10:43:11.61 PM,0m 44.6s,44.6,39.96116247,-106.21646863,0.3,0.3,0.7,8128,1.1,1.1,-0.9,0,0.7,0.7,-0.2,0,0.8,0,157.9,157.9,P-GPS,Other,,16,5,True,,Matrice 210,True,False,,Smart,RC,False,True,False,,,True,,False,False,False,False,False,False,False,False,False,False,0,Follow Yaw,0,-3.6,157.8,157.8,False,False,False,False,False,False,,False,Normal,,,1024,1024,1024,1024,1,False,False,False,False,False,0,False,False,False,False,96,,,,25.577,False,4.255,4.262,4.26,4.267,4.26,4.273,0.018,False,False,4.225,4.232,4.229,4.228,4.23,4.215,0.017,False,False,,,,,0,1,0,15,10,2956.2,1021.82,,Idle,0,20,False,10,True,Go Home,39.96116323,-106.21646955,0.4,8221.3,393.7,True,1,1,False,False,False,False,0,False,False,False,Course Lock,98.4,237.2,23.0,Calm,18,, 4.5.0,DF059,095XF1800201C0,,0JFJ4006F4,0KPAF1T231018F,51.5,43.7,9.2,2.0,1.8,0,0,DF059,095XF1800201C0,,0JFJ4006F4,0KPAF1T231018F,,, 4.5.0,,,,Home Point Updated.,,
6/21/2018,10:43:11.72 PM,0m 44.7s,44.7,39.96116212,-106.21646823,0.3,0.3,0.7,8128,1.1,1.1,-0.7,0,0.7,0.7,-0.2,0,2.3,0.2,157.7,157.7,P-GPS,Other,,16,5,True,,Matrice 210,True,False,,Smart,RC,False,True,False,,,True,,False,False,False,False,False,False,False,False,False,False,0,Follow Yaw,0,-3.3,157.5,157.5,False,False,False,False,False,False,,False,Normal,,,1024,1024,1024,1024,1,False,False,False,False,False,0,False,False,False,False,96,,,,25.577,False,4.255,4.262,4.26,4.267,4.26,4.273,0.018,False,False,4.225,4.232,4.229,4.228,4.23,4.215,0.017,False,False,,,,,0,1,0,15,10,2956.2,1021.82,,Idle,0,20,False,10,True,Go Home,39.96116323,-106.21646955,0.5,8221.3,393.7,True,1,1,False,False,False,False,0,False,False,False,Course Lock,98.4,237.2,23.0,Calm,18,, 4.5.0,DF059,095XF1800201C0,,0JFJ4006F4,0KPAF1T231018F,51.5,43.7,9.2,2.0,1.8,0,0,DF059,095XF1800201C0,,0JFJ4006F4,0KPAF1T231018F,,, 4.5.0,,,,,,
6/21/2018,10:43:11.74 PM,0m 44.8s,44.8,39.96116174,-106.21646747,0.3,0.3,1.0,8128,1.5,1.5,-0.7,0,0.7,0.7,0,0,2.7,0.5,157.5,157.5,P-GPS,Other,,16,5,True,,Matrice 210,True,False,,Smart,RC,False,True,False,,,True,,False,False,False,False,False,False,False,False,False,False,0,Follow Yaw,0,-3,157.4,157.4,False,False,False,False,False,False,,False,Normal,,,1024,1024,1024,1024,1,False,False,False,False,False,0,False,False,False,False,96,,,,25.577,False,4.255,4.262,4.26,4.267,4.26,4.273,0.018,False,False,4.225,4.232,4.229,4.228,4.23,4.215,0.017,False,False,,,,,0,1,0,15,10,2956.2,1021.82,,Idle,0,20,False,10,True,Go Home,39.96116323,-106.21646955,0.9,8221.3,393.7,True,1,1,False,False,False,False,0,False,False,False,Course Lock,98.4,237.2,23.0,Calm,18,, 4.5.0,DF059,095XF1800201C0,,0JFJ4006F4,0KPAF1T231018F,51.5,43.7,9.2,2.0,1.8,0,0,DF059,095XF1800201C0,,0JFJ4006F4,0KPAF1T231018F,,, 4.5.0,,,,,,
6/21/2018,10:43:11.92 PM,0m 44.9s,44.9,39.96116149,-106.21646707,0.3,0.3,1.0,8128,1.1,1.5,-0.5,0,0.5,0.7,0,0,2.8,0.7,157.4,157.4,P-GPS,Other,,16,5,True,,Matrice 210,True,False,,Smart,RC,False,True,False,,,True,,False,False,False,False,False,False,False,False,False,False,0,Follow Yaw,0,-2.9,157.2,157.2,False,False,False,False,False,False,,False,Normal,,,1024,1024,1024,1029,1,False,False,False,False,False,0,False,False,False,False,96,,,,25.577,False,4.255,4.262,4.26,4.267,4.26,4.273,0.018,False,False,4.225,4.232,4.229,4.228,4.23,4.215,0.017,False,False,,,,,0,1,0,15,10,2956.2,1021.82,,Idle,0,20,False,10,True,Go Home,39.96116323,-106.21646955,0.9,8221.3,393.7,True,1,1,False,False,False,False,0,False,False,False,Course Lock,98.4,237.2,23.0,Calm,18,, 4.5.0,DF059,095XF1800201C0,,0JFJ4006F4,0KPAF1T231018F,51.5,43.7,9.2,2.0,1.8,0,0,DF059,095XF1800201C0,,0JFJ4006F4,0KPAF1T231018F,,, 4.5.0,,,,,,
6/21/2018,10:43:12.02 PM,0m 45.0s,45.0,39.96116128,-106.21646667,0.3,0.3,1.0,8128,0,1.5,-0.2,0,0.5,0.7,0,0,2.7,0.7,157.2,157.2,P-GPS,Other,,16,5,True,,Matrice 210,True,False,,Smart,RC,False,True,False,,,True,,False,False,False,False,False,False,False,False,False,False,0,Follow Yaw,0,-2.7,156.8,156.8,False,False,False,False,False,False,,False,Normal,,,1024,1024,1024,1024,1,False,False,False,False,False,0,False,False,False,False,96,,,,25.577,False,4.255,4.262,4.26,4.267,4.26,4.273,0.018,False,False,4.225,4.232,4.229,4.228,4.23,4.215,0.017,False,False,,,,,0,1,0,15,10,2956.2,1021.82,,Idle,0,20,False,10,True,Go Home,39.96116323,-106.21646955,1.0,8221.3,393.7,True,1,1,False,False,False,False,0,False,False,False,Course Lock,98.4,237.2,23.0,Calm,18,, 4.5.0,DF059,095XF1800201C0,,0JFJ4006F4,0KPAF1T231018F,51.5,43.7,9.2,2.0,1.8,0,0,DF059,095XF1800201C0,,0JFJ4006F4,0KPAF1T231018F,,, 4.5.0,,,,,,
6/21/2018,10:43:12.12 PM,0m 45.1s,45.1,39.96116114,-106.21646636,0.3,0.3,1.0,8128,1.1,1.5,0,0,0.2,0.7,0,0,2.4,0.6,156.8,156.8,P-GPS,Other,,16,5,True,,Matrice 210,True,False,,Smart,RC,False,True,False,,,True,,False,False,False,False,False,False,False,False,False,False,0,Follow Yaw,0,-2.5,156.5,156.5,False,False,False,False,False,False,,False,Normal,,,1024,1024,1024,1024,1,False,False,False,False,False,0,False,False,False,False,96,,,,25.577,False,4.255,4.262,4.26,4.267,4.26,4.273,0.018,False,False,4.225,4.232,4.229,4.228,4.23,4.215,0.017,False,False,,,,,0,1,0,15,10,2956.2,1021.82,,Idle,0,20,False,10,True,Go Home,39.96116323,-106.21646955,1.2,8221.3,393.7,True,1,1,False,False,False,False,0,False,False,False,Course Lock,98.4,237.2,23.0,Calm,18,, 4.5.0,DF059,095XF1800201C0,,0JFJ4006F4,0KPAF1T231018F,51.5,43.7,9.2,2.0,1.8,0,0,DF059,095XF1800201C0,,0JFJ4006F4,0KPAF1T231018F,,, 4.5.0,,,,,,
6/21/2018,10:43:12.22 PM,0m 45.2s,45.2,39.96116115,-106.21646605,0,0.3,1.0,8128,1.1,1.5,0.2,0.2,0,0.7,0,0,1.5,0.4,156.5,156.5,P-GPS,Other,,16,5,True,,Matrice 210,True,False,,Smart,RC,False,True,False,,,True,,False,False,False,False,False,False,False,False,False,False,0,Follow Yaw,0,-2.3,156.4,156.4,False,False,False,False,False,False,,False,Normal,,,1024,1024,1024,1024,1,False,False,False,False,False,0,False,False,False,False,96,,,,25.577,False,4.255,4.262,4.26,4.267,4.26,4.273,0.018,False,False,4.225,4.232,4.229,4.228,4.23,4.215,0.017,False,False,,,,,0,1,0,15,10,2956.2,1021.82,,Idle,0,20,False,10,True,Go Home,39.96116323,-106.21646955,1.2,8221.3,393.7,True,1,1,False,False,False,False,0,False,False,False,Course Lock,98.4,237.2,23.0,Calm,18,, 4.5.0,DF059,095XF1800201C0,,0JFJ4006F4,0KPAF1T231018F,51.5,43.7,9.2,2.0,1.8,0,0,DF059,095XF1800201C0,,0JFJ4006F4,0KPAF1T231018F,,, 4.5.0,,,,,,
6/21/2018,10:43:12.32 PM,0m 45.3s,45.3,39.96116122,-106.21646599,0,0.3,1.0,8128,0,1.5,0.2,0.2,0,0.7,0,0,0.3,0.1,156.4,156.4,P-GPS,Other,,16,5,True,,Matrice 210,True,False,,Smart,RC,False,True,False,,,True,,False,False,False,False,False,False,False,False,False,False,0,Follow Yaw,0,-2.2,156.4,156.4,False,False,False,False,False,False,,False,Normal,,,1024,1024,1024,1024,1,False,False,False,False,False,0,False,False,False,False,96,,,,25.577,False,4.255,4.262,4.26,4.267,4.26,4.273,0.018,False,False,4.225,4.232,4.229,4.228,4.23,4.215,0.017,False,False,,,,,0,1,0,15,10,2956.2,1021.82,,Idle,0,20,False,10,True,Go Home,39.96116323,-106.21646955,1.2,8221.3,393.7,True,1,1,False,False,False,False,0,False,False,False,Course Lock,98.4,237.2,23.0,Calm,18,, 4.5.0,DF059,095XF1800201C0,,0JFJ4006F4,0KPAF1T231018F,51.5,43.7,9.2,2.0,1.8,0,0,DF059,095XF1800201C0,,0JFJ4006F4,0KPAF1T231018F,,, 4.5.0,,,,,,
6/21/2018,10:43:12.43 PM,0m 45.4s,45.4,39.96116139,-106.21646606,0,0.3,1.0,8128,0,1.5,0.5,0.5,-0.2,0.7,0,0,-0.7,0.1,156.6,156.6,P-GPS,Other,,16,5,True,,Matrice 210,True,False,,Smart,RC,False,True,False,,,True,,False,False,False,False,False,False,False,False,False,False,0,Follow Yaw,0,-2,156.7,156.7,False,False,False,False,False,False,,False,Normal,,,1024,1024,1024,1024,1,False,False,False,False,False,0,False,False,False,False,96,,,,25.577,False,4.255,4.262,4.26,4.267,4.26,4.273,0.018,False,False,4.225,4.232,4.229,4.228,4.23,4.215,0.017,False,False,,,,,0,1,0,15,10,2956.2,1021.82,,Idle,0,20,False,10,True,Go Home,39.96116323,-106.21646955,1.2,8221.3,393.7,True,1,1,False,False,False,False,0,False,False,False,Course Lock,98.4,237.2,23.0,Calm,18,, 4.5.0,DF059,095XF1800201C0,,0JFJ4006F4,0KPAF1T231018F,51.5,43.7,9.2,2.0,1.8,0,0,DF059,095XF1800201C0,,0JFJ4006F4,0KPAF1T231018F,,, 4.5.0,,,,,,
6/21/2018,10:43:12.53 PM,0m 45.5s,45.5,39.96116156,-106.21646612,0,0.3,1.0,8128,1.1,1.5,0.5,0.5,-0.2,0.7,0,0,-1.4,0.1,156.8,156.8,P-GPS,Other,,16,5,True,,Matrice 210,True,False,,Smart,RC,False,True,False,,,True,,False,False,False,False,False,False,False,False,False,False,0,Follow Yaw,0,-2,156.9,156.9,False,False,False,False,False,False,,False,Normal,,,1024,1024,1024,1024,1,False,False,False,False,False,0,False,False,False,False,96,,,,25.577,False,4.255,4.262,4.26,4.267,4.26,4.273,0.018,False,False,4.185,4.197,4.195,4.193,4.195,4.18,0.017,False,False,,,,,0,1,0,15,10,2956.2,1021.82,,Idle,0,20,False,10,True,Go Home,39.96116323,-106.21646955,1.2,8221.3,393.7,True,1,1,False,False,False,False,0,False,False,False,Course Lock,98.4,237.2,23.0,Calm,18,, 4.5.0,DF059,095XF1800201C0,,0JFJ4006F4,0KPAF1T231018F,51.5,43.7,9.2,2.0,1.8,0,0,DF059,095XF1800201C0,,0JFJ4006F4,0KPAF1T231018F,,, 4.5.0,,,,,,
6/21/2018,10:43:12.63 PM,0m 45.6s,45.6,39.96116198,-106.21646651,0.3,0.3,1.0,8128,0,1.5,0.2,0.5,-0.2,0.7,0,0,-1.6,0,156.9,156.9,P-GPS,Other,,16,5,True,,Matrice 210,True,False,,Smart,RC,False,True,False,,,True,,False,False,False,False,False,False,False,False,False,False,0,Follow Yaw,0,-1.8,157.1,157.1,False,False,False,False,False,False,,False,Normal,,,1024,1024,1024,1024,1,False,False,False,False,False,0,False,False,False,False,96,,,,25.186,False,4.186,4.2,4.197,4.199,4.197,4.207,0.021,False,False,4.185,4.197,4.195,4.193,4.195,4.18,0.017,False,False,,,,,0,1,0,15,10,2956.2,1168.54,,Idle,0,20,False,10,True,Go Home,39.96116323,-106.21646955,1.0,8221.3,393.7,True,1,1,False,False,False,False,0,False,False,False,Course Lock,98.4,237.2,23.0,Calm,18,, 4.5.0,DF059,095XF1800201C0,,0JFJ4006F4,0KPAF1T231018F,51.5,43.7,9.2,2.0,1.8,0,0,DF059,095XF1800201C0,,0JFJ4006F4,0KPAF1T231018F,,, 4.5.0,,,,,,
6/21/2018,10:43:12.73 PM,0m 45.7s,45.7,39.96116218,-106.21646661,0.3,0.3,1.0,8128,1.5,1.5,0.2,0.5,0,0.7,0,0,-2,0,157,157,P-GPS,Other,,16,5,True,,Matrice 210,True,False,,Smart,RC,False,True,False,,,True,,False,False,False,False,False,False,False,False,False,False,0,Follow Yaw,0,-1.7,157.3,157.3,False,False,False,False,False,False,,False,Normal,,,1024,1024,1024,1024,1,False,False,False,False,False,0,False,False,False,False,96,,,,25.186,False,4.186,4.2,4.197,4.199,4.197,4.207,0.021,False,False,4.185,4.197,4.195,4.193,4.195,4.18,0.017,False,False,,,,,0,1,0,15,10,2956.2,1168.54,,Idle,0,20,False,10,True,Go Home,39.96116323,-106.21646955,0.9,8221.3,393.7,True,1,1,False,False,False,False,0,False,False,False,Course Lock,98.4,237.2,23.0,Calm,18,, 4.5.0,DF059,095XF1800201C0,,0JFJ4006F4,0KPAF1T231018F,51.5,43.7,9.2,2.0,1.8,0,0,DF059,095XF1800201C0,,0JFJ4006F4,0KPAF1T231018F,,, 4.5.0,,,,,,
6/21/2018,10:43:12.83 PM,0m 45.8s,45.8,39.96116231,-106.21646675,0.3,0.3,1.0,8128,0,1.5,0,0.5,0,0.7,0,0,-2,0,157.1,157.1,P-GPS,Other,,16,5,True,,Matrice 210,True,False,,Smart,RC,False,True,False,,,True,,False,False,False,False,False,False,False,False,False,False,0,Follow Yaw,0,-1.7,157.4,157.4,False,False,False,False,False,False,,False,Normal,,,1024,1024,1024,1024,1,False,False,False,False,False,0,False,False,False,False,96,,,,25.186,False,4.186,4.2,4.197,4.199,4.197,4.207,0.021,False,False,4.185,4.197,4.195,4.193,4.195,4.18,0.017,False,False,,,,,0,1,0,15,10,2956.2,1168.54,,Idle,0,20,False,10,True,Go Home,39.96116323,-106.21646955,0.9,8221.3,393.7,True,1,1,False,False,False,False,0,False,False,False,Course Lock,98.4,237.2,23.0,Calm,18,, 4.5.0,DF059,095XF1800201C0,,0JFJ4006F4,0KPAF1T231018F,51.5,43.7,9.2,2.0,1.8,0,0,DF059,095XF1800201C0,,0JFJ4006F4,0KPAF1T231018F,,, 4.5.0,,,,,,
6/21/2018,10:43:12.93 PM,0m 45.9s,45.9,39.9611624,-106.21646688,0.3,0.3,1.0,8128,0,1.5,0,0.5,0,0.7,0,0,-1.9,0.1,157.2,157.2,P-GPS,Other,,16,5,True,,Matrice 210,True,False,,Smart,RC,False,True,False,,,True,,False,False,False,False,False,False,False,False,False,False,0,Follow Yaw,0,-1.5,157.5,157.5,False,False,False,False,False,False,,False,Normal,,,1024,881,1024,1024,1,False,False,False,False,False,0,False,False,False,False,96,,,,25.186,False,4.186,4.2,4.197,4.199,4.197,4.207,0.021,False,False,4.185,4.197,4.195,4.193,4.195,4.18,0.017,False,False,,,,,0,1,0,15,10,2956.2,1168.54,,Idle,0,20,False,10,True,Go Home,39.96116323,-106.21646955,0.8,8221.3,393.7,True,1,1,False,False,False,False,0,False,False,False,Course Lock,98.4,237.2,23.0,Calm,18,, 4.5.0,DF059,095XF1800201C0,,0JFJ4006F4,0KPAF1T231018F,51.5,43.7,9.2,2.0,1.8,0,0,DF059,095XF1800201C0,,0JFJ4006F4,0KPAF1T231018F,,, 4.5.0,,,,,,
6/21/2018,10:43:13.03 PM,0m 46.0s,46.0,39.96116243,-106.21646697,0.3,0.3,1.0,8128,0,1.5,0,0.5,0,0.7,0,0,-1.5,0,157.2,157.2,P-GPS,Other,,16,5,True,,Matrice 210,True,False,,Smart,RC,False,True,False,,,True,,False,False,False,False,False,False,False,False,False,False,0,Follow Yaw,0,-1.5,157.6,157.6,False,False,False,False,False,False,,False,Normal,,,1024,915,1024,1024,1,False,False,False,False,False,0,False,False,False,False,96,,,,25.186,False,4.186,4.2,4.197,4.199,4.197,4.207,0.021,False,False,4.185,4.197,4.195,4.193,4.195,4.18,0.017,False,False,,,,,0,1,0,15,10,2956.2,1168.54,,Idle,0,20,False,10,True,Go Home,39.96116323,-106.21646955,0.8,8221.3,393.7,True,1,1,False,False,False,False,0,False,False,False,Course Lock,98.4,237.2,23.0,Calm,18,, 4.5.0,DF059,095XF1800201C0,,0JFJ4006F4,0KPAF1T231018F,51.5,43.7,9.2,2.0,1.8,0,0,DF059,095XF1800201C0,,0JFJ4006F4,0KPAF1T231018F,,, 4.5.0,,,,,,
6/21/2018,10:43:13.14 PM,0m 46.1s,46.1,39.96116233,-106.21646724,0.3,0.3,1.0,8128,0,1.5,0,0.5,0,0.7,0,0,-0.3,0,157.2,157.2,P-GPS,Other,,16,5,True,,Matrice 210,True,False,,Smart,RC,False,True,False,,,True,,False,False,False,False,False,False,False,False,False,False,0,Follow Yaw,0,-1.4,157.6,157.6,False,False,False,False,False,False,,False,Normal,,,1024,937,1024,1024,1,False,False,False,False,False,0,False,False,False,False,96,,,,25.186,False,4.186,4.2,4.197,4.199,4.197,4.207,0.021,False,False,4.185,4.197,4.195,4.193,4.195,4.18,0.017,False,False,,,,,0,1,0,15,10,2956.2,1168.54,,Idle,0,20,False,10,True,Go Home,39.96116323,-106.21646955,0.8,8221.3,393.7,True,1,1,False,False,False,False,0,False,False,False,Course Lock,98.4,237.2,23.0,Calm,18,, 4.5.0,DF059,095XF1800201C0,,0JFJ4006F4,0KPAF1T231018F,51.5,43.7,9.2,2.0,1.8,0,0,DF059,095XF1800201C0,,0JFJ4006F4,0KPAF1T231018F,,, 4.5.0,,,,,,
6/21/2018,10:43:13.24 PM,0m 46.2s,46.2,39.9611622,-106.21646721,0.3,0.3,1.0,8128,0,1.5,0,0.5,0,0.7,0,0,1.5,0,157.2,157.2,P-GPS,Other,,16,5,True,,Matrice 210,True,False,,Smart,RC,False,True,False,,,True,,False,False,False,False,False,False,False,False,False,False,0,Follow Yaw,0,-1.3,157.7,157.7,False,False,False,False,False,False,,False,Normal,,,1024,978,1024,1024,1,False,False,False,False,False,0,False,False,False,False,96,,,,25.186,False,4.186,4.2,4.197,4.199,4.197,4.207,0.021,False,False,4.185,4.197,4.195,4.193,4.195,4.18,0.017,False,False,,,,,0,1,0,15,10,2956.2,1168.54,,Idle,0,20,False,10,True,Go Home,39.96116323,-106.21646955,0.8,8221.3,393.7,True,1,1,False,False,False,False,0,False,False,False,Course Lock,98.4,237.2,23.0,Calm,18,, 4.5.0,DF059,095XF1800201C0,,0JFJ4006F4,0KPAF1T231018F,51.5,43.7,9.2,2.0,1.8,0,0,DF059,095XF1800201C0,,0JFJ4006F4,0KPAF1T231018F,,, 4.5.0,,,,,,
6/21/2018,10:43:13.34 PM,0m 46.3s,46.3,39.96116209,-106.21646719,0.3,0.3,1.0,8128,0,1.5,0,0.5,0,0.7,0,0,2.1,0,157.2,157.2,P-GPS,Other,,16,5,True,,Matrice 210,True,False,,Smart,RC,False,True,False,,,True,,False,False,False,False,False,False,False,False,False,False,0,Follow Yaw,0,-1.3,157.8,157.8,False,False,False,False,False,False,,False,Normal,,,1024,986,1024,1024,1,False,False,False,False,False,0,False,False,False,False,96,,,,25.186,False,4.186,4.2,4.197,4.199,4.197,4.207,0.021,False,False,4.185,4.197,4.195,4.193,4.195,4.18,0.017,False,False,,,,,0,1,0,15,10,2956.2,1168.54,,Idle,0,20,False,10,True,Go Home,39.96116323,-106.21646955,0.9,8221.3,393.7,True,1,1,False,False,False,False,0,False,False,False,Course Lock,98.4,237.2,23.0,Calm,18,, 4.5.0,DF059,095XF1800201C0,,0JFJ4006F4,0KPAF1T231018F,51.5,43.7,9.2,2.0,1.8,0,0,DF059,095XF1800201C0,,0JFJ4006F4,0KPAF1T231018F,,, 4.5.0,,,,,,
6/21/2018,10:43:13.36 PM,0m 46.4s,46.4,39.961162,-106.21646711,0.3,0.3,1.0,8128,0,1.5,0,0.5,0,0.7,0,0,2,-0.1,157.2,157.2,P-GPS,Other,,16,5,True,,Matrice 210,True,False,,Smart,RC,False,True,False,,,True,,False,False,False,False,False,False,False,False,False,False,0,Follow Yaw,0,-1.3,157.9,157.9,False,False,False,False,False,False,,False,Normal,,,1024,956,1024,1024,1,False,False,False,False,False,0,False,False,False,False,96,,,,25.186,False,4.186,4.2,4.197,4.199,4.197,4.207,0.021,False,False,4.185,4.197,4.195,4.193,4.195,4.18,0.017,False,False,,,,,0,1,0,15,10,2956.2,1168.54,,Idle,0,20,False,10,True,Go Home,39.96116323,-106.21646955,0.9,8221.3,393.7,True,1,1,False,False,False,False,0,False,False,False,Course Lock,98.4,237.2,23.0,Calm,18,, 4.5.0,DF059,095XF1800201C0,,0JFJ4006F4,0KPAF1T231018F,51.5,43.7,9.2,2.0,1.8,0,0,DF059,095XF1800201C0,,0JFJ4006F4,0KPAF1T231018F,,, 4.5.0,,,,,,
6/21/2018,10:43:13.44 PM,0m 46.5s,46.5,39.96116166,-106.21646677,0.3,0.3,1.0,8128,0,1.5,0,0.5,0,0.7,0,0,1.6,-0.2,157.2,157.2,P-GPS,Other,,16,5,True,,Matrice 210,True,False,,Smart,RC,False,True,False,,,True,,False,False,False,False,False,False,False,False,False,False,0,Follow Yaw,0,-1.2,157.8,157.8,False,False,False,False,False,False,,False,Normal,,,1024,904,1024,1024,1,False,False,False,False,False,0,False,False,False,False,96,,,,25.186,False,4.186,4.2,4.197,4.199,4.197,4.207,0.021,False,False,4.185,4.197,4.195,4.193,4.195,4.18,0.017,False,False,,,,,0,1,0,15,10,2956.2,1168.54,,Idle,0,20,False,10,True,Go Home,39.96116323,-106.21646955,1.0,8221.3,393.7,True,1,1,False,False,False,False,0,False,False,False,Course Lock,98.4,237.2,23.0,Calm,18,, 4.5.0,DF059,095XF1800201C0,,0JFJ4006F4,0KPAF1T231018F,51.5,43.7,9.2,2.0,1.8,0,0,DF059,095XF1800201C0,,0JFJ4006F4,0KPAF1T231018F,,, 4.5.0,,,,,,
6/21/2018,10:43:13.54 PM,0m 46.6s,46.6,39.96116167,-106.21646673,0.3,0.3,1.0,8128,0,1.5,0.2,0.5,0,0.7,0,0,1.4,-0.1,157.2,157.2,P-GPS,Other,,16,5,True,,Matrice 210,True,False,,Smart,RC,False,True,False,,,True,,False,False,False,False,False,False,False,False,False,False,0,Follow Yaw,0,-1.3,157.9,157.9,False,False,False,False,False,False,,False,Normal,,,1024,892,1024,1024,1,False,False,False,False,False,0,False,False,False,False,96,,,,25.585,False,4.179,4.192,4.187,4.19,4.187,4.199,0.021,False,False,4.179,4.19,4.187,4.186,4.19,4.174,0.017,False,False,,,,,0,1,0,15,10,2956.2,1520.10,,Idle,0,20,False,10,True,Go Home,39.96116323,-106.21646955,1.0,8221.3,393.7,True,1,1,False,False,False,False,0,False,False,False,Course Lock,98.4,237.2,23.0,Calm,18,, 4.5.0,DF059,095XF1800201C0,,0JFJ4006F4,0KPAF1T231018F,51.5,43.7,9.2,2.0,1.8,0,0,DF059,095XF1800201C0,,0JFJ4006F4,0KPAF1T231018F,,, 4.5.0,,,,,,
6/21/2018,10:43:13.64 PM,0m 46.7s,46.7,39.96116169,-106.21646669,0.3,0.3,1.0,8128,1.1,1.5,0.2,0.5,0,0.7,0,0,1.7,0,157.2,157.2,P-GPS,Other,,16,5,True,,Matrice 210,True,False,,Smart,RC,False,True,False,,,True,,False,False,False,False,False,False,False,False,False,False,0,Follow Yaw,0,-1.3,157.9,157.9,False,False,False,False,False,False,,False,Normal,,,1024,870,1024,1024,1,False,False,False,False,False,0,False,False,False,False,96,,,,25.585,False,4.179,4.192,4.187,4.19,4.187,4.199,0.021,False,False,4.179,4.19,4.187,4.186,4.19,4.174,0.017,False,False,,,,,0,1,0,15,10,2956.2,1520.10,,Idle,0,20,False,10,True,Go Home,39.96116323,-106.21646955,1.0,8221.3,393.7,True,1,1,False,False,False,False,0,False,False,False,Course Lock,98.4,237.2,23.0,Calm,18,, 4.5.0,DF059,095XF1800201C0,,0JFJ4006F4,0KPAF1T231018F,51.5,43.7,9.2,2.0,1.8,0,0,DF059,095XF1800201C0,,0JFJ4006F4,0KPAF1T231018F,,, 4.5.0,,,,,,
6/21/2018,10:43:13.74 PM,0m 46.8s,46.8,39.96116183,-106.21646668,0.3,0.3,1.0,8128,0,1.5,0.2,0.5,0,0.7,0,0,2.1,0,157.2,157.2,P-GPS,Other,,16,5,True,,Matrice 210,True,False,,Smart,RC,False,True,False,,,True,,False,False,False,False,False,False,False,False,False,False,0,Follow Yaw,0,-1,158,158,False,False,False,False,False,False,,False,Normal,,,1024,961,1024,1024,1,False,False,False,False,False,0,False,False,False,False,96,,,,25.585,False,4.179,4.192,4.187,4.19,4.187,4.199,0.021,False,False,4.179,4.19,4.187,4.186,4.19,4.174,0.017,False,False,,,,,0,1,0,15,10,2956.2,1520.10,,Idle,0,20,False,10,True,Go Home,39.96116323,-106.21646955,0.9,8221.3,393.7,True,1,1,False,False,False,False,0,False,False,False,Course Lock,98.4,237.2,23.0,Calm,18,, 4.5.0,DF059,095XF1800201C0,,0JFJ4006F4,0KPAF1T231018F,51.5,43.7,9.2,2.0,1.8,0,0,DF059,095XF1800201C0,,0JFJ4006F4,0KPAF1T231018F,,, 4.5.0,,,,,,
6/21/2018,10:43:13.85 PM,0m 46.9s,46.9,39.96116202,-106.21646653,0.3,0.3,1.0,8128,0,1.5,0.5,0.5,0,0.7,0,0,2.7,0,157.3,157.3,P-GPS,Other,,16,5,True,,Matrice 210,True,False,,Smart,RC,False,True,False,,,True,,False,False,False,False,False,False,False,False,False,False,0,Follow Yaw,0,-1,158,158,False,False,False,False,False,False,,False,Normal,,,1024,1024,1024,1024,1,False,False,False,False,False,0,False,False,False,False,96,,,,25.585,False,4.179,4.192,4.187,4.19,4.187,4.199,0.021,False,False,4.179,4.19,4.187,4.186,4.19,4.174,0.017,False,False,,,,,0,1,0,15,10,2956.2,1520.10,,Idle,0,20,False,10,True,Go Home,39.96116323,-106.21646955,1.0,8221.3,393.7,True,1,1,False,False,False,False,0,False,False,False,Course Lock,98.4,237.2,23.0,Calm,18,, 4.5.0,DF059,095XF1800201C0,,0JFJ4006F4,0KPAF1T231018F,51.5,43.7,9.2,2.0,1.8,0,0,DF059,095XF1800201C0,,0JFJ4006F4,0KPAF1T231018F,,, 4.5.0,,,,,,
6/21/2018,10:43:13.95 PM,0m 47.0s,47.0,39.96116228,-106.21646659,0.3,0.3,1.0,8128,0,1.5,0.5,0.5,0,0.7,0,0,3.1,0,157.3,157.3,P-GPS,Other,,16,5,True,,Matrice 210,True,False,,Smart,RC,False,True,False,,,True,,False,False,False,False,False,False,False,False,False,False,0,Follow Yaw,0,-1.1,158.1,158.1,False,False,False,False,False,False,,False,Normal,,,1024,1024,1087,1024,1,False,False,False,False,False,0,False,False,False,False,96,,,,25.585,False,4.179,4.192,4.187,4.19,4.187,4.199,0.021,False,False,4.179,4.19,4.187,4.186,4.19,4.174,0.017,False,False,,,,,0,1,0,15,10,2956.2,1520.10,,Idle,0,20,False,10,True,Go Home,39.96116323,-106.21646955,0.9,8221.3,393.7,True,1,1,False,False,False,False,0,False,False,False,Course Lock,98.4,237.2,23.0,Calm,18,, 4.5.0,DF059,095XF1800201C0,,0JFJ4006F4,0KPAF1T231018F,51.5,43.7,9.2,2.0,1.8,0,0,DF059,095XF1800201C0,,0JFJ4006F4,0KPAF1T231018F,,, 4.5.0,,,,,,
6/21/2018,10:43:14.05 PM,0m 47.1s,47.1,39.96116258,-106.21646665,0.3,0.3,1.0,8128,0,1.5,0.5,0.5,0,0.7,0,0,2.4,0.1,157.4,157.4,P-GPS,Other,,16,5,True,,Matrice 210,True,False,,Smart,RC,False,True,False,,,True,,False,False,False,False,False,False,False,False,False,False,0,Follow Yaw,0,-1,158.1,158.1,False,False,False,False,False,False,,False,Normal,,,1024,1024,1107,1067,1,False,False,False,False,False,0,False,False,False,False,96,,,,25.585,False,4.179,4.192,4.187,4.19,4.187,4.199,0.021,False,False,4.179,4.19,4.187,4.186,4.19,4.174,0.017,False,False,,,,,0,1,0,15,10,2956.2,1520.10,,Idle,0,20,False,10,True,Go Home,39.96116323,-106.21646955,0.9,8221.3,393.7,True,1,1,False,False,False,False,0,False,False,False,Course Lock,98.4,237.2,23.0,Calm,18,, 4.5.0,DF059,095XF1800201C0,,0JFJ4006F4,0KPAF1T231018F,51.5,43.7,9.2,2.0,1.8,0,0,DF059,095XF1800201C0,,0JFJ4006F4,0KPAF1T231018F,,, 4.5.0,,,,,,
6/21/2018,10:43:14.15 PM,0m 47.2s,47.2,39.96116291,-106.21646675,0.3,0.3,1.0,8128,1.1,1.5,0.7,0.7,0,0.7,0,0,1.4,0.3,157.4,157.4,P-GPS,Other,,16,5,True,,Matrice 210,True,False,,Smart,RC,False,True,False,,,True,,False,False,False,False,False,False,False,False,False,False,0,Follow Yaw,0,-1,158.1,158.1,False,False,False,False,False,False,,False,Normal,,,1024,1024,1107,1067,1,False,False,False,False,False,0,False,False,False,False,96,,,,25.585,False,4.179,4.192,4.187,4.19,4.187,4.199,0.021,False,False,4.179,4.19,4.187,4.186,4.19,4.174,0.017,False,False,,,,,0,1,0,15,10,2956.2,1520.10,,Idle,0,20,False,10,True,Go Home,39.96116323,-106.21646955,0.8,8221.3,393.7,True,1,1,False,False,False,False,0,False,False,False,Course Lock,98.4,237.2,23.0,Calm,18,, 4.5.0,DF059,095XF1800201C0,,0JFJ4006F4,0KPAF1T231018F,51.5,43.7,9.2,2.0,1.8,0,0,DF059,095XF1800201C0,,0JFJ4006F4,0KPAF1T231018F,,, 4.5.0,,,,,,
6/21/2018,10:43:14.25 PM,0m 47.3s,47.3,39.96116341,-106.21646698,0.3,0.3,1.0,8128,1.5,1.5,0.7,0.7,0,0.7,0,0,0.2,0.4,157.4,157.4,P-GPS,Other,,16,5,True,,Matrice 210,True,False,,Smart,RC,False,True,False,,,True,,False,False,False,False,False,False,False,False,False,False,0,Follow Yaw,0,-0.8,158.1,158.1,False,False,False,False,False,False,,False,Normal,,,1024,1024,1130,1077,1,False,False,False,False,False,0,False,False,False,False,96,,,,25.585,False,4.179,4.192,4.187,4.19,4.187,4.199,0.021,False,False,4.179,4.19,4.187,4.186,4.19,4.174,0.017,False,False,,,,,0,1,0,15,10,2956.2,1520.10,,Idle,0,20,False,10,True,Go Home,39.96116323,-106.21646955,0.8,8221.3,393.7,True,1,1,False,False,False,False,0,False,False,False,Course Lock,98.4,237.2,23.0,Calm,18,, 4.5.0,DF059,095XF1800201C0,,0JFJ4006F4,0KPAF1T231018F,51.5,43.7,9.2,2.0,1.8,0,0,DF059,095XF1800201C0,,0JFJ4006F4,0KPAF1T231018F,,, 4.5.0,,,,,,
6/21/2018,10:43:14.35 PM,0m 47.4s,47.4,39.96116374,-106.21646709,0.3,0.3,1.0,8128,1.5,1.5,0.7,0.7,0,0.7,0,0,-0.6,0.4,157.4,157.4,P-GPS,Other,,16,5,True,,Matrice 210,True,False,,Smart,RC,False,True,False,,,True,,False,False,False,False,False,False,False,False,False,False,0,Follow Yaw,0,-0.9,158.3,158.3,False,False,False,False,False,False,,False,Normal,,,1024,1024,1134,1098,1,False,False,False,False,False,0,False,False,False,False,96,,,,25.585,False,4.179,4.192,4.187,4.19,4.187,4.199,0.021,False,False,4.179,4.19,4.187,4.186,4.19,4.174,0.017,False,False,,,,,0,1,0,15,10,2956.2,1520.10,,Idle,0,20,False,10,True,Go Home,39.96116323,-106.21646955,0.8,8221.3,393.7,True,1,1,False,False,False,False,0,False,False,False,Course Lock,98.4,237.2,23.0,Calm,18,, 4.5.0,DF059,095XF1800201C0,,0JFJ4006F4,0KPAF1T231018F,51.5,43.7,9.2,2.0,1.8,0,0,DF059,095XF1800201C0,,0JFJ4006F4,0KPAF1T231018F,,, 4.5.0,,,,,,
6/21/2018,10:43:14.45 PM,0m 47.5s,47.5,39.96116403,-106.21646718,0.3,0.3,1.0,8128,1.1,1.5,0.5,0.7,0,0.7,0,0,-0.9,0.3,157.5,157.5,P-GPS,Other,,16,5,True,,Matrice 210,True,False,,Smart,RC,False,True,False,,,True,,False,False,False,False,False,False,False,False,False,False,0,Follow Yaw,0,-0.8,158.3,158.3,False,False,False,False,False,False,,False,Normal,,,1024,1024,1141,1102,1,False,False,False,False,False,0,False,False,False,False,96,,,,25.585,False,4.179,4.192,4.187,4.19,4.187,4.199,0.021,False,False,4.179,4.19,4.187,4.186,4.19,4.174,0.017,False,False,,,,,0,1,0,15,10,2956.2,1520.10,,Idle,0,20,False,10,True,Go Home,39.96116323,-106.21646955,0.8,8221.3,393.7,True,1,1,False,False,False,False,0,False,False,False,Course Lock,98.4,237.2,23.0,Calm,18,, 4.5.0,DF059,095XF1800201C0,,0JFJ4006F4,0KPAF1T231018F,51.5,43.7,9.2,2.0,1.8,0,0,DF059,095XF1800201C0,,0JFJ4006F4,0KPAF1T231018F,,, 4.5.0,,,,,,
6/21/2018,10:43:14.56 PM,0m 47.6s,47.6,39.96116428,-106.21646728,0.3,0.3,1.0,8128,0,1.5,0.5,0.7,0,0.7,-0.2,0,-1.1,0.2,157.6,157.6,P-GPS,Other,,16,5,True,,Matrice 210,True,False,,Smart,RC,False,True,False,,,True,,False,False,False,False,False,False,False,False,False,False,0,Follow Yaw,0,-0.9,158.3,158.3,False,False,False,False,False,False,,False,Normal,,,1024,1024,1153,1109,1,False,False,False,False,False,0,False,False,False,False,96,,,,25.568,False,4.179,4.192,4.187,4.19,4.187,4.199,0.021,False,False,4.17,4.18,4.179,4.178,4.182,4.165,0.017,False,False,,,,,0,1,0,15,10,2956.2,2333.93,,Idle,0,20,False,10,True,Go Home,39.96116323,-106.21646955,0.7,8221.3,393.7,True,1,1,False,False,False,False,0,False,False,False,Course Lock,98.4,237.2,23.0,Calm,18,, 4.5.0,DF059,095XF1800201C0,,0JFJ4006F4,0KPAF1T231018F,51.5,43.7,9.2,2.0,1.8,0,0,DF059,095XF1800201C0,,0JFJ4006F4,0KPAF1T231018F,,, 4.5.0,,,,,,
