sep=,
CUSTOM.date [local], CUSTOM.updateTime [local], OSD.flyTime, OSD.flyTime [s], OSD.latitude, OSD.longitude, OSD.height [ft], OSD.heightMax [ft], OSD.vpsHeight [ft], OSD.altitude [ft], OSD.hSpeed [MPH], OSD.hSpeedMax [MPH], OSD.xSpeed [MPH], OSD.xSpeedMax [MPH], OSD.ySpeed [MPH], OSD.ySpeedMax [MPH], OSD.zSpeed [MPH], OSD.zSpeedMax [MPH], OSD.pitch, OSD.roll, OSD.yaw, OSD.yaw [360], OSD.flycState, OSD.flycCommand, OSD.flightAction, OSD.gpsNum, OSD.gpsLevel, OSD.isGPSUsed, OSD.nonGPSCause, OSD.droneType, OSD.isSwaveWork, OSD.waveError, OSD.goHomeStatus, OSD.batteryType, OSD.ctrlDevice, OSD.isOnGround, OSD.isMotorOn, OSD.isMotorBlocked, OSD.motorStartFailedCause, OSD.motorFailReason, OSD.isImuPreheated, OSD.imuInitFailReason, OSD.isAcceletorOverRange, OSD.isBarometerDeadInAir, OSD.isCompassError, OSD.isGoHomeHeightModified, OSD.canIOCWork, OSD.isNotEnoughForce, OSD.isOutOfLimit, OSD.isPropellerCatapult, OSD.isVibrating, OSD.isVisionUsed, OSD.voltageWarning, GIMBAL.mode, GIMBAL.pitch, GIMBAL.roll, GIMBAL.yaw, GIMBAL.yaw [360], GIMBAL.isPitchAtLimit, GIMBAL.isRollAtLimit, GIMBAL.isYawAtLimit, GIMBAL.isStuck, CAMERA.isPhoto, CAMERA.isVideo, CAMERA.filename, CAMERA.sdCardIsInserted, CAMERA.sdCardState, RC.downlinkSignal, RC.uplinkSignal, RC.aileron, RC.elevator, RC.throttle, RC.rudder, RC.mode, RC.goHomeDepressed, RC.recordDepressed, RC.shutterDepressed, RC.playbackDepressed, RC.wheelDepressed, RC.wheelOffset, RC.custom1Depressed, RC.custom2Depressed, RC.custom3Depressed, RC.custom4Depressed, BATTERY.chargeLevel, BATTERY.currentPV [V], BATTERY.currentCapacity [mAh], BATTERY.fullCapacity [mAh], BATTERY.voltage [V], BATTERY.isCellVoltageEstimated, BATTERY.cellVoltage1 [V], BATTERY.cellVoltage2 [V], BATTERY.cellVoltage3 [V], BATTERY.cellVoltage4 [V], BATTERY.cellVoltage5 [V], BATTERY.cellVoltage6 [V], BATTERY.maxCellVoltageDeviation, BATTERY.isCellVoltageDeviationHigh, BATTERY.isVoltageLow, BATTERY2.cellVoltage1 [V], BATTERY2.cellVoltage2 [V], BATTERY2.cellVoltage3 [V], BATTERY2.cellVoltage4 [V], BATTERY2.cellVoltage5 [V], BATTERY2.cellVoltage6 [V], BATTERY2.maxCellVoltageDeviation, BATTERY2.isCellVoltageDeviationHigh, BATTERY2.isVoltageLow, BATTERY.current [A], BATTERY.temperature [F], BATTERY.minTemperature [F], BATTERY.maxTemperature [F], BATTERY.usefulTime [s], BATTERY.goHomeTime [s], BATTERY.landTime [s], BATTERY.goHomeBattery, BATTERY.landBattery, BATTERY.safeFlyRadius, BATTERY.volumeConsume, BATTERY.status, BATTERY.goHomeStatus, BATTERY.goHomeCountdown, BATTERY.lowWarning, BATTERY.lowWarningGoHome, BATTERY.seriousLowWarning, BATTERY.seriousLowWarningLanding, MC.failSafeAction, HOME.latitude, HOME.longitude, HOME.distance [ft], HOME.height [ft], HOME.heightLimit [ft], HOME.isHomeRecord, HOME.goHomeMode, HOME.aircraftHeadDirection, HOME.isDynamicHomePointEnabled, HOME.isReachedLimitDistance, HOME.isReachedLimitHeight, HOME.isCompassCeleing, HOME.compassCeleStatus, HOME.isMultipleFlightModeEnabled, HOME.isBeginnerMode, HOME.isIOCEnabled, HOME.iocMode, HOME.goHomeHeight [ft], HOME.courseLockAngle, HOME.forceLandingHeight [ft], HOME.wind, HOME.dataRecorderFileIndex, RECOVER.appType, RECOVER.appVersion, RECOVER.aircraftName, RECOVER.aircraftSerial, RECOVER.cameraSerial, RECOVER.rcSerial, RECOVER.batterySerial, DETAILS.totalTime [s], DETAILS.totalDistance [ft], DETAILS.maxHeight [ft], DETAILS.maxHorizontalSpeed [MPH], DETAILS.maxVerticalSpeed [MPH], DETAILS.photoNum, DETAILS.videoTime [s], DETAILS.aircraftName, DETAILS.aircraftSerial, DETAILS.cameraSerial, DETAILS.rcSerial, DETAILS.batterySerial, DETAILS.appName, DETAILS.appType, DETAILS.appVersion, APPGPS.latitude, APPGPS.longitude, APPGPS.accuracy, APP.message, APP.tip, APP.warning
6/21/2018,10:48:50.85 PM,0m 25.7s,25.7,39.96116134,-106.21647525,0,0,0.3,8128,0,0,0,0,0,0,0,0,-1.7,-0.1,151.8,151.8,Starting Motors,Other,Takeoff (RC Assisted),17,5,True,,Matrice 210,True,False,,Smart,RC,True,True,False,,,True,,False,False,False,False,False,False,False,False,False,False,0,Follow Yaw,0,-1.3,151.8,151.8,False,False,False,False,False,False,,False,Normal,,,1024,1024,1024,1024,1,False,False,False,False,False,0,False,False,False,False,,,,,25.29,False,4.211,4.212,4.214,4.219,4.21,4.224,0.014,False,False,4.209,4.21,4.209,4.211,4.21,4.194,0.017,False,False,,,,,,,,,,,,,Idle,,,True,,False,Go Home,,,,,,False,,,False,False,False,False,0,False,False,False,,,,,Calm,,, 4.5.0,DF059,095XF1800201C0,,0JFJ4006F4,0KPAF1T231018F,126.1,163.8,8.9,5.2,1.3,0,0,DF059,095XF1800201C0,,0JFJ4006F4,0KPAF1T231018F,,, 4.5.0,,,,,,
6/21/2018,10:48:53.53 PM,0m 25.8s,25.8,39.96116131,-106.21647526,0,0,0.3,8128,0,0,0,0,0,0,0,0,-1.8,-0.1,151.8,151.8,Starting Motors,Other,Takeoff (RC Assisted),17,5,True,,Matrice 210,True,False,,Smart,RC,True,True,False,,,True,,False,False,False,False,False,False,False,False,False,False,0,Follow Yaw,0,-1.3,151.7,151.7,False,False,False,False,False,False,,False,Normal,,,1024,1024,1024,1024,1,False,False,False,False,False,0,False,False,False,False,,,,,25.29,False,4.211,4.212,4.214,4.219,4.21,4.224,0.014,False,False,4.209,4.21,4.209,4.211,4.21,4.194,0.017,False,False,,,,,,,,,,,,,Idle,,,True,,False,Go Home,,,,,,False,,,False,False,False,False,0,False,False,False,,,,,Calm,,, 4.5.0,DF059,095XF1800201C0,,0JFJ4006F4,0KPAF1T231018F,126.1,163.8,8.9,5.2,1.3,0,0,DF059,095XF1800201C0,,0JFJ4006F4,0KPAF1T231018F,,, 4.5.0,,,,,,
6/21/2018,10:48:51.05 PM,0m 25.9s,25.9,39.96116126,-106.21647528,0,0,0.3,8128,0,0,0,0,0,0,0,0,-1.8,-0.1,151.8,151.8,Starting Motors,Other,Takeoff (RC Assisted),17,5,True,,Matrice 210,True,False,,Smart,RC,True,True,False,,,True,,False,False,False,False,False,False,False,False,False,False,0,Follow Yaw,0,-1.2,151.7,151.7,False,False,False,False,False,False,,False,Normal,,,1024,1024,1024,1024,1,False,False,False,False,False,0,False,False,False,False,,,,,25.29,False,4.211,4.212,4.214,4.219,4.21,4.224,0.014,False,False,4.209,4.21,4.209,4.211,4.21,4.194,0.017,False,False,,,,,,,,,,,,,Idle,,,True,,False,Go Home,,,,,,False,,,False,False,False,False,0,False,False,False,,,,,Calm,,, 4.5.0,DF059,095XF1800201C0,,0JFJ4006F4,0KPAF1T231018F,126.1,163.8,8.9,5.2,1.3,0,0,DF059,095XF1800201C0,,0JFJ4006F4,0KPAF1T231018F,,, 4.5.0,,,,,,
6/21/2018,10:48:51.15 PM,0m 26.0s,26.0,39.96116123,-106.2164753,0,0,0.3,8128,0,0,0,0,0,0,0,0,-1.8,-0.1,151.8,151.8,Starting Motors,Other,Takeoff (RC Assisted),16,5,True,,Matrice 210,True,False,,Smart,RC,True,True,False,,,True,,False,False,False,False,False,False,False,False,False,False,0,Follow Yaw,0,-1.2,151.7,151.7,False,False,False,False,False,False,,False,Normal,,,1024,1024,1024,1024,1,False,False,False,False,False,0,False,False,False,False,90,,,,25.211,False,4.211,4.212,4.214,4.219,4.21,4.224,0.014,False,False,4.209,4.21,4.209,4.211,4.21,4.194,0.017,False,False,,,,,0,0,0,0,0,0.0,1015.43,,Idle,0,20,False,10,True,Go Home,,,,,,False,,,False,False,False,False,0,False,False,False,,,,,Calm,,, 4.5.0,DF059,095XF1800201C0,,0JFJ4006F4,0KPAF1T231018F,126.1,163.8,8.9,5.2,1.3,0,0,DF059,095XF1800201C0,,0JFJ4006F4,0KPAF1T231018F,,, 4.5.0,,,,,,
6/21/2018,10:48:51.25 PM,0m 26.1s,26.1,39.96116118,-106.21647532,0,0,0.3,8128,0,0,0,0,0,0,0,0,-1.8,-0.1,151.8,151.8,Starting Motors,Other,Takeoff (RC Assisted),16,5,True,,Matrice 210,True,False,,Smart,RC,True,True,False,,,True,,False,False,False,False,False,False,False,False,False,False,0,Follow Yaw,0,-1.2,151.7,151.7,False,False,False,False,False,False,,False,Normal,,,1024,1024,1024,1024,1,False,False,False,False,False,0,False,False,False,False,90,,,,25.211,False,4.211,4.212,4.214,4.219,4.21,4.224,0.014,False,False,4.205,4.207,4.204,4.21,4.207,4.192,0.018,False,False,,,,,0,0,0,0,0,0.0,1015.43,,Idle,0,20,False,10,True,Go Home,,,,,,False,,,False,False,False,False,0,False,False,False,,,,,Calm,,, 4.5.0,DF059,095XF1800201C0,,0JFJ4006F4,0KPAF1T231018F,126.1,163.8,8.9,5.2,1.3,0,0,DF059,095XF1800201C0,,0JFJ4006F4,0KPAF1T231018F,,, 4.5.0,,,,,,
6/21/2018,10:48:51.27 PM,0m 26.2s,26.2,39.96116115,-106.21647535,0,0,0.3,8128,0,0,0,0,0,0,0,0,-1.8,-0.1,151.8,151.8,Starting Motors,Other,Takeoff (RC Assisted),16,5,True,,Matrice 210,True,False,,Smart,RC,True,True,False,,,True,,False,False,False,False,False,False,False,False,False,False,0,Follow Yaw,0,-1.2,151.8,151.8,False,False,False,False,False,False,,False,Normal,,,1024,1024,1024,1024,1,False,False,False,False,False,0,False,False,False,False,90,,,,25.211,False,4.211,4.212,4.214,4.219,4.21,4.224,0.014,False,False,4.205,4.207,4.204,4.21,4.207,4.192,0.018,False,False,,,,,0,0,0,0,0,0.0,1015.43,,Idle,0,20,False,10,True,Go Home,,,,,,False,,,False,False,False,False,0,False,False,False,,,,,Calm,,, 4.5.0,DF059,095XF1800201C0,,0JFJ4006F4,0KPAF1T231018F,126.1,163.8,8.9,5.2,1.3,0,0,DF059,095XF1800201C0,,0JFJ4006F4,0KPAF1T231018F,,, 4.5.0,,,,,,
6/21/2018,10:48:51.35 PM,0m 26.3s,26.3,39.96116111,-106.21647538,0,0,0.3,8128,0,0,0,0,0,0,0,0,-1.8,-0.1,151.8,151.8,Starting Motors,Other,Takeoff (RC Assisted),16,5,True,,Matrice 210,True,False,,Smart,RC,True,True,False,,,True,,False,False,False,False,False,False,False,False,False,False,0,Follow Yaw,0,-1.2,151.8,151.8,False,False,False,False,False,False,,False,Normal,,,1024,1024,1024,1024,1,False,False,False,False,False,0,False,False,False,False,90,,,,25.211,False,4.211,4.212,4.214,4.219,4.21,4.224,0.014,False,False,4.205,4.207,4.204,4.21,4.207,4.192,0.018,False,False,,,,,0,0,0,0,0,0.0,1015.43,,Idle,0,20,False,10,True,Go Home,,,,,,False,,,False,False,False,False,0,False,False,False,,,,,Calm,,, 4.5.0,DF059,095XF1800201C0,,0JFJ4006F4,0KPAF1T231018F,126.1,163.8,8.9,5.2,1.3,0,0,DF059,095XF1800201C0,,0JFJ4006F4,0KPAF1T231018F,,, 4.5.0,,,,,,
6/21/2018,10:48:51.45 PM,0m 26.4s,26.4,39.9611611,-106.21647541,0,0,0.3,8128,0,0,0,0,0,0,0,0,-1.8,-0.1,151.8,151.8,Starting Motors,Other,Takeoff (RC Assisted),16,5,True,,Matrice 210,True,False,,Smart,RC,True,True,False,,,True,,False,False,False,False,False,False,False,False,False,False,0,Follow Yaw,0,-1.2,151.7,151.7,False,False,False,False,False,False,,False,Normal,,,1024,1024,1024,1024,1,False,False,False,False,False,0,False,False,False,False,90,,,,25.211,False,4.211,4.212,4.214,4.219,4.21,4.224,0.014,False,False,4.205,4.207,4.204,4.21,4.207,4.192,0.018,False,False,,,,,0,0,0,0,0,0.0,1015.43,,Idle,0,20,False,10,True,Go Home,,,,,,False,,,False,False,False,False,0,False,False,False,,,,,Calm,,, 4.5.0,DF059,095XF1800201C0,,0JFJ4006F4,0KPAF1T231018F,126.1,163.8,8.9,5.2,1.3,0,0,DF059,095XF1800201C0,,0JFJ4006F4,0KPAF1T231018F,,, 4.5.0,,,,,,
6/21/2018,10:48:51.55 PM,0m 26.5s,26.5,39.96116105,-106.21647545,0,0,0.3,8128,0,0,0,0,0,0,0,0,-1.8,-0.1,151.8,151.8,Starting Motors,Other,Takeoff (RC Assisted),16,5,True,,Matrice 210,True,False,,Smart,RC,True,True,False,,,True,,False,False,False,False,False,False,False,False,False,False,0,Follow Yaw,0,-1.2,151.8,151.8,False,False,False,False,False,False,,False,Normal,,,1024,1024,1024,1024,1,False,False,False,False,False,0,False,False,False,False,90,,,,25.211,False,4.211,4.212,4.214,4.219,4.21,4.224,0.014,False,False,4.205,4.207,4.204,4.21,4.207,4.192,0.018,False,False,,,,,0,0,0,0,0,0.0,1015.43,,Idle,0,20,False,10,True,Go Home,,,,,,False,,,False,False,False,False,0,False,False,False,,,,,Calm,,, 4.5.0,DF059,095XF1800201C0,,0JFJ4006F4,0KPAF1T231018F,126.1,163.8,8.9,5.2,1.3,0,0,DF059,095XF1800201C0,,0JFJ4006F4,0KPAF1T231018F,,, 4.5.0,,,,,,
6/21/2018,10:48:51.76 PM,0m 26.6s,26.6,39.96116103,-106.21647548,0,0,0.3,8128,0,0,0,0,0,0,0,0,-1.8,-0.2,151.8,151.8,Manual Takeoff,Other,Takeoff (RC Assisted),16,5,True,,Matrice 210,True,False,,Smart,RC,True,True,False,,,True,,False,False,False,False,False,False,False,False,False,False,0,Follow Yaw,0,-1.2,151.8,151.8,False,False,False,False,False,False,,False,Normal,,,1024,1024,1024,1024,1,False,False,False,False,False,0,False,False,False,False,90,,,,25.211,False,4.211,4.212,4.214,4.219,4.21,4.224,0.014,False,False,4.205,4.207,4.204,4.21,4.207,4.192,0.018,False,False,,,,,0,0,0,0,0,0.0,1015.43,,Idle,0,20,False,10,True,Go Home,,,,,,False,,,False,False,False,False,0,False,False,False,,,,,Calm,,, 4.5.0,DF059,095XF1800201C0,,0JFJ4006F4,0KPAF1T231018F,126.1,163.8,8.9,5.2,1.3,0,0,DF059,095XF1800201C0,,0JFJ4006F4,0KPAF1T231018F,,, 4.5.0,,,,,,
6/21/2018,10:48:51.78 PM,0m 26.7s,26.7,39.96116103,-106.21647546,0,0,0.3,8128,0,0,0,0,0,0,0,0,-1.8,-0.2,151.8,151.8,Manual Takeoff,Other,Takeoff (RC Assisted),16,5,True,,Matrice 210,True,False,,Smart,RC,True,True,False,,,True,,False,False,False,False,False,False,False,False,False,False,0,Follow Yaw,0,-1.2,151.8,151.8,False,False,False,False,False,False,,False,Normal,,,1024,1024,1024,1024,1,False,False,False,False,False,0,False,False,False,False,90,,,,25.266,False,4.205,4.21,4.21,4.215,4.207,4.219,0.014,False,False,4.205,4.207,4.204,4.21,4.207,4.192,0.018,False,False,,,,,0,0,0,0,0,0.0,1015.43,,Idle,0,20,False,10,True,Go Home,,,,,,False,,,False,False,False,False,0,False,False,False,,,,,Calm,,, 4.5.0,DF059,095XF1800201C0,,0JFJ4006F4,0KPAF1T231018F,126.1,163.8,8.9,5.2,1.3,0,0,DF059,095XF1800201C0,,0JFJ4006F4,0KPAF1T231018F,,, 4.5.0,,,,,,
6/21/2018,10:48:51.86 PM,0m 26.8s,26.8,39.96116102,-106.2164755,0,0,0.3,8128,0,0,0,0,0,0,0,0,-1.8,-0.2,151.8,151.8,Manual Takeoff,Other,Takeoff (RC Assisted),16,5,True,,Matrice 210,True,False,,Smart,RC,True,True,False,,,True,,False,False,False,False,False,False,False,False,False,False,0,Follow Yaw,0,-1.2,151.8,151.8,False,False,False,False,False,False,,False,Normal,,,1024,1024,1024,1024,1,False,False,False,False,False,0,False,False,False,False,90,,,,25.266,False,4.205,4.21,4.21,4.215,4.207,4.219,0.014,False,False,4.205,4.207,4.204,4.21,4.207,4.192,0.018,False,False,,,,,0,0,0,0,0,0.0,1015.43,,Idle,0,20,False,10,True,Go Home,,,,,,False,,,False,False,False,False,0,False,False,False,,,,,Calm,,, 4.5.0,DF059,095XF1800201C0,,0JFJ4006F4,0KPAF1T231018F,126.1,163.8,8.9,5.2,1.3,0,0,DF059,095XF1800201C0,,0JFJ4006F4,0KPAF1T231018F,,, 4.5.0,,,,,,
6/21/2018,10:48:51.96 PM,0m 26.9s,26.9,39.96116099,-106.21647558,0,0,0.3,8128,0,0,0,0,0,0,0,0,-1.8,-0.2,151.8,151.8,Manual Takeoff,Other,Takeoff (RC Assisted),16,5,True,,Matrice 210,True,False,,Smart,RC,True,True,False,,,True,,False,False,False,False,False,False,False,False,False,False,0,Follow Yaw,0,-1.2,151.7,151.7,False,False,False,False,False,False,,False,Normal,,,1024,1024,1024,1024,1,False,False,False,False,False,0,False,False,False,False,90,,,,25.266,False,4.205,4.21,4.21,4.215,4.207,4.219,0.014,False,False,4.205,4.207,4.204,4.21,4.207,4.192,0.018,False,False,,,,,0,0,0,0,0,0.0,1015.43,,Idle,0,20,False,10,True,Go Home,,,,,,False,,,False,False,False,False,0,False,False,False,,,,,Calm,,, 4.5.0,DF059,095XF1800201C0,,0JFJ4006F4,0KPAF1T231018F,126.1,163.8,8.9,5.2,1.3,0,0,DF059,095XF1800201C0,,0JFJ4006F4,0KPAF1T231018F,,, 4.5.0,,,,,,
6/21/2018,10:48:52.06 PM,0m 27.0s,27.0,39.96116097,-106.21647564,0,0,0.3,8128,1.1,1.1,0,0,0,0,0,0,-1.8,-0.2,151.8,151.8,Manual Takeoff,Other,Takeoff (RC Assisted),16,5,True,,Matrice 210,True,False,,Smart,RC,True,True,False,,,True,,False,False,False,False,False,False,False,False,False,False,0,Follow Yaw,0,-1.2,151.8,151.8,False,False,False,False,False,False,,False,Normal,,,1024,1024,1024,1024,1,False,False,False,False,False,0,False,False,False,False,90,,,,25.287,False,4.205,4.21,4.21,4.215,4.207,4.219,0.014,False,False,4.205,4.207,4.204,4.21,4.207,4.192,0.018,False,False,,,,,0,0,0,0,0,0.0,1015.14,,Idle,0,20,False,10,True,Go Home,,,,,,False,,,False,False,False,False,0,False,False,False,,,,,Calm,,, 4.5.0,DF059,095XF1800201C0,,0JFJ4006F4,0KPAF1T231018F,126.1,163.8,8.9,5.2,1.3,0,0,DF059,095XF1800201C0,,0JFJ4006F4,0KPAF1T231018F,,, 4.5.0,,,,,,
6/21/2018,10:48:52.16 PM,0m 27.1s,27.1,39.96116096,-106.21647564,0,0,0.3,8128,0,1.1,0,0,0,0,0,0,-1.8,-0.2,151.8,151.8,Manual Takeoff,Other,Takeoff (RC Assisted),16,5,True,,Matrice 210,True,False,,Smart,RC,True,True,False,,,True,,False,False,False,False,False,False,False,False,False,False,0,Follow Yaw,0,-1.2,151.8,151.8,False,False,False,False,False,False,,False,Normal,,,1024,1024,1060,1024,1,False,False,False,False,False,0,False,False,False,False,90,,,,25.287,False,4.205,4.21,4.21,4.215,4.207,4.219,0.014,False,False,4.179,4.184,4.18,4.185,4.185,4.169,0.018,False,False,,,,,0,0,0,0,0,0.0,1015.14,,Idle,0,20,False,10,True,Go Home,,,,,,False,,,False,False,False,False,0,False,False,False,,,,,Calm,,, 4.5.0,DF059,095XF1800201C0,,0JFJ4006F4,0KPAF1T231018F,126.1,163.8,8.9,5.2,1.3,0,0,DF059,095XF1800201C0,,0JFJ4006F4,0KPAF1T231018F,,, 4.5.0,,,,,,
6/21/2018,10:48:52.26 PM,0m 27.2s,27.2,39.96116097,-106.21647565,0,0,0.3,8128,0,1.1,0,0,0,0,0,0,-1.8,-0.2,151.8,151.8,Manual Takeoff,Other,Takeoff (RC Assisted),16,5,True,,Matrice 210,True,False,,Smart,RC,True,True,False,,,True,,False,False,False,False,False,False,False,False,False,False,0,Follow Yaw,0,-1.2,151.8,151.8,False,False,False,False,False,False,,False,Normal,,,1024,1024,1069,1024,1,False,False,False,False,False,0,False,False,False,False,90,,,,25.287,False,4.205,4.21,4.21,4.215,4.207,4.219,0.014,False,False,4.179,4.184,4.18,4.185,4.185,4.169,0.018,False,False,,,,,0,0,0,0,0,0.0,1015.14,,Idle,0,20,False,10,True,Go Home,,,,,,False,,,False,False,False,False,0,False,False,False,,,,,Calm,,, 4.5.0,DF059,095XF1800201C0,,0JFJ4006F4,0KPAF1T231018F,126.1,163.8,8.9,5.2,1.3,0,0,DF059,095XF1800201C0,,0JFJ4006F4,0KPAF1T231018F,,, 4.5.0,,,,,,
6/21/2018,10:48:52.47 PM,0m 27.3s,27.3,39.96116097,-106.21647564,0,0,0.3,8128,0,1.1,0,0,0,0,0,0,-1.8,-0.2,151.8,151.8,Manual Takeoff,Other,Takeoff (RC Assisted),16,5,True,,Matrice 210,True,False,,Smart,RC,True,True,False,,,True,,False,False,False,False,False,False,False,False,False,False,0,Follow Yaw,0,-1.2,151.8,151.8,False,False,False,False,False,False,,False,Normal,,,1024,1024,1056,1024,1,False,False,False,False,False,0,False,False,False,False,90,,,,25.287,False,4.205,4.21,4.21,4.215,4.207,4.219,0.014,False,False,4.179,4.184,4.18,4.185,4.185,4.169,0.018,False,False,,,,,0,0,0,0,0,0.0,1015.14,,Idle,0,20,False,10,True,Go Home,,,,,,False,,,False,False,False,False,0,False,False,False,,,,,Calm,,, 4.5.0,DF059,095XF1800201C0,,0JFJ4006F4,0KPAF1T231018F,126.1,163.8,8.9,5.2,1.3,0,0,DF059,095XF1800201C0,,0JFJ4006F4,0KPAF1T231018F,,, 4.5.0,,,,,,
6/21/2018,10:48:52.49 PM,0m 27.4s,27.4,39.96116096,-106.21647562,0,0,0.3,8128,0,1.1,0,0,0,0,0,0,-1.8,-0.2,151.8,151.8,Manual Takeoff,Other,Takeoff (RC Assisted),16,5,True,,Matrice 210,True,False,,Smart,RC,True,True,False,,,True,,False,False,False,False,False,False,False,False,False,False,0,Follow Yaw,0,-1.2,151.8,151.8,False,False,False,False,False,False,,False,Normal,,,1024,1024,1068,1024,1,False,False,False,False,False,0,False,False,False,False,90,,,,25.287,False,4.205,4.21,4.21,4.215,4.207,4.219,0.014,False,False,4.179,4.184,4.18,4.185,4.185,4.169,0.018,False,False,,,,,0,0,0,0,0,0.0,1015.14,,Idle,0,20,False,10,True,Go Home,,,,,,False,,,False,False,False,False,0,False,False,False,,,,,Calm,,, 4.5.0,DF059,095XF1800201C0,,0JFJ4006F4,0KPAF1T231018F,126.1,163.8,8.9,5.2,1.3,0,0,DF059,095XF1800201C0,,0JFJ4006F4,0KPAF1T231018F,,, 4.5.0,,,,,,
6/21/2018,10:48:52.57 PM,0m 27.5s,27.5,39.9611609,-106.21647559,0,0,0.3,8128,0,1.1,0,0,0,0,0,0,-1.8,-0.2,151.8,151.8,Manual Takeoff,Other,Takeoff (RC Assisted),16,5,True,,Matrice 210,True,False,,Smart,RC,True,True,False,,,True,,False,False,False,False,False,False,False,False,False,False,0,Follow Yaw,0,-1.2,151.8,151.8,False,False,False,False,False,False,,False,Normal,,,1024,1024,1082,1024,1,False,False,False,False,False,0,False,False,False,False,90,,,,25.287,False,4.205,4.21,4.21,4.215,4.207,4.219,0.014,False,False,4.179,4.184,4.18,4.185,4.185,4.169,0.018,False,False,,,,,0,0,0,0,0,0.0,1015.14,,Idle,0,20,False,10,True,Go Home,,,,,,False,,,False,False,False,False,0,False,False,False,,,,,Calm,,, 4.5.0,DF059,095XF1800201C0,,0JFJ4006F4,0KPAF1T231018F,126.1,163.8,8.9,5.2,1.3,0,0,DF059,095XF1800201C0,,0JFJ4006F4,0KPAF1T231018F,,, 4.5.0,,,,,,
6/21/2018,10:48:52.67 PM,0m 27.6s,27.6,39.96116082,-106.21647543,0,0,0.3,8128,0,1.1,0,0,0,0,0,0,-1.8,-0.2,151.8,151.8,Manual Takeoff,Other,Takeoff (RC Assisted),16,5,True,,Matrice 210,True,False,,Smart,RC,True,True,False,,,True,,False,False,False,False,False,False,False,False,False,False,0,Follow Yaw,0,-1.2,151.8,151.8,False,False,False,False,False,False,,False,Normal,,,1024,1024,1127,1024,1,False,False,False,False,False,0,False,False,False,False,90,,,,25.287,False,4.205,4.21,4.21,4.215,4.207,4.219,0.014,False,False,4.179,4.184,4.18,4.185,4.185,4.169,0.018,False,False,,,,,0,0,0,0,0,0.0,1015.14,,Idle,0,20,False,10,True,Go Home,,,,,,False,,,False,False,False,False,0,False,False,False,,,,,Calm,,, 4.5.0,DF059,095XF1800201C0,,0JFJ4006F4,0KPAF1T231018F,126.1,163.8,8.9,5.2,1.3,0,0,DF059,095XF1800201C0,,0JFJ4006F4,0KPAF1T231018F,,, 4.5.0,,,,,,
6/21/2018,10:48:52.87 PM,0m 27.7s,27.7,39.96116079,-106.21647546,0,0,0.3,8128,0,1.1,0,0,0,0,0,0,-1.8,-0.2,151.8,151.8,Manual Takeoff,Other,Takeoff (RC Assisted),16,5,True,,Matrice 210,True,False,,Smart,RC,True,True,False,,,True,,False,False,False,False,False,False,False,False,False,False,0,Follow Yaw,0,-1.2,151.8,151.8,False,False,False,False,False,False,,False,Normal,,,1024,1024,1141,1024,1,False,False,False,False,False,0,False,False,False,False,90,,,,25.252,False,4.205,4.209,4.207,4.212,4.204,4.215,0.014,False,False,4.179,4.184,4.18,4.185,4.185,4.169,0.018,False,False,,,,,0,0,0,0,0,0.0,1015.14,,Idle,0,20,False,10,True,Go Home,,,,,,False,,,False,False,False,False,0,False,False,False,,,,,Calm,,, 4.5.0,DF059,095XF1800201C0,,0JFJ4006F4,0KPAF1T231018F,126.1,163.8,8.9,5.2,1.3,0,0,DF059,095XF1800201C0,,0JFJ4006F4,0KPAF1T231018F,,, 4.5.0,,,,,,
6/21/2018,10:48:52.97 PM,0m 27.8s,27.8,39.96116077,-106.21647548,0,0,0.3,8128,0,1.1,0,0,0,0,0,0,-1.8,-0.2,151.8,151.8,Manual Takeoff,Other,Takeoff (RC Assisted),16,5,True,,Matrice 210,True,False,,Smart,RC,True,True,False,,,True,,False,False,False,False,False,False,False,False,False,False,0,Follow Yaw,0,-1.2,151.8,151.8,False,False,False,False,False,False,,False,Normal,,,1024,1024,1143,1024,1,False,False,False,False,False,0,False,False,False,False,90,,,,25.252,False,4.205,4.209,4.207,4.212,4.204,4.215,0.014,False,False,4.179,4.184,4.18,4.185,4.185,4.169,0.018,False,False,,,,,0,0,0,0,0,0.0,1015.14,,Idle,0,20,False,10,True,Go Home,,,,,,False,,,False,False,False,False,0,False,False,False,,,,,Calm,,, 4.5.0,DF059,095XF1800201C0,,0JFJ4006F4,0KPAF1T231018F,126.1,163.8,8.9,5.2,1.3,0,0,DF059,095XF1800201C0,,0JFJ4006F4,0KPAF1T231018F,,, 4.5.0,,,,,,
6/21/2018,10:48:52.99 PM,0m 27.9s,27.9,39.96116076,-106.21647549,0,0,0.3,8128,0,1.1,0,0,0,0,0,0,-1.8,-0.2,151.8,151.8,Manual Takeoff,Other,Takeoff (RC Assisted),16,5,True,,Matrice 210,True,False,,Smart,RC,True,True,False,,,True,,False,False,False,False,False,False,False,False,False,False,0,Follow Yaw,0,-1.2,151.8,151.8,False,False,False,False,False,False,,False,Normal,,,1024,1024,1145,1024,1,False,False,False,False,False,0,False,False,False,False,90,,,,25.252,False,4.205,4.209,4.207,4.212,4.204,4.215,0.014,False,False,4.179,4.184,4.18,4.185,4.185,4.169,0.018,False,False,,,,,0,0,0,0,0,0.0,1015.14,,Idle,0,20,False,10,True,Go Home,,,,,,False,,,False,False,False,False,0,False,False,False,,,,,Calm,,, 4.5.0,DF059,095XF1800201C0,,0JFJ4006F4,0KPAF1T231018F,126.1,163.8,8.9,5.2,1.3,0,0,DF059,095XF1800201C0,,0JFJ4006F4,0KPAF1T231018F,,, 4.5.0,,,,,,
6/21/2018,10:48:53.08 PM,0m 28.0s,28.0,39.9611608,-106.21647552,0,0,0.3,8128,0,1.1,0,0,0,0,0,0,-1.8,-0.2,151.8,151.8,Manual Takeoff,Other,Takeoff (RC Assisted),16,5,True,,Matrice 210,True,False,,Smart,RC,True,True,False,,,True,,False,False,False,False,False,False,False,False,False,False,0,Follow Yaw,0,-1.3,151.8,151.8,False,False,False,False,False,False,,False,Normal,,,1024,1024,1149,1024,1,False,False,False,False,False,0,False,False,False,False,90,,,,25.22,False,4.205,4.209,4.207,4.212,4.204,4.215,0.014,False,False,4.179,4.184,4.18,4.185,4.185,4.169,0.018,False,False,,,,,0,0,0,0,0,0.0,1028.63,,Idle,0,20,False,10,True,Go Home,,,,,,False,,,False,False,False,False,0,False,False,False,,,,,Calm,,, 4.5.0,DF059,095XF1800201C0,,0JFJ4006F4,0KPAF1T231018F,126.1,163.8,8.9,5.2,1.3,0,0,DF059,095XF1800201C0,,0JFJ4006F4,0KPAF1T231018F,,, 4.5.0,,,,,,
6/21/2018,10:48:53.18 PM,0m 28.1s,28.1,39.9611608,-106.21647552,0,0,0.3,8128,0,1.1,0,0,0,0,0,0,-1.9,-0.2,151.8,151.8,Manual Takeoff,Other,Takeoff (RC Assisted),16,5,True,,Matrice 210,True,False,,Smart,RC,True,True,False,,,True,,False,False,False,False,False,False,False,False,False,False,0,Follow Yaw,0,-1.3,151.7,151.7,False,False,False,False,False,False,,False,Normal,,,1024,1024,1152,1024,1,False,False,False,False,False,0,False,False,False,False,90,,,,25.22,False,4.205,4.209,4.207,4.212,4.204,4.215,0.014,False,False,4.179,4.184,4.18,4.185,4.185,4.169,0.018,False,False,,,,,0,0,0,0,0,0.0,1028.63,,Idle,0,20,False,10,True,Go Home,,,,,,False,,,False,False,False,False,0,False,False,False,,,,,Calm,,, 4.5.0,DF059,095XF1800201C0,,0JFJ4006F4,0KPAF1T231018F,126.1,163.8,8.9,5.2,1.3,0,0,DF059,095XF1800201C0,,0JFJ4006F4,0KPAF1T231018F,,, 4.5.0,,,,,,
6/21/2018,10:48:53.28 PM,0m 28.2s,28.2,39.9611608,-106.21647554,0,0,0.3,8128,0,1.1,0,0,0,0,0,0,-1.8,-0.2,151.8,151.8,Manual Takeoff,Other,Takeoff (RC Assisted),16,5,True,,Matrice 210,True,False,,Smart,RC,True,True,False,,,True,,False,False,False,False,False,False,False,False,False,False,0,Follow Yaw,0,-1.3,151.8,151.8,False,False,False,False,False,False,,False,Normal,,,1024,1024,1151,1024,1,False,False,False,False,False,0,False,False,False,False,90,,,,25.22,False,4.205,4.209,4.207,4.212,4.204,4.215,0.014,False,False,4.204,4.205,4.202,4.206,4.202,4.185,0.021,False,False,,,,,0,0,0,0,0,0.0,1028.63,,Idle,0,20,False,10,True,Go Home,,,,,,False,,,False,False,False,False,0,False,False,False,,,,,Calm,,, 4.5.0,DF059,095XF1800201C0,,0JFJ4006F4,0KPAF1T231018F,126.1,163.8,8.9,5.2,1.3,0,0,DF059,095XF1800201C0,,0JFJ4006F4,0KPAF1T231018F,,, 4.5.0,,,,,,
6/21/2018,10:48:53.38 PM,0m 28.3s,28.3,39.96116081,-106.21647559,0,0,0.3,8128,0,1.1,0,0,0,0,0,0,-1.9,-0.2,151.8,151.8,Manual Takeoff,Other,Takeoff (RC Assisted),16,5,True,,Matrice 210,True,False,,Smart,RC,True,True,False,,,True,,False,False,False,False,False,False,False,False,False,False,0,Follow Yaw,0,-1.3,151.8,151.8,False,False,False,False,False,False,,False,Normal,,,1024,1024,1155,1024,1,False,False,False,False,False,0,False,False,False,False,90,,,,25.22,False,4.205,4.209,4.207,4.212,4.204,4.215,0.014,False,False,4.204,4.205,4.202,4.206,4.202,4.185,0.021,False,False,,,,,0,0,0,0,0,0.0,1028.63,,Idle,0,20,False,10,True,Go Home,,,,,,False,,,False,False,False,False,0,False,False,False,,,,,Calm,,, 4.5.0,DF059,095XF1800201C0,,0JFJ4006F4,0KPAF1T231018F,126.1,163.8,8.9,5.2,1.3,0,0,DF059,095XF1800201C0,,0JFJ4006F4,0KPAF1T231018F,,, 4.5.0,,,,,,
6/21/2018,10:48:53.48 PM,0m 28.4s,28.4,39.96116082,-106.21647563,0,0,0.3,8128,0,1.1,0,0,0,0,0,0,-1.9,-0.2,151.8,151.8,Manual Takeoff,Other,Takeoff (RC Assisted),16,5,True,,Matrice 210,True,False,,Smart,RC,True,True,False,,,True,,False,False,False,False,False,False,False,False,False,False,0,Follow Yaw,0,-1.3,151.8,151.8,False,False,False,False,False,False,,False,Normal,,,1024,1024,1155,1024,1,False,False,False,False,False,0,False,False,False,False,90,,,,25.22,False,4.205,4.209,4.207,4.212,4.204,4.215,0.014,False,False,4.204,4.205,4.202,4.206,4.202,4.185,0.021,False,False,,,,,0,0,0,0,0,0.0,1028.63,,Idle,0,20,False,10,True,Go Home,,,,,,False,,,False,False,False,False,0,False,False,False,,,,,Calm,,, 4.5.0,DF059,095XF1800201C0,,0JFJ4006F4,0KPAF1T231018F,126.1,163.8,8.9,5.2,1.3,0,0,DF059,095XF1800201C0,,0JFJ4006F4,0KPAF1T231018F,,, 4.5.0,,,,,,
6/21/2018,10:48:53.58 PM,0m 28.5s,28.5,39.96116086,-106.21647567,0,0,0.3,8128,0,1.1,0,0,0,0,0,0,-1.9,-0.2,151.8,151.8,Manual Takeoff,Other,Takeoff (RC Assisted),16,5,True,,Matrice 210,True,False,,Smart,RC,True,True,False,,,True,,False,False,False,False,False,False,False,False,False,False,0,Follow Yaw,0,-1.3,151.7,151.7,False,False,False,False,False,False,,False,Normal,,,1024,1024,1163,1024,1,False,False,False,False,False,0,False,False,False,False,90,,,,25.22,False,4.205,4.209,4.207,4.212,4.204,4.215,0.014,False,False,4.204,4.205,4.202,4.206,4.202,4.185,0.021,False,False,,,,,0,0,0,0,0,0.0,1028.63,,Idle,0,20,False,10,True,Go Home,,,,,,False,,,False,False,False,False,0,False,False,False,,,,,Calm,,, 4.5.0,DF059,095XF1800201C0,,0JFJ4006F4,0KPAF1T231018F,126.1,163.8,8.9,5.2,1.3,0,0,DF059,095XF1800201C0,,0JFJ4006F4,0KPAF1T231018F,,, 4.5.0,,,,,,
6/21/2018,10:48:53.68 PM,0m 28.6s,28.6,39.96116088,-106.2164757,0,0,0.3,8128,0,1.1,0,0,0,0,0,0,-2.1,-0.1,151.8,151.8,Manual Takeoff,Other,Takeoff (RC Assisted),16,5,True,,Matrice 210,True,False,,Smart,RC,True,True,False,,,True,,False,False,False,False,False,False,False,False,False,False,0,Follow Yaw,0,-1.3,151.8,151.8,False,False,False,False,False,False,,False,Normal,,,1024,1024,1185,1024,1,False,False,False,False,False,0,False,False,False,False,90,,,,25.22,False,4.205,4.209,4.207,4.212,4.204,4.215,0.014,False,False,4.204,4.205,4.202,4.206,4.202,4.185,0.021,False,False,,,,,0,0,0,0,0,0.0,1028.63,,Idle,0,20,False,10,True,Go Home,,,,,,False,,,False,False,False,False,0,False,False,False,,,,,Calm,,, 4.5.0,DF059,095XF1800201C0,,0JFJ4006F4,0KPAF1T231018F,126.1,163.8,8.9,5.2,1.3,0,0,DF059,095XF1800201C0,,0JFJ4006F4,0KPAF1T231018F,,, 4.5.0,,,,,,
6/21/2018,10:48:53.79 PM,0m 28.7s,28.7,39.96116087,-106.21647571,0,0,0.3,8128,0,1.1,0,0,0,0,0,0,-2.5,0,151.9,151.9,Manual Takeoff,Other,Takeoff (RC Assisted),16,5,True,,Matrice 210,True,False,,Smart,RC,True,True,False,,,True,,False,False,False,False,False,False,False,False,False,False,0,Follow Yaw,0,-1.2,151.7,151.7,False,False,False,False,False,False,,False,Normal,,,1024,1024,1186,1024,1,False,False,False,False,False,0,False,False,False,False,90,,,,25.22,False,4.205,4.209,4.207,4.212,4.204,4.215,0.014,False,False,4.204,4.205,4.202,4.206,4.202,4.185,0.021,False,False,,,,,0,0,0,0,0,0.0,1028.63,,Idle,0,20,False,10,True,Go Home,,,,,,False,,,False,False,False,False,0,False,False,False,,,,,Calm,,, 4.5.0,DF059,095XF1800201C0,,0JFJ4006F4,0KPAF1T231018F,126.1,163.8,8.9,5.2,1.3,0,0,DF059,095XF1800201C0,,0JFJ4006F4,0KPAF1T231018F,,, 4.5.0,,,,,,
6/21/2018,10:48:53.89 PM,0m 28.8s,28.8,39.96116086,-106.21647573,0,0,0.3,8128,0,1.1,0,0,0,0,0,0,-3.6,0,151.9,151.9,Manual Takeoff,Other,Takeoff (RC Assisted),16,5,True,,Matrice 210,True,False,,Smart,RC,True,True,False,,,True,,False,False,False,False,False,False,False,False,False,False,0,Follow Yaw,0,-1.2,151.8,151.8,False,False,False,False,False,False,,False,Normal,,,1024,1024,1175,1024,1,False,False,False,False,False,0,False,False,False,False,90,,,,25.223,False,4.198,4.202,4.202,4.207,4.202,4.212,0.014,False,False,4.204,4.205,4.202,4.206,4.202,4.185,0.021,False,False,,,,,0,0,0,0,0,0.0,1028.63,,Idle,0,20,False,10,True,Go Home,,,,,,False,,,False,False,False,False,0,False,False,False,,,,,Calm,,, 4.5.0,DF059,095XF1800201C0,,0JFJ4006F4,0KPAF1T231018F,126.1,163.8,8.9,5.2,1.3,0,0,DF059,095XF1800201C0,,0JFJ4006F4,0KPAF1T231018F,,, 4.5.0,,,,,,
6/21/2018,10:48:53.99 PM,0m 28.9s,28.9,39.96116077,-106.21647574,0,0,0.3,8128,0,1.1,-0.2,0,0,0,-0.2,0,-5.8,0.2,151.9,151.9,Manual Takeoff,Other,Takeoff (RC Assisted),16,5,True,,Matrice 210,True,False,,Smart,RC,True,True,False,,,True,,False,False,False,False,False,False,False,False,False,False,0,Follow Yaw,0,-1.1,151.6,151.6,False,False,False,False,False,False,,False,Normal,,,1024,1024,1135,1024,1,False,False,False,False,False,0,False,False,False,False,90,,,,25.223,False,4.198,4.202,4.202,4.207,4.202,4.212,0.014,False,False,4.204,4.205,4.202,4.206,4.202,4.185,0.021,False,False,,,,,0,0,0,0,0,0.0,1028.63,,Idle,0,20,False,10,True,Go Home,,,,,,False,,,False,False,False,False,0,False,False,False,,,,,Calm,,, 4.5.0,DF059,095XF1800201C0,,0JFJ4006F4,0KPAF1T231018F,126.1,163.8,8.9,5.2,1.3,0,0,DF059,095XF1800201C0,,0JFJ4006F4,0KPAF1T231018F,,, 4.5.0,,,,,,
6/21/2018,10:48:54.09 PM,0m 29.0s,29.0,39.96116061,-106.21647567,0,0,0.7,8128,0,1.1,-0.5,0,0.2,0.2,-0.5,0,-7.4,0.7,151.8,151.8,P-GPS,Other,,16,5,True,,Matrice 210,True,False,,Smart,RC,False,True,False,,,True,,False,False,False,False,False,False,False,False,False,False,0,Follow Yaw,0,-1.1,151.5,151.5,False,False,False,False,False,False,,False,Normal,,,1024,1024,1145,1024,1,False,False,False,False,False,0,False,False,False,False,90,,,,24.977,False,4.198,4.202,4.202,4.207,4.202,4.212,0.014,False,False,4.204,4.205,4.202,4.206,4.202,4.185,0.021,False,False,,,,,0,0,0,0,0,0.0,1106.13,,Idle,0,20,False,10,True,Go Home,39.96116072,-106.21647573,0.0,8231.7,393.7,True,1,1,False,False,False,False,0,False,False,False,Course Lock,98.4,265.4,23.0,Calm,19,, 4.5.0,DF059,095XF1800201C0,,0JFJ4006F4,0KPAF1T231018F,126.1,163.8,8.9,5.2,1.3,0,0,DF059,095XF1800201C0,,0JFJ4006F4,0KPAF1T231018F,,, 4.5.0,,,,Data Recorder File Index is 19.,,
6/21/2018,10:48:54.19 PM,0m 29.1s,29.1,39.96116031,-106.21647549,0.3,0.3,0.7,8128,0,1.1,-0.9,0,0.2,0.2,-0.7,0,-4.3,0.3,151.7,151.7,P-GPS,Other,,16,5,True,,Matrice 210,True,False,,Smart,RC,False,True,False,,,True,,False,False,False,False,False,False,False,False,False,False,0,Follow Yaw,0,-1.2,151.7,151.7,False,False,False,False,False,False,,False,Normal,,,1024,1024,1149,1024,1,False,False,False,False,False,0,False,False,False,False,90,,,,24.977,False,4.198,4.202,4.202,4.207,4.202,4.212,0.014,False,False,4.204,4.205,4.202,4.206,4.202,4.185,0.021,False,False,,,,,0,0,0,0,0,0.0,1106.13,,Idle,0,20,False,10,True,Go Home,39.96116072,-106.21647573,0.0,8231.7,393.7,True,1,1,False,False,False,False,0,False,False,False,Course Lock,98.4,265.4,23.0,Calm,19,, 4.5.0,DF059,095XF1800201C0,,0JFJ4006F4,0KPAF1T231018F,126.1,163.8,8.9,5.2,1.3,0,0,DF059,095XF1800201C0,,0JFJ4006F4,0KPAF1T231018F,,, 4.5.0,,,,,,
6/21/2018,10:48:54.29 PM,0m 29.2s,29.2,39.96115994,-106.21647526,0.3,0.3,0.7,8128,0,1.1,-0.9,0,0.5,0.5,-0.7,0,-0.9,0,151.8,151.8,P-GPS,Other,,16,5,True,,Matrice 210,True,False,,Smart,RC,False,True,False,,,True,,False,False,False,False,False,False,False,False,False,False,0,Follow Yaw,0,-1.2,151.6,151.6,False,False,False,False,False,False,,False,Normal,,,1024,1024,1101,1024,1,False,False,False,False,False,0,False,False,False,False,90,,,,24.977,False,4.198,4.202,4.202,4.207,4.202,4.212,0.014,False,False,4.144,4.154,4.149,4.15,4.152,4.134,0.021,False,False,,,,,0,0,0,0,0,0.0,1106.13,,Idle,0,20,False,10,True,Go Home,39.96116072,-106.21647573,0.0,8231.7,393.7,True,1,1,False,False,False,False,0,False,False,False,Course Lock,98.4,265.4,23.0,Calm,19,, 4.5.0,DF059,095XF1800201C0,,0JFJ4006F4,0KPAF1T231018F,126.1,163.8,8.9,5.2,1.3,0,0,DF059,095XF1800201C0,,0JFJ4006F4,0KPAF1T231018F,,, 4.5.0,,,,,,
6/21/2018,10:48:54.39 PM,0m 29.3s,29.3,39.96115946,-106.21647495,0.3,0.3,0.7,8128,0,1.1,-0.9,0,0.2,0.5,-0.5,0,0.6,-0.1,151.8,151.8,P-GPS,Other,,16,5,True,,Matrice 210,True,False,,Smart,RC,False,True,False,,,True,,False,False,False,False,False,False,False,False,False,False,0,Follow Yaw,0,-1.3,151.5,151.5,False,False,False,False,False,False,,False,Normal,,,1024,1024,1024,1024,1,False,False,False,False,False,0,False,False,False,False,90,,,,24.977,False,4.198,4.202,4.202,4.207,4.202,4.212,0.014,False,False,4.144,4.154,4.149,4.15,4.152,4.134,0.021,False,False,,,,,0,0,0,0,0,0.0,1106.13,,Idle,0,20,False,10,True,Go Home,39.96116072,-106.21647573,0.4,8231.7,393.7,True,1,1,False,False,False,False,0,False,False,False,Course Lock,98.4,265.4,23.0,Calm,19,, 4.5.0,DF059,095XF1800201C0,,0JFJ4006F4,0KPAF1T231018F,126.1,163.8,8.9,5.2,1.3,0,0,DF059,095XF1800201C0,,0JFJ4006F4,0KPAF1T231018F,,, 4.5.0,,,,,,
6/21/2018,10:48:54.49 PM,0m 29.4s,29.4,39.96115913,-106.21647478,0.3,0.3,1.0,8128,0,1.1,-0.7,0,0.2,0.5,-0.5,0,1,-0.3,151.6,151.6,P-GPS,Other,,17,5,True,,Matrice 210,True,False,,Smart,RC,False,True,False,,,True,,False,False,False,False,False,False,False,False,False,False,0,Follow Yaw,0,-1.3,151.3,151.3,False,False,False,False,False,False,,False,Normal,,,1024,948,1024,1024,1,False,False,False,False,False,0,False,False,False,False,90,,,,24.977,False,4.198,4.202,4.202,4.207,4.202,4.212,0.014,False,False,4.144,4.154,4.149,4.15,4.152,4.134,0.021,False,False,,,,,0,0,0,0,0,0.0,1106.13,,Idle,0,20,False,10,True,Go Home,39.96116072,-106.21647573,0.6,8231.7,393.7,True,1,1,False,False,False,False,0,False,False,False,Course Lock,98.4,265.4,23.0,Calm,19,, 4.5.0,DF059,095XF1800201C0,,0JFJ4006F4,0KPAF1T231018F,126.1,163.8,8.9,5.2,1.3,0,0,DF059,095XF1800201C0,,0JFJ4006F4,0KPAF1T231018F,,, 4.5.0,,,,,,
6/21/2018,10:48:54.60 PM,0m 29.5s,29.5,39.96115881,-106.21647464,0.7,0.7,1.0,8128,0,1.1,-0.2,0,0,0.5,-0.2,0,0.8,0,151.5,151.5,P-GPS,Other,,17,5,True,,Matrice 210,True,False,,Smart,RC,False,True,False,,,True,,False,False,False,False,False,False,False,False,False,False,0,Follow Yaw,0,-1.2,151.1,151.1,False,False,False,False,False,False,,False,Normal,,,1024,843,1024,1024,1,False,False,False,False,False,0,False,False,False,False,90,,,,24.977,False,4.198,4.202,4.202,4.207,4.202,4.212,0.014,False,False,4.144,4.154,4.149,4.15,4.152,4.134,0.021,False,False,,,,,0,0,0,0,0,0.0,1106.13,,Idle,0,20,False,10,True,Go Home,39.96116072,-106.21647573,0.8,8231.7,393.7,True,1,1,False,False,False,False,0,False,False,False,Course Lock,98.4,265.4,23.0,Calm,19,, 4.5.0,DF059,095XF1800201C0,,0JFJ4006F4,0KPAF1T231018F,126.1,163.8,8.9,5.2,1.3,0,0,DF059,095XF1800201C0,,0JFJ4006F4,0KPAF1T231018F,,, 4.5.0,,,,,,
6/21/2018,10:48:54.70 PM,0m 29.6s,29.6,39.96115864,-106.2164746,0.7,0.7,1.0,8128,0,1.1,0,0,0,0.5,0,0,0.8,0.3,151.4,151.4,P-GPS,Other,,17,5,True,,Matrice 210,True,False,,Smart,RC,False,True,False,,,True,,False,False,False,False,False,False,False,False,False,False,0,Follow Yaw,0.1,-1.2,151,151,False,False,False,False,False,False,,False,Normal,,,1024,819,1024,1024,1,False,False,False,False,False,0,False,False,False,False,90,,,,24.977,False,4.198,4.202,4.202,4.207,4.202,4.212,0.014,False,False,4.144,4.154,4.149,4.15,4.152,4.134,0.021,False,False,,,,,0,0,0,0,0,0.0,1106.13,,Idle,0,20,False,10,True,Go Home,39.96116072,-106.21647573,0.9,8231.7,393.7,True,1,1,False,False,False,False,0,False,False,False,Course Lock,98.4,265.4,23.0,Calm,19,, 4.5.0,DF059,095XF1800201C0,,0JFJ4006F4,0KPAF1T231018F,126.1,163.8,8.9,5.2,1.3,0,0,DF059,095XF1800201C0,,0JFJ4006F4,0KPAF1T231018F,,, 4.5.0,,,,,,
6/21/2018,10:48:54.80 PM,0m 29.7s,29.7,39.96115849,-106.2164747,0.3,0.7,1.0,8128,0,1.1,0,0,-0.2,0.5,0,0,1.7,0,151.4,151.4,P-GPS,Other,,17,5,True,,Matrice 210,True,False,,Smart,RC,False,True,False,,,True,,False,False,False,False,False,False,False,False,False,False,0,Follow Yaw,0,-1.4,151.1,151.1,False,False,False,False,False,False,,False,Normal,,,1024,809,1024,1024,1,False,False,False,False,False,0,False,False,False,False,90,,,,24.977,False,4.198,4.202,4.202,4.207,4.202,4.212,0.014,False,False,4.144,4.154,4.149,4.15,4.152,4.134,0.021,False,False,,,,,0,0,0,0,0,0.0,1106.13,,Idle,0,20,False,10,True,Go Home,39.96116072,-106.21647573,0.9,8231.7,393.7,True,1,1,False,False,False,False,0,False,False,False,Course Lock,98.4,265.4,23.0,Calm,19,, 4.5.0,DF059,095XF1800201C0,,0JFJ4006F4,0KPAF1T231018F,126.1,163.8,8.9,5.2,1.3,0,0,DF059,095XF1800201C0,,0JFJ4006F4,0KPAF1T231018F,,, 4.5.0,,,,,,
6/21/2018,10:48:54.90 PM,0m 29.8s,29.8,39.96115857,-106.21647489,0.3,0.7,1.0,8128,0,1.1,0.2,0.2,-0.2,0.5,0,0,3,-0.4,151.6,151.6,P-GPS,Other,,17,5,True,,Matrice 210,True,False,,Smart,RC,False,True,False,,,True,,False,False,False,False,False,False,False,False,False,False,0,Follow Yaw,0,-1.2,151.1,151.1,False,False,False,False,False,False,,False,Normal,,,1024,834,1024,1024,1,False,False,False,False,False,0,False,False,False,False,90,,,,25.049,False,4.166,4.174,4.174,4.179,4.172,4.184,0.018,False,False,4.144,4.154,4.149,4.15,4.152,4.134,0.021,False,False,,,,,0,0,0,0,0,0.0,1106.13,,Idle,0,20,False,10,True,Go Home,39.96116072,-106.21647573,0.9,8231.7,393.7,True,1,1,False,False,False,False,0,False,False,False,Course Lock,98.4,265.4,23.0,Calm,19,, 4.5.0,DF059,095XF1800201C0,,0JFJ4006F4,0KPAF1T231018F,126.1,163.8,8.9,5.2,1.3,0,0,DF059,095XF1800201C0,,0JFJ4006F4,0KPAF1T231018F,,, 4.5.0,,,,,,
6/21/2018,10:48:55.00 PM,0m 29.9s,29.9,39.96115881,-106.21647524,0.3,0.7,1.0,8128,0,1.1,0.7,0.7,-0.5,0.5,0,0,3.9,-0.8,151.7,151.7,P-GPS,Other,,17,5,True,,Matrice 210,True,False,,Smart,RC,False,True,False,,,True,,False,False,False,False,False,False,False,False,False,False,0,Follow Yaw,-0.1,-1.2,151.1,151.1,False,False,False,False,False,False,,False,Normal,,,1024,871,1024,1024,1,False,False,False,False,False,0,False,False,False,False,90,,,,25.049,False,4.166,4.174,4.174,4.179,4.172,4.184,0.018,False,False,4.144,4.154,4.149,4.15,4.152,4.134,0.021,False,False,,,,,0,0,0,0,0,0.0,1106.13,,Idle,0,20,False,10,True,Go Home,39.96116072,-106.21647573,0.8,8231.7,393.7,True,1,1,False,False,False,False,0,False,False,False,Course Lock,98.4,265.4,23.0,Calm,19,, 4.5.0,DF059,095XF1800201C0,,0JFJ4006F4,0KPAF1T231018F,126.1,163.8,8.9,5.2,1.3,0,0,DF059,095XF1800201C0,,0JFJ4006F4,0KPAF1T231018F,,, 4.5.0,,,,,,
6/21/2018,10:48:55.10 PM,0m 30.0s,30.0,39.96115914,-106.2164756,0.3,0.7,1.0,8128,1.1,1.1,0.7,0.7,-0.5,0.5,0,0,4.8,-0.7,151.9,151.9,P-GPS,Other,,17,5,True,,Matrice 210,True,False,,Smart,RC,False,True,False,,,True,,False,False,False,False,False,False,False,False,False,False,0,Follow Yaw,0,-1.2,151,151,False,False,False,False,False,False,,False,Normal,,,1024,900,1024,1024,1,False,False,False,False,False,0,False,False,False,False,90,,,,25.144,False,4.166,4.174,4.174,4.179,4.172,4.184,0.018,False,False,4.144,4.154,4.149,4.15,4.152,4.134,0.021,False,False,,,,,0,0,0,0,0,0.0,1310.34,,Idle,0,20,False,10,True,Go Home,39.96116072,-106.21647573,0.6,8231.7,393.7,True,1,1,False,False,False,False,0,False,False,False,Course Lock,98.4,265.4,23.0,Calm,19,, 4.5.0,DF059,095XF1800201C0,,0JFJ4006F4,0KPAF1T231018F,126.1,163.8,8.9,5.2,1.3,0,0,DF059,095XF1800201C0,,0JFJ4006F4,0KPAF1T231018F,,, 4.5.0,,,,,,
6/21/2018,10:48:55.20 PM,0m 30.1s,30.1,39.96115998,-106.21647607,0.3,0.7,1.0,8128,1.5,1.5,0.9,0.9,-0.2,0.5,0,0,5.1,0,152.1,152.1,P-GPS,Other,,17,5,True,,Matrice 210,True,False,,Smart,RC,False,True,False,,,True,,False,False,False,False,False,False,False,False,False,False,0,Follow Yaw,0.1,-1.1,150.7,150.7,False,False,False,False,False,False,,False,Normal,,,1024,986,1024,1024,1,False,False,False,False,False,0,False,False,False,False,90,,,,25.144,False,4.166,4.174,4.174,4.179,4.172,4.184,0.018,False,False,4.144,4.154,4.149,4.15,4.152,4.134,0.021,False,False,,,,,0,0,0,0,0,0.0,1310.34,,Idle,0,20,False,10,True,Go Home,39.96116072,-106.21647573,0.0,8231.7,393.7,True,1,1,False,False,False,False,0,False,False,False,Course Lock,98.4,265.4,23.0,Calm,19,, 4.5.0,DF059,095XF1800201C0,,0JFJ4006F4,0KPAF1T231018F,126.1,163.8,8.9,5.2,1.3,0,0,DF059,095XF1800201C0,,0JFJ4006F4,0KPAF1T231018F,,, 4.5.0,,,,,,
6/21/2018,10:48:55.31 PM,0m 30.2s,30.2,39.96116048,-106.21647634,0.3,0.7,1.0,8128,1.8,1.8,1.1,1.1,-0.2,0.5,0,0,4.7,0.1,152.3,152.3,P-GPS,Other,,17,5,True,,Matrice 210,True,False,,Smart,RC,False,True,False,,,True,,False,False,False,False,False,False,False,False,False,False,0,Follow Yaw,0,-1.2,150.5,150.5,False,False,False,False,False,False,,False,Normal,,,1024,1024,1024,1024,1,False,False,False,False,False,0,False,False,False,False,90,,,,25.144,False,4.166,4.174,4.174,4.179,4.172,4.184,0.018,False,False,4.124,4.135,4.13,4.131,4.134,4.119,0.021,False,False,,,,,0,0,0,0,0,0.0,1310.34,,Idle,0,20,False,10,True,Go Home,39.96116072,-106.21647573,0.4,8231.7,393.7,True,1,1,False,False,False,False,0,False,False,False,Course Lock,98.4,265.4,23.0,Calm,19,, 4.5.0,DF059,095XF1800201C0,,0JFJ4006F4,0KPAF1T231018F,126.1,163.8,8.9,5.2,1.3,0,0,DF059,095XF1800201C0,,0JFJ4006F4,0KPAF1T231018F,,, 4.5.0,,,,,,
6/21/2018,10:48:55.41 PM,0m 30.3s,30.3,39.96116109,-106.21647656,0.7,0.7,1.0,8128,1.1,1.8,1.1,1.1,-0.2,0.5,0,0,3.8,-0.1,152.4,152.4,P-GPS,Other,,17,5,True,,Matrice 210,True,False,,Smart,RC,False,True,False,,,True,,False,False,False,False,False,False,False,False,False,False,0,Follow Yaw,0,-1.3,150.1,150.1,False,False,False,False,False,False,,False,Normal,,,1024,1024,1024,1024,1,False,False,False,False,False,0,False,False,False,False,90,,,,25.144,False,4.166,4.174,4.174,4.179,4.172,4.184,0.018,False,False,4.124,4.135,4.13,4.131,4.134,4.119,0.021,False,False,,,,,0,0,0,0,0,0.0,1310.34,,Idle,0,20,False,10,True,Go Home,39.96116072,-106.21647573,0.0,8231.7,393.7,True,1,1,False,False,False,False,0,False,False,False,Course Lock,98.4,265.4,23.0,Calm,19,, 4.5.0,DF059,095XF1800201C0,,0JFJ4006F4,0KPAF1T231018F,126.1,163.8,8.9,5.2,1.3,0,0,DF059,095XF1800201C0,,0JFJ4006F4,0KPAF1T231018F,,, 4.5.0,,,,,,
6/21/2018,10:48:55.51 PM,0m 30.4s,30.4,39.96116168,-106.21647675,0.3,0.7,1.0,8128,1.5,1.8,1.3,1.3,-0.2,0.5,0,0,2,0,152.4,152.4,P-GPS,Other,,17,5,True,,Matrice 210,True,False,,Smart,RC,False,True,False,,,True,,False,False,False,False,False,False,False,False,False,False,0,Follow Yaw,0,-1.2,149.7,149.7,False,False,False,False,False,False,,False,Normal,,,1024,1024,1024,1024,1,False,False,False,False,False,0,False,False,False,False,90,,,,25.144,False,4.166,4.174,4.174,4.179,4.172,4.184,0.018,False,False,4.124,4.135,4.13,4.131,4.134,4.119,0.021,False,False,,,,,0,0,0,0,0,0.0,1310.34,,Idle,0,20,False,10,True,Go Home,39.96116072,-106.21647573,0.4,8231.7,393.7,True,1,1,False,False,False,False,0,False,False,False,Course Lock,98.4,265.4,23.0,Calm,19,, 4.5.0,DF059,095XF1800201C0,,0JFJ4006F4,0KPAF1T231018F,126.1,163.8,8.9,5.2,1.3,0,0,DF059,095XF1800201C0,,0JFJ4006F4,0KPAF1T231018F,,, 4.5.0,,,,,,
6/21/2018,10:48:55.61 PM,0m 30.5s,30.5,39.96116246,-106.21647652,0.7,0.7,1.0,8128,1.8,1.8,1.1,1.3,-0.2,0.5,0,0,0.5,0.2,152.4,152.4,P-GPS,Other,,17,5,True,,Matrice 210,True,False,,Smart,RC,False,True,False,,,True,,False,False,False,False,False,False,False,False,False,False,0,Follow Yaw,0,-1.2,149.4,149.4,False,False,False,False,False,False,,False,Normal,,,1024,1024,1024,1024,1,False,False,False,False,False,0,False,False,False,False,90,,,,25.144,False,4.166,4.174,4.174,4.179,4.172,4.184,0.018,False,False,4.124,4.135,4.13,4.131,4.134,4.119,0.021,False,False,,,,,0,0,0,0,0,0.0,1310.34,,Idle,0,20,False,10,True,Go Home,39.96116072,-106.21647573,0.8,8231.7,393.7,True,1,1,False,False,False,False,0,False,False,False,Course Lock,98.4,265.4,23.0,Calm,19,, 4.5.0,DF059,095XF1800201C0,,0JFJ4006F4,0KPAF1T231018F,126.1,163.8,8.9,5.2,1.3,0,0,DF059,095XF1800201C0,,0JFJ4006F4,0KPAF1T231018F,,, 4.5.0,,,,,,
6/21/2018,10:48:55.71 PM,0m 30.6s,30.6,39.96116296,-106.2164766,0.7,0.7,1.0,8128,1.5,1.8,1.1,1.3,-0.2,0.5,0,0,-0.7,0.1,152.3,152.3,P-GPS,Other,,17,5,True,,Matrice 210,True,False,,Smart,RC,False,True,False,,,True,,False,False,False,False,False,False,False,False,False,False,0,Follow Yaw,0.1,-1.1,149.1,149.1,False,False,False,False,False,False,,False,Normal,,,1024,1024,1024,1024,1,False,False,False,False,False,0,False,False,False,False,90,,,,25.144,False,4.166,4.174,4.174,4.179,4.172,4.184,0.018,False,False,4.124,4.135,4.13,4.131,4.134,4.119,0.021,False,False,,,,,0,0,0,0,0,0.0,1310.34,,Idle,0,20,False,10,True,Go Home,39.96116072,-106.21647573,0.9,8231.7,393.7,True,1,1,False,False,False,False,0,False,False,False,Course Lock,98.4,265.4,23.0,Calm,19,, 4.5.0,DF059,095XF1800201C0,,0JFJ4006F4,0KPAF1T231018F,126.1,163.8,8.9,5.2,1.3,0,0,DF059,095XF1800201C0,,0JFJ4006F4,0KPAF1T231018F,,, 4.5.0,,,,,,
6/21/2018,10:48:55.81 PM,0m 30.7s,30.7,39.9611634,-106.21647665,0.7,0.7,1.0,8128,1.5,1.8,0.9,1.3,0,0.5,0,0,-1.6,0.9,152.3,152.3,P-GPS,Other,,17,5,True,,Matrice 210,True,False,,Smart,RC,False,True,False,,,True,,False,False,False,False,False,False,False,False,False,False,0,Follow Yaw,0.1,-0.9,148.9,148.9,False,False,False,False,False,False,,False,Normal,,,1024,1024,1024,1024,1,False,False,False,False,False,0,False,False,False,False,90,,,,25.144,False,4.166,4.174,4.174,4.179,4.172,4.184,0.018,False,False,4.124,4.135,4.13,4.131,4.134,4.119,0.021,False,False,,,,,0,0,0,0,0,0.0,1310.34,,Idle,0,20,False,10,True,Go Home,39.96116072,-106.21647573,1.0,8231.7,393.7,True,1,1,False,False,False,False,0,False,False,False,Course Lock,98.4,265.4,23.0,Calm,19,, 4.5.0,DF059,095XF1800201C0,,0JFJ4006F4,0KPAF1T231018F,126.1,163.8,8.9,5.2,1.3,0,0,DF059,095XF1800201C0,,0JFJ4006F4,0KPAF1T231018F,,, 4.5.0,,,,,,
6/21/2018,10:48:55.91 PM,0m 30.8s,30.8,39.96116377,-106.21647666,0.7,0.7,1.0,8128,1.1,1.8,0.7,1.3,0,0.5,0,0,-1.9,0.9,152.3,152.3,P-GPS,Other,,17,5,True,,Matrice 210,True,False,,Smart,RC,False,True,False,,,True,,False,False,False,False,False,False,False,False,False,False,0,Follow Yaw,0,-1,148.8,148.8,False,False,False,False,False,False,,False,Normal,,,1024,1024,1024,1024,1,False,False,False,False,False,0,False,False,False,False,90,,,,24.834,False,4.126,4.14,4.137,4.142,4.139,4.15,0.024,False,False,4.124,4.135,4.13,4.131,4.134,4.119,0.021,False,False,,,,,0,0,0,0,0,0.0,1310.34,,Idle,0,20,False,10,True,Go Home,39.96116072,-106.21647573,1.2,8231.7,393.7,True,1,1,False,False,False,False,0,False,False,False,Course Lock,98.4,265.4,23.0,Calm,19,, 4.5.0,DF059,095XF1800201C0,,0JFJ4006F4,0KPAF1T231018F,126.1,163.8,8.9,5.2,1.3,0,0,DF059,095XF1800201C0,,0JFJ4006F4,0KPAF1T231018F,,, 4.5.0,,,,,,
6/21/2018,10:48:56.02 PM,0m 30.9s,30.9,39.9611641,-106.21647667,0.7,0.7,1.0,8128,1.1,1.8,0.7,1.3,0,0.5,0,0,-2.1,0.4,152.3,152.3,P-GPS,Other,,17,5,True,,Matrice 210,True,False,,Smart,RC,False,True,False,,,True,,False,False,False,False,False,False,False,False,False,False,0,Follow Yaw,0,-1,148.6,148.6,False,False,False,False,False,False,,False,Normal,,,1024,1024,1066,1024,1,False,False,False,False,False,0,False,False,False,False,90,,,,24.834,False,4.126,4.14,4.137,4.142,4.139,4.15,0.024,False,False,4.124,4.135,4.13,4.131,4.134,4.119,0.021,False,False,,,,,0,0,0,0,0,0.0,1310.34,,Idle,0,20,False,10,True,Go Home,39.96116072,-106.21647573,1.3,8231.7,393.7,True,1,1,False,False,False,False,0,False,False,False,Course Lock,98.4,265.4,23.0,Calm,19,, 4.5.0,DF059,095XF1800201C0,,0JFJ4006F4,0KPAF1T231018F,126.1,163.8,8.9,5.2,1.3,0,0,DF059,095XF1800201C0,,0JFJ4006F4,0KPAF1T231018F,,, 4.5.0,,,,,,
6/21/2018,10:48:56.12 PM,0m 31.0s,31.0,39.96116416,-106.21647632,0.7,0.7,1.0,8128,0,1.8,0.5,1.3,0,0.5,0,0,-2.3,0.3,152.3,152.3,P-GPS,Other,,17,5,True,,Matrice 210,True,False,,Smart,RC,False,True,False,,,True,,False,False,False,False,False,False,False,False,False,False,0,Follow Yaw,0,-0.9,148.3,148.3,False,False,False,False,False,False,,False,Normal,,,1024,1024,1128,1024,1,False,False,False,False,False,0,False,False,False,False,90,,,,25.209,False,4.126,4.14,4.137,4.142,4.139,4.15,0.024,False,False,4.124,4.135,4.13,4.131,4.134,4.119,0.021,False,False,,,,,0,0,0,0,0,0.0,1748.84,,Idle,0,20,False,10,True,Go Home,39.96116072,-106.21647573,1.2,8231.7,393.7,True,1,1,False,False,False,False,0,False,False,False,Course Lock,98.4,265.4,23.0,Calm,19,, 4.5.0,DF059,095XF1800201C0,,0JFJ4006F4,0KPAF1T231018F,126.1,163.8,8.9,5.2,1.3,0,0,DF059,095XF1800201C0,,0JFJ4006F4,0KPAF1T231018F,,, 4.5.0,,,,,,
6/21/2018,10:48:56.22 PM,0m 31.1s,31.1,39.96116436,-106.21647626,0.7,0.7,1.0,8128,0,1.8,0.2,1.3,0,0.5,0,0,-2.2,0.6,152.3,152.3,P-GPS,Other,,17,5,True,,Matrice 210,True,False,,Smart,RC,False,True,False,,,True,,False,False,False,False,False,False,False,False,False,False,0,Follow Yaw,-0.1,-0.8,148.2,148.2,False,False,False,False,False,False,,False,Normal,,,1024,1024,1128,1024,1,False,False,False,False,False,0,False,False,False,False,90,,,,25.209,False,4.126,4.14,4.137,4.142,4.139,4.15,0.024,False,False,4.124,4.135,4.13,4.131,4.134,4.119,0.021,False,False,,,,,0,0,0,0,0,0.0,1748.84,,Idle,0,20,False,10,True,Go Home,39.96116072,-106.21647573,1.3,8231.7,393.7,True,1,1,False,False,False,False,0,False,False,False,Course Lock,98.4,265.4,23.0,Calm,19,, 4.5.0,DF059,095XF1800201C0,,0JFJ4006F4,0KPAF1T231018F,126.1,163.8,8.9,5.2,1.3,0,0,DF059,095XF1800201C0,,0JFJ4006F4,0KPAF1T231018F,,, 4.5.0,,,,,,
6/21/2018,10:48:56.32 PM,0m 31.2s,31.2,39.96116449,-106.21647616,0.7,0.7,1.0,8128,0,1.8,0.2,1.3,0,0.5,0,0,-1.9,0.8,152.3,152.3,P-GPS,Other,,17,5,True,,Matrice 210,True,False,,Smart,RC,False,True,False,,,True,,False,False,False,False,False,False,False,False,False,False,0,Follow Yaw,0,-0.8,148.2,148.2,False,False,False,False,False,False,,False,Normal,,,1024,1024,1091,1024,1,False,False,False,False,False,0,False,False,False,False,90,,,,25.209,False,4.126,4.14,4.137,4.142,4.139,4.15,0.024,False,False,4.122,4.134,4.127,4.128,4.132,4.115,0.021,False,False,,,,,0,0,0,0,0,0.0,1748.84,,Idle,0,20,False,10,True,Go Home,39.96116072,-106.21647573,1.4,8231.7,393.7,True,1,1,False,False,False,False,0,False,False,False,Course Lock,98.4,265.4,23.0,Calm,19,, 4.5.0,DF059,095XF1800201C0,,0JFJ4006F4,0KPAF1T231018F,126.1,163.8,8.9,5.2,1.3,0,0,DF059,095XF1800201C0,,0JFJ4006F4,0KPAF1T231018F,,, 4.5.0,,,,,,
6/21/2018,10:48:56.42 PM,0m 31.3s,31.3,39.96116455,-106.21647601,0.7,0.7,1.0,8128,0,1.8,0,1.3,0,0.5,0,0,-1.3,1,152.3,152.3,P-GPS,Other,,17,5,True,,Matrice 210,True,False,,Smart,RC,False,True,False,,,True,,False,False,False,False,False,False,False,False,False,False,0,Follow Yaw,0,-0.9,148.2,148.2,False,False,False,False,False,False,,False,Normal,,,1024,1024,1091,1024,1,False,False,False,False,False,0,False,False,False,False,90,,,,25.209,False,4.126,4.14,4.137,4.142,4.139,4.15,0.024,False,False,4.122,4.134,4.127,4.128,4.132,4.115,0.021,False,False,,,,,0,0,0,0,0,0.0,1748.84,,Idle,0,20,False,10,True,Go Home,39.96116072,-106.21647573,1.4,8231.7,393.7,True,1,1,False,False,False,False,0,False,False,False,Course Lock,98.4,265.4,23.0,Calm,19,, 4.5.0,DF059,095XF1800201C0,,0JFJ4006F4,0KPAF1T231018F,126.1,163.8,8.9,5.2,1.3,0,0,DF059,095XF1800201C0,,0JFJ4006F4,0KPAF1T231018F,,, 4.5.0,,,,,,
6/21/2018,10:48:56.52 PM,0m 31.4s,31.4,39.96116444,-106.21647571,0.7,0.7,0.7,8128,0,1.8,0,1.3,0.2,0.5,0,0,-0.9,1.5,152.4,152.4,P-GPS,Other,,17,5,True,,Matrice 210,True,False,,Smart,RC,False,True,False,,,True,,False,False,False,False,False,False,False,False,False,False,0,Follow Yaw,0,-0.6,148.3,148.3,False,False,False,False,False,False,,False,Normal,,,1024,1024,1071,1024,1,False,False,False,False,False,0,False,False,False,False,90,,,,25.209,False,4.126,4.14,4.137,4.142,4.139,4.15,0.024,False,False,4.122,4.134,4.127,4.128,4.132,4.115,0.021,False,False,,,,,0,0,0,0,0,0.0,1748.84,,Idle,0,20,False,10,True,Go Home,39.96116072,-106.21647573,1.4,8231.7,393.7,True,1,1,False,False,False,False,0,False,False,False,Course Lock,98.4,265.4,23.0,Calm,19,, 4.5.0,DF059,095XF1800201C0,,0JFJ4006F4,0KPAF1T231018F,126.1,163.8,8.9,5.2,1.3,0,0,DF059,095XF1800201C0,,0JFJ4006F4,0KPAF1T231018F,,, 4.5.0,,,,,,
6/21/2018,10:48:56.62 PM,0m 31.5s,31.5,39.96116444,-106.21647552,0.7,0.7,1.0,8128,0,1.8,0,1.3,0.2,0.5,0,0,0.3,1.6,152.4,152.4,P-GPS,Other,,17,5,True,,Matrice 210,True,False,,Smart,RC,False,True,False,,,True,,False,False,False,False,False,False,False,False,False,False,0,Follow Yaw,-0.1,-0.7,148.2,148.2,False,False,False,False,False,False,,False,Normal,,,1024,1024,1044,1024,1,False,False,False,False,False,0,False,False,False,False,90,,,,25.209,False,4.126,4.14,4.137,4.142,4.139,4.15,0.024,False,False,4.122,4.134,4.127,4.128,4.132,4.115,0.021,False,False,,,,,0,0,0,0,0,0.0,1748.84,,Idle,0,20,False,10,True,Go Home,39.96116072,-106.21647573,1.4,8231.7,393.7,True,1,1,False,False,False,False,0,False,False,False,Course Lock,98.4,265.4,23.0,Calm,19,, 4.5.0,DF059,095XF1800201C0,,0JFJ4006F4,0KPAF1T231018F,126.1,163.8,8.9,5.2,1.3,0,0,DF059,095XF1800201C0,,0JFJ4006F4,0KPAF1T231018F,,, 4.5.0,,,,,,
6/21/2018,10:48:56.72 PM,0m 31.6s,31.6,39.9611644,-106.21647536,0.7,0.7,0.7,8128,0,1.8,0,1.3,0,0.5,0,0,0.8,0.9,152.5,152.5,P-GPS,Other,,17,5,True,,Matrice 210,True,False,,Smart,RC,False,True,False,,,True,,False,False,False,False,False,False,False,False,False,False,0,Follow Yaw,0,-0.6,148.2,148.2,False,False,False,False,False,False,,False,Normal,,,1024,1024,1038,1024,1,False,False,False,False,False,0,False,False,False,False,90,,,,25.209,False,4.126,4.14,4.137,4.142,4.139,4.15,0.024,False,False,4.122,4.134,4.127,4.128,4.132,4.115,0.021,False,False,,,,,0,0,0,0,0,0.0,1748.84,,Idle,0,20,False,10,True,Go Home,39.96116072,-106.21647573,1.3,8231.7,393.7,True,1,1,False,False,False,False,0,False,False,False,Course Lock,98.4,265.4,23.0,Calm,19,, 4.5.0,DF059,095XF1800201C0,,0JFJ4006F4,0KPAF1T231018F,126.1,163.8,8.9,5.2,1.3,0,0,DF059,095XF1800201C0,,0JFJ4006F4,0KPAF1T231018F,,, 4.5.0,,,,,,
6/21/2018,10:48:56.83 PM,0m 31.7s,31.7,39.9611643,-106.21647523,0.7,0.7,0.7,8128,0,1.8,-0.2,1.3,0,0.5,0,0,1.4,0,152.5,152.5,P-GPS,Other,,17,5,True,,Matrice 210,True,False,,Smart,RC,False,True,False,,,True,,False,False,False,False,False,False,False,False,False,False,0,Follow Yaw,-0.1,-0.6,148.3,148.3,False,False,False,False,False,False,,False,Normal,,,1024,1024,1042,1024,1,False,False,False,False,False,0,False,False,False,False,90,,,,25.209,False,4.126,4.14,4.137,4.142,4.139,4.15,0.024,False,False,4.122,4.134,4.127,4.128,4.132,4.115,0.021,False,False,,,,,0,0,0,0,0,0.0,1748.84,,Idle,0,20,False,10,True,Go Home,39.96116072,-106.21647573,1.3,8231.7,393.7,True,1,1,False,False,False,False,0,False,False,False,Course Lock,98.4,265.4,23.0,Calm,19,, 4.5.0,DF059,095XF1800201C0,,0JFJ4006F4,0KPAF1T231018F,126.1,163.8,8.9,5.2,1.3,0,0,DF059,095XF1800201C0,,0JFJ4006F4,0KPAF1T231018F,,, 4.5.0,,,,,,
6/21/2018,10:48:56.93 PM,0m 31.8s,31.8,39.96116413,-106.21647525,0.7,0.7,0.7,8128,0,1.8,-0.2,1.3,0,0.5,0,0,1.9,0,152.4,152.4,P-GPS,Other,,17,5,True,,Matrice 210,True,False,,Smart,RC,False,True,False,,,True,,False,False,False,False,False,False,False,False,False,False,0,Follow Yaw,-0.2,-0.6,148.3,148.3,False,False,False,False,False,False,,False,Normal,,,1024,1024,1044,1024,1,False,False,False,False,False,0,False,False,False,False,90,,,,24.791,False,4.121,4.134,4.13,4.134,4.13,4.142,0.024,False,False,4.122,4.134,4.127,4.128,4.132,4.115,0.021,False,False,,,,,0,0,0,0,0,0.0,1748.84,,Idle,0,20,False,10,True,Go Home,39.96116072,-106.21647573,1.2,8231.7,393.7,True,1,1,False,False,False,False,0,False,False,False,Course Lock,98.4,265.4,23.0,Calm,19,, 4.5.0,DF059,095XF1800201C0,,0JFJ4006F4,0KPAF1T231018F,126.1,163.8,8.9,5.2,1.3,0,0,DF059,095XF1800201C0,,0JFJ4006F4,0KPAF1T231018F,,, 4.5.0,,,,,,
6/21/2018,10:48:57.03 PM,0m 31.9s,31.9,39.96116399,-106.21647513,0.7,0.7,1.0,8128,0,1.8,-0.2,1.3,0.2,0.5,0,0,2.6,0.5,152.4,152.4,P-GPS,Other,,17,5,True,,Matrice 210,True,False,,Smart,RC,False,True,False,,,True,,False,False,False,False,False,False,False,False,False,False,0,Follow Yaw,0.1,-0.9,148.1,148.1,False,False,False,False,False,False,,False,Normal,,,1024,1024,1068,1024,1,False,False,False,False,False,0,False,False,False,False,90,,,,24.791,False,4.121,4.134,4.13,4.134,4.13,4.142,0.024,False,False,4.122,4.134,4.127,4.128,4.132,4.115,0.021,False,False,,,,,0,0,0,0,0,0.0,1748.84,,Idle,0,20,False,10,True,Go Home,39.96116072,-106.21647573,1.2,8231.7,393.7,True,1,1,False,False,False,False,0,False,False,False,Course Lock,98.4,265.4,23.0,Calm,19,, 4.5.0,DF059,095XF1800201C0,,0JFJ4006F4,0KPAF1T231018F,126.1,163.8,8.9,5.2,1.3,0,0,DF059,095XF1800201C0,,0JFJ4006F4,0KPAF1T231018F,,, 4.5.0,,,,,,
6/21/2018,10:48:57.13 PM,0m 32.0s,32.0,39.96116386,-106.21647502,0.7,0.7,0.7,8128,0,1.8,0,1.3,0,0.5,0,0,3.1,1.5,152.5,152.5,P-GPS,Other,,17,5,True,,Matrice 210,True,False,,Smart,RC,False,True,False,,,True,,False,False,False,False,False,False,False,False,False,False,0,Follow Yaw,0,-0.6,148.3,148.3,False,False,False,False,False,False,,False,Normal,,,1024,1024,1068,1024,1,False,False,False,False,False,0,False,False,False,False,90,,,,25.211,False,4.121,4.134,4.13,4.134,4.13,4.142,0.024,False,False,4.122,4.134,4.127,4.128,4.132,4.115,0.021,False,False,,,,,0,0,0,0,0,0.0,2663.96,,Idle,0,20,False,10,True,Go Home,39.96116072,-106.21647573,1.2,8231.7,393.7,True,1,1,False,False,False,False,0,False,False,False,Course Lock,98.4,265.4,23.0,Calm,19,, 4.5.0,DF059,095XF1800201C0,,0JFJ4006F4,0KPAF1T231018F,126.1,163.8,8.9,5.2,1.3,0,0,DF059,095XF1800201C0,,0JFJ4006F4,0KPAF1T231018F,,, 4.5.0,,,,,,
