sep=,
CUSTOM.date [local], CUSTOM.updateTime [local], OSD.flyTime, OSD.flyTime [s], OSD.latitude, OSD.longitude, OSD.height [ft], OSD.heightMax [ft], OSD.vpsHeight [ft], OSD.altitude [ft], OSD.hSpeed [MPH], OSD.hSpeedMax [MPH], OSD.xSpeed [MPH], OSD.xSpeedMax [MPH], OSD.ySpeed [MPH], OSD.ySpeedMax [MPH], OSD.zSpeed [MPH], OSD.zSpeedMax [MPH], OSD.pitch, OSD.roll, OSD.yaw, OSD.yaw [360], OSD.flycState, OSD.flycCommand, OSD.flightAction, OSD.gpsNum, OSD.gpsLevel, OSD.isGPSUsed, OSD.nonGPSCause, OSD.droneType, OSD.isSwaveWork, OSD.waveError, OSD.goHomeStatus, OSD.batteryType, OSD.ctrlDevice, OSD.isOnGround, OSD.isMotorOn, OSD.isMotorBlocked, OSD.motorStartFailedCause, OSD.motorFailReason, OSD.isImuPreheated, OSD.imuInitFailReason, OSD.isAcceletorOverRange, OSD.isBarometerDeadInAir, OSD.isCompassError, OSD.isGoHomeHeightModified, OSD.canIOCWork, OSD.isNotEnoughForce, OSD.isOutOfLimit, OSD.isPropellerCatapult, OSD.isVibrating, OSD.isVisionUsed, OSD.voltageWarning, GIMBAL.mode, GIMBAL.pitch, GIMBAL.roll, GIMBAL.yaw, GIMBAL.yaw [360], GIMBAL.isPitchAtLimit, GIMBAL.isRollAtLimit, GIMBAL.isYawAtLimit, GIMBAL.isStuck, CAMERA.isPhoto, CAMERA.isVideo, CAMERA.filename, CAMERA.sdCardIsInserted, CAMERA.sdCardState, RC.downlinkSignal, RC.uplinkSignal, RC.aileron, RC.elevator, RC.throttle, RC.rudder, RC.mode, RC.goHomeDepressed, RC.recordDepressed, RC.shutterDepressed, RC.playbackDepressed, RC.wheelDepressed, RC.wheelOffset, RC.custom1Depressed, RC.custom2Depressed, RC.custom3Depressed, RC.custom4Depressed, BATTERY.chargeLevel, BATTERY.currentPV [V], BATTERY.currentCapacity [mAh], BATTERY.fullCapacity [mAh], BATTERY.voltage [V], BATTERY.isCellVoltageEstimated, BATTERY.cellVoltage1 [V], BATTERY.cellVoltage2 [V], BATTERY.cellVoltage3 [V], BATTERY.cellVoltage4 [V], BATTERY.cellVoltage5 [V], BATTERY.cellVoltage6 [V], BATTERY.maxCellVoltageDeviation, BATTERY.isCellVoltageDeviationHigh, BATTERY.isVoltageLow, BATTERY2.cellVoltage1 [V], BATTERY2.cellVoltage2 [V], BATTERY2.cellVoltage3 [V], BATTERY2.cellVoltage4 [V], BATTERY2.cellVoltage5 [V], BATTERY2.cellVoltage6 [V], BATTERY2.maxCellVoltageDeviation, BATTERY2.isCellVoltageDeviationHigh, BATTERY2.isVoltageLow, BATTERY.current [A], BATTERY.temperature [F], BATTERY.minTemperature [F], BATTERY.maxTemperature [F], BATTERY.usefulTime [s], BATTERY.goHomeTime [s], BATTERY.landTime [s], BATTERY.goHomeBattery, BATTERY.landBattery, BATTERY.safeFlyRadius, BATTERY.volumeConsume, BATTERY.status, BATTERY.goHomeStatus, BATTERY.goHomeCountdown, BATTERY.lowWarning, BATTERY.lowWarningGoHome, BATTERY.seriousLowWarning, BATTERY.seriousLowWarningLanding, MC.failSafeAction, HOME.latitude, HOME.longitude, HOME.distance [ft], HOME.height [ft], HOME.heightLimit [ft], HOME.isHomeRecord, HOME.goHomeMode, HOME.aircraftHeadDirection, HOME.isDynamicHomePointEnabled, HOME.isReachedLimitDistance, HOME.isReachedLimitHeight, HOME.isCompassCeleing, HOME.compassCeleStatus, HOME.isMultipleFlightModeEnabled, HOME.isBeginnerMode, HOME.isIOCEnabled, HOME.iocMode, HOME.goHomeHeight [ft], HOME.courseLockAngle, HOME.forceLandingHeight [ft], HOME.wind, HOME.dataRecorderFileIndex, RECOVER.appType, RECOVER.appVersion, RECOVER.aircraftName, RECOVER.aircraftSerial, RECOVER.cameraSerial, RECOVER.rcSerial, RECOVER.batterySerial, DETAILS.totalTime [s], DETAILS.totalDistance [ft], DETAILS.maxHeight [ft], DETAILS.maxHorizontalSpeed [MPH], DETAILS.maxVerticalSpeed [MPH], DETAILS.photoNum, DETAILS.videoTime [s], DETAILS.aircraftName, DETAILS.aircraftSerial, DETAILS.cameraSerial, DETAILS.rcSerial, DETAILS.batterySerial, DETAILS.appName, DETAILS.appType, DETAILS.appVersion, APPGPS.latitude, APPGPS.longitude, APPGPS.accuracy, APP.message, APP.tip, APP.warning
6/21/2018,10:55:24.11 PM,2m 49.6s,169.6,39.96116282,-106.21646404,0,0,0.3,8128,0,0,0,0,0,0,0,0,0.6,-0.5,161.2,161.2,Starting Motors,Other,Takeoff (RC Assisted),16,5,True,,Matrice 210,True,False,,Smart,RC,True,True,False,,,True,,False,False,False,False,False,False,False,False,False,False,0,Free,0,0,0,0,False,False,False,False,False,False,,False,Normal,,,1024,1024,1024,1024,1,False,False,False,False,False,0,False,False,False,False,73,,,,24.262,True,,,,,,,,False,False,,,,,,,0.013,False,False,,,,,0,0,0,15,10,3615.3,1041.49,,Idle,0,20,False,10,True,Go Home,39.96117495,-106.21644859,6.2,8244.6,393.7,True,1,1,False,False,False,False,0,False,False,False,Course Lock,98.4,265.4,23.0,Calm,19,, 4.5.0,DF059,095XF1800201C0,,0JFJ4006F4,0KPAF1T231018F,52.6,82.3,9.2,3.0,2.2,0,0,DF059,095XF1800201C0,,0JFJ4006F4,0KPAF1T231018F,,, 4.5.0,,,,Data Recorder File Index is 19.,,
6/21/2018,10:55:07.16 PM,2m 49.7s,169.7,39.96116283,-106.21646404,0,0,0.3,8128,0,0,0,0,0,0,0,0,0.6,-0.5,161.2,161.2,Starting Motors,Other,Takeoff (RC Assisted),16,5,True,,Matrice 210,True,False,,Smart,RC,True,True,False,,,True,,False,False,False,False,False,False,False,False,False,False,0,Free,0,0,0,0,False,False,False,False,False,False,,False,Normal,,,1024,1024,1024,1024,1,False,False,False,False,False,0,False,False,False,False,73,,,,24.262,True,,,,,,,,False,False,,,,,,,0.013,False,False,,,,,0,0,0,15,10,3615.3,1041.49,,Idle,0,20,False,10,True,Go Home,39.96117495,-106.21644859,6.2,8244.6,393.7,True,1,1,False,False,False,False,0,False,False,False,Course Lock,98.4,265.4,23.0,Calm,19,, 4.5.0,DF059,095XF1800201C0,,0JFJ4006F4,0KPAF1T231018F,52.6,82.3,9.2,3.0,2.2,0,0,DF059,095XF1800201C0,,0JFJ4006F4,0KPAF1T231018F,,, 4.5.0,,,,,,
6/21/2018,10:55:07.36 PM,2m 49.8s,169.8,39.96116284,-106.21646403,0,0,0.3,8128,0,0,0,0,0,0,0,0,0.6,-0.6,161.2,161.2,Starting Motors,Other,Takeoff (RC Assisted),16,5,True,,Matrice 210,True,False,,Smart,RC,True,True,False,,,True,,False,False,False,False,False,False,False,False,False,False,0,Free,0,0,0,0,False,False,False,False,False,False,,False,Normal,,,1024,1024,1024,1024,1,False,False,False,False,False,0,False,False,False,False,73,,,,24.298,False,4.047,4.049,4.047,4.052,4.047,4.056,0.009,False,False,4.043,4.044,4.04,4.045,4.044,4.032,0.013,False,False,,,,,0,0,0,15,10,3615.3,1041.49,,Idle,0,20,False,10,True,Go Home,39.96117495,-106.21644859,6.2,8244.6,393.7,True,1,1,False,False,False,False,0,False,False,False,Course Lock,98.4,265.4,23.0,Calm,19,, 4.5.0,DF059,095XF1800201C0,,0JFJ4006F4,0KPAF1T231018F,52.6,82.3,9.2,3.0,2.2,0,0,DF059,095XF1800201C0,,0JFJ4006F4,0KPAF1T231018F,,, 4.5.0,,,,,,
6/21/2018,10:55:07.38 PM,2m 49.9s,169.9,39.96116283,-106.21646403,0,0,0.3,8128,1.1,1.1,0,0,0,0,0,0,0.6,-0.5,161.2,161.2,Starting Motors,Other,Takeoff (RC Assisted),16,5,True,,Matrice 210,True,False,,Smart,RC,True,True,False,,,True,,False,False,False,False,False,False,False,False,False,False,0,Free,0,0,0,0,False,False,False,False,False,False,,False,Normal,,,1024,1024,1024,1024,1,False,False,False,False,False,0,False,False,False,False,73,,,,24.298,False,4.047,4.049,4.047,4.052,4.047,4.056,0.009,False,False,4.043,4.044,4.04,4.045,4.044,4.032,0.013,False,False,,,,,0,0,0,15,10,3615.3,1041.49,,Idle,0,20,False,10,True,Go Home,39.96117495,-106.21644859,6.2,8244.6,393.7,True,1,1,False,False,False,False,0,False,False,False,Course Lock,98.4,265.4,23.0,Calm,19,, 4.5.0,DF059,095XF1800201C0,,0JFJ4006F4,0KPAF1T231018F,52.6,82.3,9.2,3.0,2.2,0,0,DF059,095XF1800201C0,,0JFJ4006F4,0KPAF1T231018F,,, 4.5.0,,,,,,
6/21/2018,10:55:07.46 PM,2m 50.0s,170.0,39.96116274,-106.21646399,0,0,0.3,8128,0,1.1,0,0,0,0,0,0,0.6,-0.5,161.2,161.2,Starting Motors,Other,Takeoff (RC Assisted),16,5,True,,Matrice 210,True,False,,Smart,RC,True,True,False,,,True,,False,False,False,False,False,False,False,False,False,False,0,Free,0,0,0,0,False,False,False,False,False,False,,False,Normal,,,1024,1024,1024,1024,1,False,False,False,False,False,0,False,False,False,False,73,,,,24.298,False,4.047,4.049,4.047,4.052,4.047,4.056,0.009,False,False,4.043,4.044,4.04,4.045,4.044,4.032,0.013,False,False,,,,,0,0,0,15,10,3615.3,1041.49,,Idle,0,20,False,10,True,Go Home,39.96117495,-106.21644859,6.2,8244.6,393.7,True,1,1,False,False,False,False,0,False,False,False,Course Lock,98.4,265.4,23.0,Calm,19,, 4.5.0,DF059,095XF1800201C0,,0JFJ4006F4,0KPAF1T231018F,52.6,82.3,9.2,3.0,2.2,0,0,DF059,095XF1800201C0,,0JFJ4006F4,0KPAF1T231018F,,, 4.5.0,,,,,,
6/21/2018,10:55:07.66 PM,2m 50.1s,170.1,39.96116273,-106.21646399,0,0,0.3,8128,0,1.1,0,0,0,0,0,0,0.6,-0.5,161.2,161.2,Starting Motors,Other,Takeoff (RC Assisted),16,5,True,,Matrice 210,True,False,,Smart,RC,True,True,False,,,True,,False,False,False,False,False,False,False,False,False,False,0,Free,0,0,0,0,False,False,False,False,False,False,,False,Normal,,,1024,1024,1024,1024,1,False,False,False,False,False,0,False,False,False,False,73,,,,24.298,False,4.047,4.049,4.047,4.052,4.047,4.056,0.009,False,False,4.043,4.044,4.04,4.045,4.044,4.032,0.013,False,False,,,,,0,0,0,15,10,3615.3,1041.49,,Idle,0,20,False,10,True,Go Home,39.96117495,-106.21644859,6.2,8244.6,393.7,True,1,1,False,False,False,False,0,False,False,False,Course Lock,98.4,265.4,23.0,Calm,19,, 4.5.0,DF059,095XF1800201C0,,0JFJ4006F4,0KPAF1T231018F,52.6,82.3,9.2,3.0,2.2,0,0,DF059,095XF1800201C0,,0JFJ4006F4,0KPAF1T231018F,,, 4.5.0,,,,,,
6/21/2018,10:55:07.68 PM,2m 50.2s,170.2,39.96116272,-106.21646398,0,0,0.3,8128,0,1.1,0,0,0,0,0,0,0.6,-0.5,161.2,161.2,Starting Motors,Other,Takeoff (RC Assisted),16,5,True,,Matrice 210,True,False,,Smart,RC,True,True,False,,,True,,False,False,False,False,False,False,False,False,False,False,0,Free,0,0,0,0,False,False,False,False,False,False,,False,Normal,,,1024,1024,1024,1024,1,False,False,False,False,False,0,False,False,False,False,73,,,,24.298,False,4.047,4.049,4.047,4.052,4.047,4.056,0.009,False,False,4.043,4.044,4.042,4.045,4.044,4.032,0.013,False,False,,,,,0,0,0,15,10,3615.3,1041.49,,Idle,0,20,False,10,True,Go Home,39.96117495,-106.21644859,6.2,8244.6,393.7,True,1,1,False,False,False,False,0,False,False,False,Course Lock,98.4,265.4,23.0,Calm,19,, 4.5.0,DF059,095XF1800201C0,,0JFJ4006F4,0KPAF1T231018F,52.6,82.3,9.2,3.0,2.2,0,0,DF059,095XF1800201C0,,0JFJ4006F4,0KPAF1T231018F,,, 4.5.0,,,,,,
6/21/2018,10:55:07.76 PM,2m 50.3s,170.3,39.9611627,-106.21646397,0,0,0.3,8128,0,1.1,0,0,0,0,0,0,0.5,-0.5,161.2,161.2,Starting Motors,Other,Takeoff (RC Assisted),16,5,True,,Matrice 210,True,False,,Smart,RC,True,True,False,,,True,,False,False,False,False,False,False,False,False,False,False,0,Free,0,0,0,0,False,False,False,False,False,False,,False,Normal,,,1024,1024,1115,1024,1,False,False,False,False,False,0,False,False,False,False,73,,,,24.298,False,4.047,4.049,4.047,4.052,4.047,4.056,0.009,False,False,4.043,4.044,4.042,4.045,4.044,4.032,0.013,False,False,,,,,0,0,0,15,10,3615.3,1041.49,,Idle,0,20,False,10,True,Go Home,39.96117495,-106.21644859,6.2,8244.6,393.7,True,1,1,False,False,False,False,0,False,False,False,Course Lock,98.4,265.4,23.0,Calm,19,, 4.5.0,DF059,095XF1800201C0,,0JFJ4006F4,0KPAF1T231018F,52.6,82.3,9.2,3.0,2.2,0,0,DF059,095XF1800201C0,,0JFJ4006F4,0KPAF1T231018F,,, 4.5.0,,,,,,
6/21/2018,10:55:07.86 PM,2m 50.4s,170.4,39.96116268,-106.21646397,0,0,0.3,8128,0,1.1,0,0,0,0,0,0,0.6,-0.5,161.2,161.2,Starting Motors,Other,Takeoff (RC Assisted),16,5,True,,Matrice 210,True,False,,Smart,RC,True,True,False,,,True,,False,False,False,False,False,False,False,False,False,False,0,Free,0,0,0,0,False,False,False,False,False,False,,False,Normal,,,1024,1024,1212,1024,1,False,False,False,False,False,0,False,False,False,False,73,,,,24.298,False,4.047,4.049,4.047,4.052,4.047,4.056,0.009,False,False,4.043,4.044,4.042,4.045,4.044,4.032,0.013,False,False,,,,,0,0,0,15,10,3615.3,1041.49,,Idle,0,20,False,10,True,Go Home,39.96117495,-106.21644859,6.2,8244.6,393.7,True,1,1,False,False,False,False,0,False,False,False,Course Lock,98.4,265.4,23.0,Calm,19,, 4.5.0,DF059,095XF1800201C0,,0JFJ4006F4,0KPAF1T231018F,52.6,82.3,9.2,3.0,2.2,0,0,DF059,095XF1800201C0,,0JFJ4006F4,0KPAF1T231018F,,, 4.5.0,,,,,,
6/21/2018,10:55:07.97 PM,2m 50.5s,170.5,39.96116267,-106.21646397,0,0,0.3,8128,0,1.1,0,0,0,0,0,0,0.6,-0.5,161.2,161.2,Starting Motors,Other,Takeoff (RC Assisted),16,5,True,,Matrice 210,True,False,,Smart,RC,True,True,False,,,True,,False,False,False,False,False,False,False,False,False,False,0,Free,0,0,0,0,False,False,False,False,False,False,,False,Normal,,,1024,1024,1259,1024,1,False,False,False,False,False,0,False,False,False,False,73,,,,24.298,False,4.047,4.049,4.047,4.052,4.047,4.056,0.009,False,False,4.043,4.044,4.042,4.045,4.044,4.032,0.013,False,False,,,,,0,0,0,15,10,3615.3,1041.49,,Idle,0,20,False,10,True,Go Home,39.96117495,-106.21644859,6.2,8244.6,393.7,True,1,1,False,False,False,False,0,False,False,False,Course Lock,98.4,265.4,23.0,Calm,19,, 4.5.0,DF059,095XF1800201C0,,0JFJ4006F4,0KPAF1T231018F,52.6,82.3,9.2,3.0,2.2,0,0,DF059,095XF1800201C0,,0JFJ4006F4,0KPAF1T231018F,,, 4.5.0,,,,,,
6/21/2018,10:55:08.07 PM,2m 50.6s,170.6,39.96116266,-106.21646399,0,0,0.3,8128,0,1.1,0,0,0,0,0,0,0.6,-0.5,161.2,161.2,Starting Motors,Other,Takeoff (RC Assisted),16,5,True,,Matrice 210,True,False,,Smart,RC,True,True,False,,,True,,False,False,False,False,False,False,False,False,False,False,0,Free,0,0,0,0,False,False,False,False,False,False,,False,Normal,,,1024,1024,1307,1024,1,False,False,False,False,False,0,False,False,False,False,73,,,,24.241,False,4.047,4.049,4.047,4.052,4.047,4.056,0.009,False,False,4.043,4.044,4.042,4.045,4.044,4.032,0.013,False,False,,,,,0,0,0,15,10,3615.3,1041.82,,Idle,0,20,False,10,True,Go Home,39.96117495,-106.21644859,6.2,8244.6,393.7,True,1,1,False,False,False,False,0,False,False,False,Course Lock,98.4,265.4,23.0,Calm,19,, 4.5.0,DF059,095XF1800201C0,,0JFJ4006F4,0KPAF1T231018F,52.6,82.3,9.2,3.0,2.2,0,0,DF059,095XF1800201C0,,0JFJ4006F4,0KPAF1T231018F,,, 4.5.0,,,,,,
6/21/2018,10:55:08.17 PM,2m 50.7s,170.7,39.96116265,-106.21646404,0,0,0.3,8128,0,1.1,0,0,0,0,0,0,0.6,-0.5,161.2,161.2,Starting Motors,Other,Takeoff (RC Assisted),16,5,True,,Matrice 210,True,False,,Smart,RC,True,True,False,,,True,,False,False,False,False,False,False,False,False,False,False,0,Free,0,0,0,0,False,False,False,False,False,False,,False,Normal,,,1024,1024,1335,1024,1,False,False,False,False,False,0,False,False,False,False,73,,,,24.241,False,4.047,4.049,4.047,4.052,4.047,4.056,0.009,False,False,4.043,4.044,4.042,4.045,4.044,4.032,0.013,False,False,,,,,0,0,0,15,10,3615.3,1041.82,,Idle,0,20,False,10,True,Go Home,39.96117495,-106.21644859,6.2,8244.6,393.7,True,1,1,False,False,False,False,0,False,False,False,Course Lock,98.4,265.4,23.0,Calm,19,, 4.5.0,DF059,095XF1800201C0,,0JFJ4006F4,0KPAF1T231018F,52.6,82.3,9.2,3.0,2.2,0,0,DF059,095XF1800201C0,,0JFJ4006F4,0KPAF1T231018F,,, 4.5.0,,,,,,
6/21/2018,10:55:08.27 PM,2m 50.8s,170.8,39.96116265,-106.21646409,0,0,0.3,8128,0,1.1,0,0,0,0,0,0,0.5,-0.5,161.2,161.2,Manual Takeoff,Other,Takeoff (RC Assisted),16,5,True,,Matrice 210,True,False,,Smart,RC,True,True,False,,,True,,False,False,False,False,False,False,False,False,False,False,0,Free,0,0,0,0,False,False,False,False,False,False,,False,Normal,,,1024,1024,1348,1024,1,False,False,False,False,False,0,False,False,False,False,73,,,,24.221,False,4.032,4.037,4.035,4.038,4.035,4.044,0.012,False,False,4.043,4.044,4.042,4.045,4.044,4.032,0.013,False,False,,,,,0,0,0,15,10,3615.3,1041.82,,Idle,0,20,False,10,True,Go Home,39.96117495,-106.21644859,6.2,8244.6,393.7,True,1,1,False,False,False,False,0,False,False,False,Course Lock,98.4,265.4,23.0,Calm,19,, 4.5.0,DF059,095XF1800201C0,,0JFJ4006F4,0KPAF1T231018F,52.6,82.3,9.2,3.0,2.2,0,0,DF059,095XF1800201C0,,0JFJ4006F4,0KPAF1T231018F,,, 4.5.0,,,,,,
6/21/2018,10:55:08.37 PM,2m 50.9s,170.9,39.96116266,-106.2164642,0,0,0.3,8128,0,1.1,0,0,0,0,0,0,0.5,-0.5,161.2,161.2,Manual Takeoff,Other,Takeoff (RC Assisted),16,5,True,,Matrice 210,True,False,,Smart,RC,True,True,False,,,True,,False,False,False,False,False,False,False,False,False,False,0,Free,0,0,0,0,False,False,False,False,False,False,,False,Normal,,,1024,1024,1374,1024,1,False,False,False,False,False,0,False,False,False,False,73,,,,24.221,False,4.032,4.037,4.035,4.038,4.035,4.044,0.012,False,False,4.043,4.044,4.042,4.045,4.044,4.032,0.013,False,False,,,,,0,0,0,15,10,3615.3,1041.82,,Idle,0,20,False,10,True,Go Home,39.96117495,-106.21644859,6.3,8244.6,393.7,True,1,1,False,False,False,False,0,False,False,False,Course Lock,98.4,265.4,23.0,Calm,19,, 4.5.0,DF059,095XF1800201C0,,0JFJ4006F4,0KPAF1T231018F,52.6,82.3,9.2,3.0,2.2,0,0,DF059,095XF1800201C0,,0JFJ4006F4,0KPAF1T231018F,,, 4.5.0,,,,,,
6/21/2018,10:55:08.47 PM,2m 51.0s,171.0,39.96116265,-106.21646423,0,0,0.3,8128,0,1.1,0,0,0,0,0,0,0.5,-0.5,161.2,161.2,Manual Takeoff,Other,Takeoff (RC Assisted),16,5,True,,Matrice 210,True,False,,Smart,RC,True,True,False,,,True,,False,False,False,False,False,False,False,False,False,False,0,Free,0,0,0,0,False,False,False,False,False,False,,False,Normal,,,1024,1024,1395,1024,1,False,False,False,False,False,0,False,False,False,False,73,,,,24.221,False,4.032,4.037,4.035,4.038,4.035,4.044,0.012,False,False,4.043,4.044,4.042,4.045,4.044,4.032,0.013,False,False,,,,,0,0,0,15,10,3615.3,1041.82,,Idle,0,20,False,10,True,Go Home,39.96117495,-106.21644859,6.3,8244.6,393.7,True,1,1,False,False,False,False,0,False,False,False,Course Lock,98.4,265.4,23.0,Calm,19,, 4.5.0,DF059,095XF1800201C0,,0JFJ4006F4,0KPAF1T231018F,52.6,82.3,9.2,3.0,2.2,0,0,DF059,095XF1800201C0,,0JFJ4006F4,0KPAF1T231018F,,, 4.5.0,,,,,,
6/21/2018,10:55:08.57 PM,2m 51.1s,171.1,39.96116265,-106.21646424,0,0,0.3,8128,0,1.1,0,0,0,0,0,0,0.5,-0.5,161.2,161.2,Manual Takeoff,Other,Takeoff (RC Assisted),16,5,True,,Matrice 210,True,False,,Smart,RC,True,True,False,,,True,,False,False,False,False,False,False,False,False,False,False,0,Follow Yaw,0,-1.7,161.1,161.1,False,False,False,False,False,False,,False,Normal,,,1024,1024,1401,1024,1,False,False,False,False,False,0,False,False,False,False,73,,,,24.221,False,4.032,4.037,4.035,4.038,4.035,4.044,0.012,False,False,4.043,4.044,4.042,4.045,4.044,4.032,0.013,False,False,,,,,0,0,0,15,10,3615.3,1041.82,,Idle,0,20,False,10,True,Go Home,39.96117495,-106.21644859,6.3,8244.6,393.7,True,1,1,False,False,False,False,0,False,False,False,Course Lock,98.4,265.4,23.0,Calm,19,, 4.5.0,DF059,095XF1800201C0,,0JFJ4006F4,0KPAF1T231018F,52.6,82.3,9.2,3.0,2.2,0,0,DF059,095XF1800201C0,,0JFJ4006F4,0KPAF1T231018F,,, 4.5.0,,,,,,
6/21/2018,10:55:08.67 PM,2m 51.2s,171.2,39.96116264,-106.21646428,0,0,0.3,8128,0,1.1,0,0,0,0,0,0,0.5,-0.5,161.2,161.2,Manual Takeoff,Other,Takeoff (RC Assisted),16,5,True,,Matrice 210,True,False,,Smart,RC,True,True,False,,,True,,False,False,False,False,False,False,False,False,False,False,0,Follow Yaw,0,-1.7,161.3,161.3,False,False,False,False,False,False,,False,Normal,,,1024,1024,1401,1024,1,False,False,False,False,False,0,False,False,False,False,73,,,,24.221,False,4.032,4.037,4.035,4.038,4.035,4.044,0.012,False,False,4.023,4.029,4.024,4.028,4.029,4.017,0.013,False,False,,,,,0,0,0,15,10,3615.3,1041.82,,Idle,0,20,False,10,True,Go Home,39.96117495,-106.21644859,6.3,8244.6,393.7,True,1,1,False,False,False,False,0,False,False,False,Course Lock,98.4,265.4,23.0,Calm,19,, 4.5.0,DF059,095XF1800201C0,,0JFJ4006F4,0KPAF1T231018F,52.6,82.3,9.2,3.0,2.2,0,0,DF059,095XF1800201C0,,0JFJ4006F4,0KPAF1T231018F,,, 4.5.0,,,,,,
6/21/2018,10:55:08.78 PM,2m 51.3s,171.3,39.96116266,-106.21646436,0,0,0.3,8128,0,1.1,0,0,0,0,0,0,0.4,-0.5,161.2,161.2,Manual Takeoff,Other,Takeoff (RC Assisted),16,5,True,,Matrice 210,True,False,,Smart,RC,True,True,False,,,True,,False,False,False,False,False,False,False,False,False,False,0,Follow Yaw,0,-1.7,161.2,161.2,False,False,False,False,False,False,,False,Normal,,,1024,1024,1406,1024,1,False,False,False,False,False,0,False,False,False,False,73,,,,24.221,False,4.032,4.037,4.035,4.038,4.035,4.044,0.012,False,False,4.023,4.029,4.024,4.028,4.029,4.017,0.013,False,False,,,,,0,0,0,15,10,3615.3,1041.82,,Idle,0,20,False,10,True,Go Home,39.96117495,-106.21644859,6.3,8244.6,393.7,True,1,1,False,False,False,False,0,False,False,False,Course Lock,98.4,265.4,23.0,Calm,19,, 4.5.0,DF059,095XF1800201C0,,0JFJ4006F4,0KPAF1T231018F,52.6,82.3,9.2,3.0,2.2,0,0,DF059,095XF1800201C0,,0JFJ4006F4,0KPAF1T231018F,,, 4.5.0,,,,,,
6/21/2018,10:55:08.88 PM,2m 51.4s,171.4,39.96116266,-106.2164644,0,0,0.3,8128,0,1.1,0,0,0,0,0,0,0.1,-0.3,161.3,161.3,Manual Takeoff,Other,Takeoff (RC Assisted),16,5,True,,Matrice 210,True,False,,Smart,RC,True,True,False,,,True,,False,False,False,False,False,False,False,False,False,False,0,Follow Yaw,0,-1.7,161.3,161.3,False,False,False,False,False,False,,False,Normal,,,1024,1024,1405,1024,1,False,False,False,False,False,0,False,False,False,False,73,,,,24.221,False,4.032,4.037,4.035,4.038,4.035,4.044,0.012,False,False,4.023,4.029,4.024,4.028,4.029,4.017,0.013,False,False,,,,,0,0,0,15,10,3615.3,1041.82,,Idle,0,20,False,10,True,Go Home,39.96117495,-106.21644859,6.3,8244.6,393.7,True,1,1,False,False,False,False,0,False,False,False,Course Lock,98.4,265.4,23.0,Calm,19,, 4.5.0,DF059,095XF1800201C0,,0JFJ4006F4,0KPAF1T231018F,52.6,82.3,9.2,3.0,2.2,0,0,DF059,095XF1800201C0,,0JFJ4006F4,0KPAF1T231018F,,, 4.5.0,,,,,,
6/21/2018,10:55:08.98 PM,2m 51.5s,171.5,39.96116264,-106.21646441,0,0,0.3,8128,0,1.1,0,0,0,0,0,0,-1,-0.1,161.3,161.3,Manual Takeoff,Other,Takeoff (RC Assisted),16,5,True,,Matrice 210,True,False,,Smart,RC,True,True,False,,,True,,False,False,False,False,False,False,False,False,False,False,0,Follow Yaw,0.1,-1.7,161.4,161.4,False,False,False,False,False,False,,False,Normal,,,1024,1024,1371,1024,1,False,False,False,False,False,0,False,False,False,False,73,,,,24.221,False,4.032,4.037,4.035,4.038,4.035,4.044,0.012,False,False,4.023,4.029,4.024,4.028,4.029,4.017,0.013,False,False,,,,,0,0,0,15,10,3615.3,1041.82,,Idle,0,20,False,10,True,Go Home,39.96117495,-106.21644859,6.3,8244.6,393.7,True,1,1,False,False,False,False,0,False,False,False,Course Lock,98.4,265.4,23.0,Calm,19,, 4.5.0,DF059,095XF1800201C0,,0JFJ4006F4,0KPAF1T231018F,52.6,82.3,9.2,3.0,2.2,0,0,DF059,095XF1800201C0,,0JFJ4006F4,0KPAF1T231018F,,, 4.5.0,,,,,,
6/21/2018,10:55:09.08 PM,2m 51.6s,171.6,39.9611626,-106.21646441,0,0,0.3,8128,0,1.1,0,0,0,0,-0.2,0,-3.2,0.6,161.3,161.3,Manual Takeoff,Other,Takeoff (RC Assisted),16,5,True,,Matrice 210,True,False,,Smart,RC,False,True,False,,,True,,False,False,False,False,False,False,False,False,False,False,0,Follow Yaw,0,-1.6,161.1,161.1,False,False,False,False,False,False,,False,Normal,,,1024,1024,1336,1024,1,False,False,False,False,False,0,False,False,False,False,73,,,,24.027,False,4.032,4.037,4.035,4.038,4.035,4.044,0.012,False,False,4.023,4.029,4.024,4.028,4.029,4.017,0.013,False,False,,,,,0,0,0,15,10,3615.3,1042.08,,Idle,0,20,False,10,True,Go Home,39.9611626,-106.21646441,0.0,8244.6,393.7,True,1,1,False,False,False,False,0,False,False,False,Course Lock,98.4,265.4,23.0,Calm,19,, 4.5.0,DF059,095XF1800201C0,,0JFJ4006F4,0KPAF1T231018F,52.6,82.3,9.2,3.0,2.2,0,0,DF059,095XF1800201C0,,0JFJ4006F4,0KPAF1T231018F,,, 4.5.0,,,,Home Point Updated.,,
6/21/2018,10:55:09.18 PM,2m 51.7s,171.7,39.96116251,-106.21646439,0,0,0.7,8128,0,1.1,-0.2,0,0,0,-0.7,0,-3.6,1.3,161.2,161.2,P-GPS,Other,,16,5,True,,Matrice 210,True,False,,Smart,RC,False,True,False,,,True,,False,False,False,False,False,False,False,False,False,False,0,Follow Yaw,0,-1.3,161,161,False,False,False,False,False,False,,False,Normal,,,1024,1024,1336,1024,1,False,False,False,False,False,0,False,False,False,False,73,,,,24.027,False,4.032,4.037,4.035,4.038,4.035,4.044,0.012,False,False,4.023,4.029,4.024,4.028,4.029,4.017,0.013,False,False,,,,,0,0,0,15,10,3615.3,1042.08,,Idle,0,20,False,10,True,Go Home,39.9611626,-106.21646441,0.0,8244.6,393.7,True,1,1,False,False,False,False,0,False,False,False,Course Lock,98.4,265.4,23.0,Calm,19,, 4.5.0,DF059,095XF1800201C0,,0JFJ4006F4,0KPAF1T231018F,52.6,82.3,9.2,3.0,2.2,0,0,DF059,095XF1800201C0,,0JFJ4006F4,0KPAF1T231018F,,, 4.5.0,,,,,,
6/21/2018,10:55:09.28 PM,2m 51.8s,171.8,39.96116234,-106.21646435,0.3,0.3,0.7,8128,0,1.1,-0.5,0,0,0,-0.9,0,-1.9,1,161.2,161.2,P-GPS,Other,,16,5,True,,Matrice 210,True,False,,Smart,RC,False,True,False,,,True,,False,False,False,False,False,False,False,False,False,False,0,Follow Yaw,0,-1.3,161.1,161.1,False,False,False,False,False,False,,False,Normal,,,1024,1024,1328,1024,1,False,False,False,False,False,0,False,False,False,False,73,,,,24.077,False,4.005,4.014,4.01,4.013,4.014,4.021,0.016,False,False,4.023,4.029,4.024,4.028,4.029,4.017,0.013,False,False,,,,,0,0,0,15,10,3615.3,1042.08,,Idle,0,20,False,10,True,Go Home,39.9611626,-106.21646441,0.0,8244.6,393.7,True,1,1,False,False,False,False,0,False,False,False,Course Lock,98.4,265.4,23.0,Calm,19,, 4.5.0,DF059,095XF1800201C0,,0JFJ4006F4,0KPAF1T231018F,52.6,82.3,9.2,3.0,2.2,0,0,DF059,095XF1800201C0,,0JFJ4006F4,0KPAF1T231018F,,, 4.5.0,,,,,,
6/21/2018,10:55:09.38 PM,2m 51.9s,171.9,39.9611621,-106.21646429,0.3,0.3,1.0,8128,0,1.1,-0.7,0,0,0,-1.3,0,-0.2,0.6,161.2,161.2,P-GPS,Other,,16,5,True,,Matrice 210,True,False,,Smart,RC,False,True,False,,,True,,False,False,False,False,False,False,False,False,False,False,0,Follow Yaw,0,-1.3,161.2,161.2,False,False,False,False,False,False,,False,Normal,,,1024,1024,1330,1024,1,False,False,False,False,False,0,False,False,False,False,73,,,,24.077,False,4.005,4.014,4.01,4.013,4.014,4.021,0.016,False,False,4.023,4.029,4.024,4.028,4.029,4.017,0.013,False,False,,,,,0,0,0,15,10,3615.3,1042.08,,Idle,0,20,False,10,True,Go Home,39.9611626,-106.21646441,0.0,8244.6,393.7,True,1,1,False,False,False,False,0,False,False,False,Course Lock,98.4,265.4,23.0,Calm,19,, 4.5.0,DF059,095XF1800201C0,,0JFJ4006F4,0KPAF1T231018F,52.6,82.3,9.2,3.0,2.2,0,0,DF059,095XF1800201C0,,0JFJ4006F4,0KPAF1T231018F,,, 4.5.0,,,,,,
6/21/2018,10:55:09.49 PM,2m 52.0s,172.0,39.96116184,-106.21646424,0.7,0.7,1.0,8128,0,1.1,-0.7,0,0,0,-1.6,0,1.1,0,161,161,P-GPS,Other,,16,5,True,,Matrice 210,True,False,,Smart,RC,False,True,False,,,True,,False,False,False,False,False,False,False,False,False,False,0,Follow Yaw,0,-1.3,160.9,160.9,False,False,False,False,False,False,,False,Normal,,,1024,1024,1296,1024,1,False,False,False,False,False,0,False,False,False,False,73,,,,24.077,False,4.005,4.014,4.01,4.013,4.014,4.021,0.016,False,False,4.023,4.029,4.024,4.028,4.029,4.017,0.013,False,False,,,,,0,0,0,15,10,3615.3,1042.08,,Idle,0,20,False,10,True,Go Home,39.9611626,-106.21646441,0.3,8244.6,393.7,True,1,1,False,False,False,False,0,False,False,False,Course Lock,98.4,265.4,23.0,Calm,19,, 4.5.0,DF059,095XF1800201C0,,0JFJ4006F4,0KPAF1T231018F,52.6,82.3,9.2,3.0,2.2,0,0,DF059,095XF1800201C0,,0JFJ4006F4,0KPAF1T231018F,,, 4.5.0,,,,,,
6/21/2018,10:55:09.59 PM,2m 52.1s,172.1,39.96116142,-106.2164641,1.0,1.0,1.3,8129,0,1.1,-0.2,0,0,0,-1.8,0,2.3,-0.6,160.5,160.5,P-GPS,Other,,16,5,True,,Matrice 210,True,False,,Smart,RC,False,True,False,,,True,,False,False,False,False,False,False,False,False,False,False,0,Follow Yaw,0,-1.2,160.4,160.4,False,False,False,False,False,False,,False,Normal,,,1024,1024,1240,1024,1,False,False,False,False,False,0,False,False,False,False,73,,,,24.077,False,4.005,4.014,4.01,4.013,4.014,4.021,0.016,False,False,4.023,4.029,4.024,4.028,4.029,4.017,0.013,False,False,,,,,0,0,0,15,10,3615.3,1042.08,,Idle,0,20,False,10,True,Go Home,39.9611626,-106.21646441,0.4,8244.6,393.7,True,1,1,False,False,False,False,0,False,False,False,Course Lock,98.4,265.4,23.0,Calm,19,, 4.5.0,DF059,095XF1800201C0,,0JFJ4006F4,0KPAF1T231018F,52.6,82.3,9.2,3.0,2.2,0,0,DF059,095XF1800201C0,,0JFJ4006F4,0KPAF1T231018F,,, 4.5.0,,,,,,
6/21/2018,10:55:09.69 PM,2m 52.2s,172.2,39.96116126,-106.21646411,1.0,1.0,1.6,8129,0,1.1,0,0,0,0,-1.6,0,3,-0.8,160.2,160.2,P-GPS,Other,,16,5,True,,Matrice 210,True,False,,Smart,RC,False,True,False,,,True,,False,False,False,False,False,False,False,False,False,False,0,Follow Yaw,0,-1.3,160,160,False,False,False,False,False,False,,False,Normal,,,1024,1024,1221,1024,1,False,False,False,False,False,0,False,False,False,False,73,,,,24.077,False,4.005,4.014,4.01,4.013,4.014,4.021,0.016,False,False,3.961,3.979,3.97,3.975,3.979,3.964,0.018,False,False,,,,,0,0,0,15,10,3615.3,1042.08,,Idle,0,20,False,10,True,Go Home,39.9611626,-106.21646441,0.4,8244.6,393.7,True,1,1,False,False,False,False,0,False,False,False,Course Lock,98.4,265.4,23.0,Calm,19,, 4.5.0,DF059,095XF1800201C0,,0JFJ4006F4,0KPAF1T231018F,52.6,82.3,9.2,3.0,2.2,0,0,DF059,095XF1800201C0,,0JFJ4006F4,0KPAF1T231018F,,, 4.5.0,,,,,,
6/21/2018,10:55:09.79 PM,2m 52.3s,172.3,39.96116123,-106.21646416,1.3,1.3,1.6,8129,0,1.1,0,0,0,0,-1.3,0,2.8,-0.4,160.1,160.1,P-GPS,Other,,16,5,True,,Matrice 210,True,False,,Smart,RC,False,True,False,,,True,,False,False,False,False,False,False,False,False,False,False,0,Follow Yaw,0,-1.2,160.3,160.3,False,False,False,False,False,False,,False,Normal,,,1024,1024,1197,1024,1,False,False,False,False,False,0,False,False,False,False,73,,,,24.077,False,4.005,4.014,4.01,4.013,4.014,4.021,0.016,False,False,3.961,3.979,3.97,3.975,3.979,3.964,0.018,False,False,,,,,0,0,0,15,10,3615.3,1042.08,,Idle,0,20,False,10,True,Go Home,39.9611626,-106.21646441,0.5,8244.6,393.7,True,1,1,False,False,False,False,0,False,False,False,Course Lock,98.4,265.4,23.0,Calm,19,, 4.5.0,DF059,095XF1800201C0,,0JFJ4006F4,0KPAF1T231018F,52.6,82.3,9.2,3.0,2.2,0,0,DF059,095XF1800201C0,,0JFJ4006F4,0KPAF1T231018F,,, 4.5.0,,,,,,
6/21/2018,10:55:09.89 PM,2m 52.4s,172.4,39.96116132,-106.21646426,1.3,1.3,2.0,8129,0,1.1,0.5,0.5,-0.2,0,-0.9,0,3.1,0.7,160.4,160.4,P-GPS,Other,,16,5,True,,Matrice 210,True,False,,Smart,RC,False,True,False,,,True,,False,False,False,False,False,False,False,False,False,False,0,Follow Yaw,0,-1.1,160.5,160.5,False,False,False,False,False,False,,False,Normal,,,1024,1024,1190,1024,1,False,False,False,False,False,0,False,False,False,False,73,,,,24.077,False,4.005,4.014,4.01,4.013,4.014,4.021,0.016,False,False,3.961,3.979,3.97,3.975,3.979,3.964,0.018,False,False,,,,,0,0,0,15,10,3615.3,1042.08,,Idle,0,20,False,10,True,Go Home,39.9611626,-106.21646441,0.4,8244.6,393.7,True,1,1,False,False,False,False,0,False,False,False,Course Lock,98.4,265.4,23.0,Calm,19,, 4.5.0,DF059,095XF1800201C0,,0JFJ4006F4,0KPAF1T231018F,52.6,82.3,9.2,3.0,2.2,0,0,DF059,095XF1800201C0,,0JFJ4006F4,0KPAF1T231018F,,, 4.5.0,,,,,,
6/21/2018,10:55:09.99 PM,2m 52.5s,172.5,39.96116157,-106.21646449,1.6,1.6,2.0,8129,0,1.1,0.9,0.9,-0.5,0,-0.5,0,1.2,1.3,160.7,160.7,P-GPS,Other,,16,5,True,,Matrice 210,True,False,,Smart,RC,False,True,False,,,True,,False,False,False,False,False,False,False,False,False,False,0,Follow Yaw,-0.1,-0.9,160.4,160.4,False,False,False,False,False,False,,False,Normal,,,1024,1024,1180,1024,1,False,False,False,False,False,0,False,False,False,False,73,,,,24.077,False,4.005,4.014,4.01,4.013,4.014,4.021,0.016,False,False,3.961,3.979,3.97,3.975,3.979,3.964,0.018,False,False,,,,,0,0,0,15,10,3615.3,1042.08,,Idle,0,20,False,10,True,Go Home,39.9611626,-106.21646441,0.0,8244.6,393.7,True,1,1,False,False,False,False,0,False,False,False,Course Lock,98.4,265.4,23.0,Calm,19,, 4.5.0,DF059,095XF1800201C0,,0JFJ4006F4,0KPAF1T231018F,52.6,82.3,9.2,3.0,2.2,0,0,DF059,095XF1800201C0,,0JFJ4006F4,0KPAF1T231018F,,, 4.5.0,,,,,,
6/21/2018,10:55:10.10 PM,2m 52.6s,172.6,39.96116192,-106.21646476,1.6,1.6,2.3,8129,1.1,1.1,0.9,0.9,-0.7,0,-0.2,0,-1.9,1.2,160.8,160.8,P-GPS,Other,,16,5,True,,Matrice 210,True,False,,Smart,RC,False,True,False,,,True,,False,False,False,False,False,False,False,False,False,False,0,Follow Yaw,0,-1.2,160.3,160.3,False,False,False,False,False,False,,False,Normal,,,1024,1024,1190,1024,1,False,False,False,False,False,0,False,False,False,False,73,,,,24.097,False,4.005,4.014,4.01,4.013,4.014,4.021,0.016,False,False,3.961,3.979,3.97,3.975,3.979,3.964,0.018,False,False,,,,,0,0,0,15,10,3615.3,1045.10,,Idle,0,20,False,10,True,Go Home,39.9611626,-106.21646441,0.4,8244.6,393.7,True,1,1,False,False,False,False,0,False,False,False,Course Lock,98.4,265.4,23.0,Calm,19,, 4.5.0,DF059,095XF1800201C0,,0JFJ4006F4,0KPAF1T231018F,52.6,82.3,9.2,3.0,2.2,0,0,DF059,095XF1800201C0,,0JFJ4006F4,0KPAF1T231018F,,, 4.5.0,,,,,,
6/21/2018,10:55:10.20 PM,2m 52.7s,172.7,39.96116245,-106.21646515,1.6,1.6,2.3,8129,1.5,1.5,0.9,0.9,-0.7,0,-0.2,0,-5.6,-0.5,160.8,160.8,P-GPS,Other,,16,5,True,,Matrice 210,True,False,,Smart,RC,False,True,False,,,True,,False,False,False,False,False,False,False,False,False,False,0,Follow Yaw,-0.1,-1.2,160.2,160.2,False,False,False,False,False,False,,False,Normal,,,1024,1024,1198,1024,1,False,False,False,False,False,0,False,False,False,False,73,,,,24.097,False,4.005,4.014,4.01,4.013,4.014,4.021,0.016,False,False,3.961,3.979,3.97,3.975,3.979,3.964,0.018,False,False,,,,,0,0,0,15,10,3615.3,1045.10,,Idle,0,20,False,10,True,Go Home,39.9611626,-106.21646441,0.3,8244.6,393.7,True,1,1,False,False,False,False,0,False,False,False,Course Lock,98.4,265.4,23.0,Calm,19,, 4.5.0,DF059,095XF1800201C0,,0JFJ4006F4,0KPAF1T231018F,52.6,82.3,9.2,3.0,2.2,0,0,DF059,095XF1800201C0,,0JFJ4006F4,0KPAF1T231018F,,, 4.5.0,,,,,,
6/21/2018,10:55:10.30 PM,2m 52.8s,172.8,39.96116285,-106.21646551,1.6,1.6,2.3,8129,1.8,1.8,0.7,0.9,-0.7,0,-0.2,0,-6.4,-2.5,160.7,160.7,P-GPS,Other,,16,5,True,,Matrice 210,True,False,,Smart,RC,False,True,False,,,True,,False,False,False,False,False,False,False,False,False,False,0,Follow Yaw,0,-1.5,160.1,160.1,False,False,False,False,False,False,,False,Normal,,,1024,1024,1208,1024,1,False,False,False,False,False,0,False,False,False,False,73,,,,23.9,False,3.973,3.987,3.982,3.983,3.983,3.992,0.019,False,False,3.961,3.979,3.97,3.975,3.979,3.964,0.018,False,False,,,,,0,0,0,15,10,3615.3,1045.10,,Idle,0,20,False,10,True,Go Home,39.9611626,-106.21646441,0.4,8244.6,393.7,True,1,1,False,False,False,False,0,False,False,False,Course Lock,98.4,265.4,23.0,Calm,19,, 4.5.0,DF059,095XF1800201C0,,0JFJ4006F4,0KPAF1T231018F,52.6,82.3,9.2,3.0,2.2,0,0,DF059,095XF1800201C0,,0JFJ4006F4,0KPAF1T231018F,,, 4.5.0,,,,,,
6/21/2018,10:55:10.40 PM,2m 52.9s,172.9,39.96116322,-106.21646589,1.6,1.6,2.3,8129,1.5,1.8,0.2,0.9,-0.5,0,0,0,-5.8,-1.6,160.8,160.8,P-GPS,Other,,16,5,True,,Matrice 210,True,False,,Smart,RC,False,True,False,,,True,,False,False,False,False,False,False,False,False,False,False,0,Follow Yaw,0,-1.5,160.4,160.4,False,False,False,False,False,False,,False,Normal,,,1024,1024,1207,1024,1,False,False,False,False,False,0,False,False,False,False,73,,,,23.9,False,3.973,3.987,3.982,3.983,3.983,3.992,0.019,False,False,3.961,3.979,3.97,3.975,3.979,3.964,0.018,False,False,,,,,0,0,0,15,10,3615.3,1045.10,,Idle,0,20,False,10,True,Go Home,39.9611626,-106.21646441,0.4,8244.6,393.7,True,1,1,False,False,False,False,0,False,False,False,Course Lock,98.4,265.4,23.0,Calm,19,, 4.5.0,DF059,095XF1800201C0,,0JFJ4006F4,0KPAF1T231018F,52.6,82.3,9.2,3.0,2.2,0,0,DF059,095XF1800201C0,,0JFJ4006F4,0KPAF1T231018F,,, 4.5.0,,,,,,
6/21/2018,10:55:10.50 PM,2m 53.0s,173.0,39.96116405,-106.21646613,2.0,2.0,2.3,8130,1.8,1.8,0,0.9,-0.2,0,-0.2,0,-4.5,-0.3,161.1,161.1,P-GPS,Other,,16,5,True,,Matrice 210,True,False,,Smart,RC,False,True,False,,,True,,False,False,False,False,False,False,False,False,False,False,0,Follow Yaw,0,-1.6,160.5,160.5,False,False,False,False,False,False,,False,Normal,,,1024,1024,1211,1024,1,False,False,False,False,False,0,False,False,False,False,73,,,,23.9,False,3.973,3.987,3.982,3.983,3.983,3.992,0.019,False,False,3.961,3.979,3.97,3.975,3.979,3.964,0.018,False,False,,,,,0,0,0,15,10,3615.3,1045.10,,Idle,0,20,False,10,True,Go Home,39.9611626,-106.21646441,0.6,8244.6,393.7,True,1,1,False,False,False,False,0,False,False,False,Course Lock,98.4,265.4,23.0,Calm,19,, 4.5.0,DF059,095XF1800201C0,,0JFJ4006F4,0KPAF1T231018F,52.6,82.3,9.2,3.0,2.2,0,0,DF059,095XF1800201C0,,0JFJ4006F4,0KPAF1T231018F,,, 4.5.0,,,,,,
6/21/2018,10:55:10.60 PM,2m 53.1s,173.1,39.96116424,-106.21646639,2.0,2.0,2.3,8130,1.1,1.8,0,0.9,-0.2,0,0,0,-1.7,-1.3,161.2,161.2,P-GPS,Other,,16,5,True,,Matrice 210,True,False,,Smart,RC,False,True,False,,,True,,False,False,False,False,False,False,False,False,False,False,0,Follow Yaw,0,-1.7,160.5,160.5,False,False,False,False,False,False,,False,Normal,,,1024,1024,1214,1024,1,False,False,False,False,False,0,False,False,False,False,73,,,,23.9,False,3.973,3.987,3.982,3.983,3.983,3.992,0.019,False,False,3.961,3.979,3.97,3.975,3.979,3.964,0.018,False,False,,,,,0,0,0,15,10,3615.3,1045.10,,Idle,0,20,False,10,True,Go Home,39.9611626,-106.21646441,0.8,8244.6,393.7,True,1,1,False,False,False,False,0,False,False,False,Course Lock,98.4,265.4,23.0,Calm,19,, 4.5.0,DF059,095XF1800201C0,,0JFJ4006F4,0KPAF1T231018F,52.6,82.3,9.2,3.0,2.2,0,0,DF059,095XF1800201C0,,0JFJ4006F4,0KPAF1T231018F,,, 4.5.0,,,,,,
6/21/2018,10:55:10.70 PM,2m 53.2s,173.2,39.96116427,-106.21646657,2.0,2.0,2.3,8130,0,1.8,0,0.9,0,0,0,0,-0.7,-1.6,161.4,161.4,P-GPS,Other,,16,5,True,,Matrice 210,True,False,,Smart,RC,False,True,False,,,True,,False,False,False,False,False,False,False,False,False,False,0,Follow Yaw,0,-1.8,160.4,160.4,False,False,False,False,False,False,,False,Normal,,,1024,1024,1215,1024,1,False,False,False,False,False,0,False,False,False,False,73,,,,23.9,False,3.973,3.987,3.982,3.983,3.983,3.992,0.019,False,False,3.945,3.962,3.952,3.955,3.962,3.946,0.018,False,False,,,,,0,0,0,15,10,3615.3,1045.10,,Idle,0,20,False,10,True,Go Home,39.9611626,-106.21646441,0.8,8244.6,393.7,True,1,1,False,False,False,False,0,False,False,False,Course Lock,98.4,265.4,23.0,Calm,19,, 4.5.0,DF059,095XF1800201C0,,0JFJ4006F4,0KPAF1T231018F,52.6,82.3,9.2,3.0,2.2,0,0,DF059,095XF1800201C0,,0JFJ4006F4,0KPAF1T231018F,,, 4.5.0,,,,,,
6/21/2018,10:55:10.81 PM,2m 53.3s,173.3,39.96116416,-106.21646669,2.0,2.0,2.3,8130,0,1.8,0,0.9,0,0,-0.2,0,0.3,-2,161.4,161.4,P-GPS,Other,,16,5,True,,Matrice 210,True,False,,Smart,RC,False,True,False,,,True,,False,False,False,False,False,False,False,False,False,False,0,Follow Yaw,0,-2,160.2,160.2,False,False,False,False,False,False,,False,Normal,,,1024,1024,1218,1024,1,False,False,False,False,False,0,False,False,False,False,73,,,,23.9,False,3.973,3.987,3.982,3.983,3.983,3.992,0.019,False,False,3.945,3.962,3.952,3.955,3.962,3.946,0.018,False,False,,,,,0,0,0,15,10,3615.3,1045.10,,Idle,0,20,False,10,True,Go Home,39.9611626,-106.21646441,0.8,8244.6,393.7,True,1,1,False,False,False,False,0,False,False,False,Course Lock,98.4,265.4,23.0,Calm,19,, 4.5.0,DF059,095XF1800201C0,,0JFJ4006F4,0KPAF1T231018F,52.6,82.3,9.2,3.0,2.2,0,0,DF059,095XF1800201C0,,0JFJ4006F4,0KPAF1T231018F,,, 4.5.0,,,,,,
6/21/2018,10:55:10.91 PM,2m 53.4s,173.4,39.96116397,-106.21646674,2.0,2.0,2.3,8130,0,1.8,0,0.9,0,0,-0.2,0,1,-2.6,161,161,P-GPS,Other,,16,5,True,,Matrice 210,True,False,,Smart,RC,False,True,False,,,True,,False,False,False,False,False,False,False,False,False,False,0,Follow Yaw,0,-2.1,159.8,159.8,False,False,False,False,False,False,,False,Normal,,,1024,1024,1225,1024,1,False,False,False,False,False,0,False,False,False,False,73,,,,23.9,False,3.973,3.987,3.982,3.983,3.983,3.992,0.019,False,False,3.945,3.962,3.952,3.955,3.962,3.946,0.018,False,False,,,,,0,0,0,15,10,3615.3,1045.10,,Idle,0,20,False,10,True,Go Home,39.9611626,-106.21646441,0.8,8244.6,393.7,True,1,1,False,False,False,False,0,False,False,False,Course Lock,98.4,265.4,23.0,Calm,19,, 4.5.0,DF059,095XF1800201C0,,0JFJ4006F4,0KPAF1T231018F,52.6,82.3,9.2,3.0,2.2,0,0,DF059,095XF1800201C0,,0JFJ4006F4,0KPAF1T231018F,,, 4.5.0,,,,,,
6/21/2018,10:55:11.01 PM,2m 53.5s,173.5,39.96116362,-106.21646668,2.0,2.0,2.6,8130,0,1.8,0,0.9,0,0,-0.5,0,1,-2.3,160.7,160.7,P-GPS,Other,,16,5,True,,Matrice 210,True,False,,Smart,RC,False,True,False,,,True,,False,False,False,False,False,False,False,False,False,False,0,Follow Yaw,0,-2.4,159.5,159.5,False,False,False,False,False,False,,False,Normal,,,1024,1024,1226,1024,1,False,False,False,False,False,0,False,False,False,False,73,,,,23.9,False,3.973,3.987,3.982,3.983,3.983,3.992,0.019,False,False,3.945,3.962,3.952,3.955,3.962,3.946,0.018,False,False,,,,,0,0,0,15,10,3615.3,1045.10,,Idle,0,20,False,10,True,Go Home,39.9611626,-106.21646441,0.8,8244.6,393.7,True,1,1,False,False,False,False,0,False,False,False,Course Lock,98.4,265.4,23.0,Calm,19,, 4.5.0,DF059,095XF1800201C0,,0JFJ4006F4,0KPAF1T231018F,52.6,82.3,9.2,3.0,2.2,0,0,DF059,095XF1800201C0,,0JFJ4006F4,0KPAF1T231018F,,, 4.5.0,,,,,,
6/21/2018,10:55:11.11 PM,2m 53.6s,173.6,39.96116337,-106.2164666,2.0,2.0,2.6,8130,0,1.8,0,0.9,0,0,-0.7,0,0.7,-2,160.4,160.4,P-GPS,Other,,16,5,True,,Matrice 210,True,False,,Smart,RC,False,True,False,,,True,,False,False,False,False,False,False,False,False,False,False,0,Follow Yaw,0,-2.4,159.4,159.4,False,False,False,False,False,False,,False,Normal,,,1024,1024,1222,1024,1,False,False,False,False,False,0,False,False,False,False,73,,,,24,False,3.973,3.987,3.982,3.983,3.983,3.992,0.019,False,False,3.945,3.962,3.952,3.955,3.962,3.946,0.018,False,False,,,,,0,0,0,15,10,3615.3,1109.16,,Idle,0,20,False,10,True,Go Home,39.9611626,-106.21646441,0.7,8244.6,393.7,True,1,1,False,False,False,False,0,False,False,False,Course Lock,98.4,265.4,23.0,Calm,19,, 4.5.0,DF059,095XF1800201C0,,0JFJ4006F4,0KPAF1T231018F,52.6,82.3,9.2,3.0,2.2,0,0,DF059,095XF1800201C0,,0JFJ4006F4,0KPAF1T231018F,,, 4.5.0,,,,,,
6/21/2018,10:55:11.21 PM,2m 53.7s,173.7,39.96116327,-106.21646653,2.3,2.3,3.0,8130,0,1.8,0,0.9,0,0,-0.9,0,0.9,-2.8,160.2,160.2,P-GPS,Other,,16,5,True,,Matrice 210,True,False,,Smart,RC,False,True,False,,,True,,False,False,False,False,False,False,False,False,False,False,0,Follow Yaw,0,-2.5,159.1,159.1,False,False,False,False,False,False,,False,Normal,,,1024,1024,1225,1024,1,False,False,False,False,False,0,False,False,False,False,73,,,,24,False,3.973,3.987,3.982,3.983,3.983,3.992,0.019,False,False,3.945,3.962,3.952,3.955,3.962,3.946,0.018,False,False,,,,,0,0,0,15,10,3615.3,1109.16,,Idle,0,20,False,10,True,Go Home,39.9611626,-106.21646441,0.7,8244.6,393.7,True,1,1,False,False,False,False,0,False,False,False,Course Lock,98.4,265.4,23.0,Calm,19,, 4.5.0,DF059,095XF1800201C0,,0JFJ4006F4,0KPAF1T231018F,52.6,82.3,9.2,3.0,2.2,0,0,DF059,095XF1800201C0,,0JFJ4006F4,0KPAF1T231018F,,, 4.5.0,,,,,,
6/21/2018,10:55:11.31 PM,2m 53.8s,173.8,39.96116312,-106.2164663,2.3,2.3,3.0,8130,0,1.8,-0.2,0.9,0,0,-1.1,0,1.4,-2.9,160.2,160.2,P-GPS,Other,,16,5,True,,Matrice 210,True,False,,Smart,RC,False,True,False,,,True,,False,False,False,False,False,False,False,False,False,False,0,Follow Yaw,0,-2.7,159.3,159.3,False,False,False,False,False,False,,False,Normal,,,1024,1024,1224,1024,1,False,False,False,False,False,0,False,False,False,False,73,,,,23.556,False,3.906,3.932,3.923,3.923,3.932,3.94,0.034,False,False,3.945,3.962,3.952,3.955,3.962,3.946,0.018,False,False,,,,,0,0,0,15,10,3615.3,1109.16,,Idle,0,20,False,10,True,Go Home,39.9611626,-106.21646441,0.4,8244.6,393.7,True,1,1,False,False,False,False,0,False,False,False,Course Lock,98.4,265.4,23.0,Calm,19,, 4.5.0,DF059,095XF1800201C0,,0JFJ4006F4,0KPAF1T231018F,52.6,82.3,9.2,3.0,2.2,0,0,DF059,095XF1800201C0,,0JFJ4006F4,0KPAF1T231018F,,, 4.5.0,,,,,,
6/21/2018,10:55:11.41 PM,2m 53.9s,173.9,39.96116296,-106.21646625,2.6,2.6,3.3,8130,0,1.8,-0.2,0.9,0,0,-1.1,0,1.5,-2.5,160.3,160.3,P-GPS,Other,,16,5,True,,Matrice 210,True,False,,Smart,RC,False,True,False,,,True,,False,False,False,False,False,False,False,False,False,False,0,Follow Yaw,0,-2.8,159.4,159.4,False,False,False,False,False,False,,False,Normal,,,1024,1024,1227,1024,1,False,False,False,False,False,0,False,False,False,False,73,,,,23.556,False,3.906,3.932,3.923,3.923,3.932,3.94,0.034,False,False,3.945,3.962,3.952,3.955,3.962,3.946,0.018,False,False,,,,,0,0,0,15,10,3615.3,1109.16,,Idle,0,20,False,10,True,Go Home,39.9611626,-106.21646441,0.5,8244.6,393.7,True,1,1,False,False,False,False,0,False,False,False,Course Lock,98.4,265.4,23.0,Calm,19,, 4.5.0,DF059,095XF1800201C0,,0JFJ4006F4,0KPAF1T231018F,52.6,82.3,9.2,3.0,2.2,0,0,DF059,095XF1800201C0,,0JFJ4006F4,0KPAF1T231018F,,, 4.5.0,,,,,,
6/21/2018,10:55:11.51 PM,2m 54.0s,174.0,39.96116278,-106.21646624,3.0,3.0,3.6,8131,0,1.8,-0.5,0.9,0,0,-1.1,0,1,-2.8,160.4,160.4,P-GPS,Other,,16,5,True,,Matrice 210,True,False,,Smart,RC,False,True,False,,,True,,False,False,False,False,False,False,False,False,False,False,0,Follow Yaw,-0.1,-2.8,159.2,159.2,False,False,False,False,False,False,,False,Normal,,,1024,1024,1229,1024,1,False,False,False,False,False,0,False,False,False,False,73,,,,23.556,False,3.906,3.932,3.923,3.923,3.932,3.94,0.034,False,False,3.945,3.962,3.952,3.955,3.962,3.946,0.018,False,False,,,,,0,0,0,15,10,3615.3,1109.16,,Idle,0,20,False,10,True,Go Home,39.9611626,-106.21646441,0.6,8244.6,393.7,True,1,1,False,False,False,False,0,False,False,False,Course Lock,98.4,265.4,23.0,Calm,19,, 4.5.0,DF059,095XF1800201C0,,0JFJ4006F4,0KPAF1T231018F,52.6,82.3,9.2,3.0,2.2,0,0,DF059,095XF1800201C0,,0JFJ4006F4,0KPAF1T231018F,,, 4.5.0,,,,,,
6/21/2018,10:55:11.62 PM,2m 54.1s,174.1,39.96116259,-106.2164663,3.0,3.0,3.6,8131,0,1.8,-0.5,0.9,0,0,-1.1,0,0.5,-3,160.6,160.6,P-GPS,Other,,16,5,True,,Matrice 210,True,False,,Smart,RC,False,True,False,,,True,,False,False,False,False,False,False,False,False,False,False,0,Follow Yaw,0.1,-3.1,159.7,159.7,False,False,False,False,False,False,,False,Normal,,,1024,1024,1228,1024,1,False,False,False,False,False,0,False,False,False,False,73,,,,23.556,False,3.906,3.932,3.923,3.923,3.932,3.94,0.034,False,False,3.945,3.962,3.952,3.955,3.962,3.946,0.018,False,False,,,,,0,0,0,15,10,3615.3,1109.16,,Idle,0,20,False,10,True,Go Home,39.9611626,-106.21646441,0.5,8244.6,393.7,True,1,1,False,False,False,False,0,False,False,False,Course Lock,98.4,265.4,23.0,Calm,19,, 4.5.0,DF059,095XF1800201C0,,0JFJ4006F4,0KPAF1T231018F,52.6,82.3,9.2,3.0,2.2,0,0,DF059,095XF1800201C0,,0JFJ4006F4,0KPAF1T231018F,,, 4.5.0,,,,,,
6/21/2018,10:55:11.72 PM,2m 54.2s,174.2,39.96116236,-106.21646638,3.3,3.3,3.9,8131,0,1.8,-0.5,0.9,0,0,-1.1,0,0.1,-3.4,160.8,160.8,P-GPS,Other,,16,5,True,,Matrice 210,True,False,,Smart,RC,False,True,False,,,True,,False,False,False,False,False,False,False,False,False,False,0,Follow Yaw,0,-3.2,159.7,159.7,False,False,False,False,False,False,,False,Normal,,,1024,1024,1236,1024,1,False,False,False,False,False,0,False,False,False,False,73,,,,23.556,False,3.906,3.932,3.923,3.923,3.932,3.94,0.034,False,False,3.903,3.929,3.913,3.918,3.926,3.909,0.026,False,False,,,,,0,0,0,15,10,3615.3,1109.16,,Idle,0,20,False,10,True,Go Home,39.9611626,-106.21646441,0.4,8244.6,393.7,True,1,1,False,False,False,False,0,False,False,False,Course Lock,98.4,265.4,23.0,Calm,19,, 4.5.0,DF059,095XF1800201C0,,0JFJ4006F4,0KPAF1T231018F,52.6,82.3,9.2,3.0,2.2,0,0,DF059,095XF1800201C0,,0JFJ4006F4,0KPAF1T231018F,,, 4.5.0,,,,,,
6/21/2018,10:55:11.82 PM,2m 54.3s,174.3,39.961162,-106.21646667,3.3,3.3,4.3,8131,1.5,1.8,-0.5,0.9,0,0,-1.1,0,-0.3,-3.9,161,161,P-GPS,Other,,16,5,True,,Matrice 210,True,False,,Smart,RC,False,True,False,,,True,,False,False,False,False,False,False,False,False,False,False,0,Follow Yaw,0,-3.5,160,160,False,False,False,False,False,False,,False,Normal,,,1024,1024,1236,1024,1,False,False,False,False,False,0,False,False,False,False,73,,,,23.556,False,3.906,3.932,3.923,3.923,3.932,3.94,0.034,False,False,3.903,3.929,3.913,3.918,3.926,3.909,0.026,False,False,,,,,0,0,0,15,10,3615.3,1109.16,,Idle,0,20,False,10,True,Go Home,39.9611626,-106.21646441,0.7,8244.6,393.7,True,1,1,False,False,False,False,0,False,False,False,Course Lock,98.4,265.4,23.0,Calm,19,, 4.5.0,DF059,095XF1800201C0,,0JFJ4006F4,0KPAF1T231018F,52.6,82.3,9.2,3.0,2.2,0,0,DF059,095XF1800201C0,,0JFJ4006F4,0KPAF1T231018F,,, 4.5.0,,,,,,
6/21/2018,10:55:11.92 PM,2m 54.4s,174.4,39.96116176,-106.21646678,3.6,3.6,4.3,8131,0,1.8,-0.2,0.9,-0.2,0,-1.1,0,0,-4.1,161.1,161.1,P-GPS,Other,,16,5,True,,Matrice 210,True,False,,Smart,RC,False,True,False,,,True,,False,False,False,False,False,False,False,False,False,False,0,Follow Yaw,0,-3.6,160.1,160.1,False,False,False,False,False,False,,False,Normal,,,1024,1024,1233,1024,1,False,False,False,False,False,0,False,False,False,False,73,,,,23.556,False,3.906,3.932,3.923,3.923,3.932,3.94,0.034,False,False,3.903,3.929,3.913,3.918,3.926,3.909,0.026,False,False,,,,,0,0,0,15,10,3615.3,1109.16,,Idle,0,20,False,10,True,Go Home,39.9611626,-106.21646441,0.8,8244.6,393.7,True,1,1,False,False,False,False,0,False,False,False,Course Lock,98.4,265.4,23.0,Calm,19,, 4.5.0,DF059,095XF1800201C0,,0JFJ4006F4,0KPAF1T231018F,52.6,82.3,9.2,3.0,2.2,0,0,DF059,095XF1800201C0,,0JFJ4006F4,0KPAF1T231018F,,, 4.5.0,,,,,,
6/21/2018,10:55:11.94 PM,2m 54.5s,174.5,39.96116158,-106.2164669,3.9,3.9,4.6,8132,0,1.8,0,0.9,-0.2,0,-1.1,0,0.5,-4.3,161.2,161.2,P-GPS,Other,,16,5,True,,Matrice 210,True,False,,Smart,RC,False,True,False,,,True,,False,False,False,False,False,False,False,False,False,False,0,Follow Yaw,0,-3.9,160.1,160.1,False,False,False,False,False,False,,False,Normal,,,1024,1024,1254,1024,1,False,False,False,False,False,0,False,False,False,False,73,,,,23.556,False,3.906,3.932,3.923,3.923,3.932,3.94,0.034,False,False,3.903,3.929,3.913,3.918,3.926,3.909,0.026,False,False,,,,,0,0,0,15,10,3615.3,1109.16,,Idle,0,20,False,10,True,Go Home,39.9611626,-106.21646441,0.8,8244.6,393.7,True,1,1,False,False,False,False,0,False,False,False,Course Lock,98.4,265.4,23.0,Calm,19,, 4.5.0,DF059,095XF1800201C0,,0JFJ4006F4,0KPAF1T231018F,52.6,82.3,9.2,3.0,2.2,0,0,DF059,095XF1800201C0,,0JFJ4006F4,0KPAF1T231018F,,, 4.5.0,,,,,,
6/21/2018,10:55:12.13 PM,2m 54.6s,174.6,39.9611615,-106.21646708,3.9,3.9,4.6,8132,0,1.8,0,0.9,-0.2,0,-1.1,0,1.3,-5,161.2,161.2,P-GPS,Other,,16,5,True,,Matrice 210,True,False,,Smart,RC,False,True,False,,,True,,False,False,False,False,False,False,False,False,False,False,0,Follow Yaw,0,-4.1,160,160,False,False,False,False,False,False,,False,Normal,,,1024,1024,1236,1024,1,False,False,False,False,False,0,False,False,False,False,73,,,,24.142,False,3.906,3.932,3.923,3.923,3.932,3.94,0.034,False,False,3.903,3.929,3.913,3.918,3.926,3.909,0.026,False,False,,,,,0,0,0,15,10,3615.3,1479.12,,Idle,0,20,False,10,True,Go Home,39.9611626,-106.21646441,0.8,8244.6,393.7,True,1,1,False,False,False,False,0,False,False,False,Course Lock,98.4,265.4,23.0,Calm,19,, 4.5.0,DF059,095XF1800201C0,,0JFJ4006F4,0KPAF1T231018F,52.6,82.3,9.2,3.0,2.2,0,0,DF059,095XF1800201C0,,0JFJ4006F4,0KPAF1T231018F,,, 4.5.0,,,,,,
6/21/2018,10:55:12.15 PM,2m 54.7s,174.7,39.96116158,-106.2164675,4.3,4.3,4.9,8132,0,1.8,0,0.9,-0.2,0,-1.3,0,2.6,-5.3,161,161,P-GPS,Other,,16,5,True,,Matrice 210,True,False,,Smart,RC,False,True,False,,,True,,False,False,False,False,False,False,False,False,False,False,0,Follow Yaw,0,-4.3,160.1,160.1,False,False,False,False,False,False,,False,Normal,,,1024,1024,1240,1024,1,False,False,False,False,False,0,False,False,False,False,73,,,,24.142,False,3.906,3.932,3.923,3.923,3.932,3.94,0.034,False,False,3.903,3.929,3.913,3.918,3.926,3.909,0.026,False,False,,,,,0,0,0,15,10,3615.3,1479.12,,Idle,0,20,False,10,True,Go Home,39.9611626,-106.21646441,1.0,8244.6,393.7,True,1,1,False,False,False,False,0,False,False,False,Course Lock,98.4,265.4,23.0,Calm,19,, 4.5.0,DF059,095XF1800201C0,,0JFJ4006F4,0KPAF1T231018F,52.6,82.3,9.2,3.0,2.2,0,0,DF059,095XF1800201C0,,0JFJ4006F4,0KPAF1T231018F,,, 4.5.0,,,,,,
6/21/2018,10:55:12.23 PM,2m 54.8s,174.8,39.96116167,-106.21646776,4.3,4.3,5.2,8132,1.5,1.8,0,0.9,-0.2,0,-1.3,0,3.8,-5.6,160.8,160.8,P-GPS,Other,,16,5,True,,Matrice 210,True,False,,Smart,RC,False,True,False,,,True,,False,False,False,False,False,False,False,False,False,False,0,Follow Yaw,0,-4.5,159.9,159.9,False,False,False,False,False,False,,False,Normal,,,1024,1024,1258,1024,1,False,False,False,False,False,0,False,False,False,False,73,,,,24.142,False,3.906,3.932,3.923,3.923,3.932,3.94,0.034,False,False,3.903,3.929,3.913,3.918,3.926,3.909,0.026,False,False,,,,,0,0,0,15,10,3615.3,1479.12,,Idle,0,20,False,10,True,Go Home,39.9611626,-106.21646441,1.0,8244.6,393.7,True,1,1,False,False,False,False,0,False,False,False,Course Lock,98.4,265.4,23.0,Calm,19,, 4.5.0,DF059,095XF1800201C0,,0JFJ4006F4,0KPAF1T231018F,52.6,82.3,9.2,3.0,2.2,0,0,DF059,095XF1800201C0,,0JFJ4006F4,0KPAF1T231018F,,, 4.5.0,,,,,,
6/21/2018,10:55:12.33 PM,2m 54.9s,174.9,39.96116184,-106.21646801,4.6,4.6,5.2,8132,0,1.8,0.2,0.9,-0.2,0,-1.3,0,4.2,-5.4,160.6,160.6,P-GPS,Other,,16,5,True,,Matrice 210,True,False,,Smart,RC,False,True,False,,,True,,False,False,False,False,False,False,False,False,False,False,0,Follow Yaw,0,-4.7,159.4,159.4,False,False,False,False,False,False,,False,Normal,,,1024,1024,1279,1024,1,False,False,False,False,False,0,False,False,False,False,73,,,,23.533,False,3.906,3.928,3.918,3.921,3.925,3.935,0.034,False,False,3.903,3.929,3.913,3.918,3.926,3.909,0.026,False,False,,,,,0,0,0,15,10,3615.3,1479.12,,Idle,0,20,False,10,True,Go Home,39.9611626,-106.21646441,1.1,8244.6,393.7,True,1,1,False,False,False,False,0,False,False,False,Course Lock,98.4,265.4,23.0,Calm,19,, 4.5.0,DF059,095XF1800201C0,,0JFJ4006F4,0KPAF1T231018F,52.6,82.3,9.2,3.0,2.2,0,0,DF059,095XF1800201C0,,0JFJ4006F4,0KPAF1T231018F,,, 4.5.0,,,,,,
6/21/2018,10:55:12.43 PM,2m 55.0s,175.0,39.96116203,-106.21646825,4.9,4.9,5.6,8133,0,1.8,0.2,0.9,-0.2,0,-1.3,0,3.3,-5.4,160.5,160.5,P-GPS,Other,,16,5,True,,Matrice 210,True,False,,Smart,RC,False,True,False,,,True,,False,False,False,False,False,False,False,False,False,False,0,Follow Yaw,0,-4.7,159.2,159.2,False,False,False,False,False,False,,False,Normal,,,1024,1024,1306,1024,1,False,False,False,False,False,0,False,False,False,False,73,,,,23.533,False,3.906,3.928,3.918,3.921,3.925,3.935,0.034,False,False,3.903,3.929,3.913,3.918,3.926,3.909,0.026,False,False,,,,,0,0,0,15,10,3615.3,1479.12,,Idle,0,20,False,10,True,Go Home,39.9611626,-106.21646441,1.1,8244.6,393.7,True,1,1,False,False,False,False,0,False,False,False,Course Lock,98.4,265.4,23.0,Calm,19,, 4.5.0,DF059,095XF1800201C0,,0JFJ4006F4,0KPAF1T231018F,52.6,82.3,9.2,3.0,2.2,0,0,DF059,095XF1800201C0,,0JFJ4006F4,0KPAF1T231018F,,, 4.5.0,,,,,,
6/21/2018,10:55:12.54 PM,2m 55.1s,175.1,39.96116267,-106.21646846,4.9,4.9,5.9,8133,1.1,1.8,0.2,0.9,-0.2,0,-1.3,0,1.3,-5.1,160.6,160.6,P-GPS,Other,,16,5,True,,Matrice 210,True,False,,Smart,RC,False,True,False,,,True,,False,False,False,False,False,False,False,False,False,False,0,Follow Yaw,0,-5,159.2,159.2,False,False,False,False,False,False,,False,Normal,,,1024,1024,1299,1024,1,False,False,False,False,False,0,False,False,False,False,73,,,,23.533,False,3.906,3.928,3.918,3.921,3.925,3.935,0.034,False,False,3.903,3.929,3.913,3.918,3.926,3.909,0.026,False,False,,,,,0,0,0,15,10,3615.3,1479.12,,Idle,0,20,False,10,True,Go Home,39.9611626,-106.21646441,1.2,8244.6,393.7,True,1,1,False,False,False,False,0,False,False,False,Course Lock,98.4,265.4,23.0,Calm,19,, 4.5.0,DF059,095XF1800201C0,,0JFJ4006F4,0KPAF1T231018F,52.6,82.3,9.2,3.0,2.2,0,0,DF059,095XF1800201C0,,0JFJ4006F4,0KPAF1T231018F,,, 4.5.0,,,,,,
6/21/2018,10:55:12.64 PM,2m 55.2s,175.2,39.96116288,-106.21646858,5.2,5.2,5.9,8133,1.5,1.8,0.2,0.9,-0.2,0,-1.6,0,-0.3,-4.2,160.6,160.6,P-GPS,Other,,16,5,True,,Matrice 210,True,False,,Smart,RC,False,True,False,,,True,,False,False,False,False,False,False,False,False,False,False,0,Follow Yaw,0,-4.8,159.1,159.1,False,False,False,False,False,False,,False,Normal,,,1024,1024,1276,1024,1,False,False,False,False,False,0,False,False,False,False,73,,,,23.533,False,3.906,3.928,3.918,3.921,3.925,3.935,0.034,False,False,3.903,3.929,3.913,3.918,3.926,3.909,0.026,False,False,,,,,0,0,0,15,10,3615.3,1479.12,,Idle,0,20,False,10,True,Go Home,39.9611626,-106.21646441,1.2,8244.6,393.7,True,1,1,False,False,False,False,0,False,False,False,Course Lock,98.4,265.4,23.0,Calm,19,, 4.5.0,DF059,095XF1800201C0,,0JFJ4006F4,0KPAF1T231018F,52.6,82.3,9.2,3.0,2.2,0,0,DF059,095XF1800201C0,,0JFJ4006F4,0KPAF1T231018F,,, 4.5.0,,,,,,
6/21/2018,10:55:12.74 PM,2m 55.3s,175.3,39.96116302,-106.21646862,5.6,5.6,6.2,8133,0,1.8,0,0.9,0,0,-1.8,0,-1.8,-4.2,160.8,160.8,P-GPS,Other,,16,5,True,,Matrice 210,True,False,,Smart,RC,False,True,False,,,True,,False,False,False,False,False,False,False,False,False,False,0,Follow Yaw,0,-4.9,159.2,159.2,False,False,False,False,False,False,,False,Normal,,,1024,1024,1271,1024,1,False,False,False,False,False,0,False,False,False,False,73,,,,23.533,False,3.906,3.928,3.918,3.921,3.925,3.935,0.034,False,False,3.898,3.922,3.912,3.913,3.922,3.904,0.026,False,False,,,,,0,0,0,15,10,3615.3,1479.12,,Idle,0,20,False,10,True,Go Home,39.9611626,-106.21646441,1.2,8244.6,393.7,True,1,1,False,False,False,False,0,False,False,False,Course Lock,98.4,265.4,23.0,Calm,19,, 4.5.0,DF059,095XF1800201C0,,0JFJ4006F4,0KPAF1T231018F,52.6,82.3,9.2,3.0,2.2,0,0,DF059,095XF1800201C0,,0JFJ4006F4,0KPAF1T231018F,,, 4.5.0,,,,,,
6/21/2018,10:55:12.84 PM,2m 55.4s,175.4,39.96116307,-106.21646864,5.9,5.9,6.6,8134,0,1.8,0,0.9,0,0,-1.8,0,-4,-4.1,161.1,161.1,P-GPS,Other,,16,5,True,,Matrice 210,True,False,,Smart,RC,False,True,False,,,True,,False,False,False,False,False,False,False,False,False,False,0,Follow Yaw,0,-4.9,159.5,159.5,False,False,False,False,False,False,,False,Normal,,,1024,1024,1308,1024,1,False,False,False,False,False,0,False,False,False,False,73,,,,23.533,False,3.906,3.928,3.918,3.921,3.925,3.935,0.034,False,False,3.898,3.922,3.912,3.913,3.922,3.904,0.026,False,False,,,,,0,0,0,15,10,3615.3,1479.12,,Idle,0,20,False,10,True,Go Home,39.9611626,-106.21646441,1.2,8244.6,393.7,True,1,1,False,False,False,False,0,False,False,False,Course Lock,98.4,265.4,23.0,Calm,19,, 4.5.0,DF059,095XF1800201C0,,0JFJ4006F4,0KPAF1T231018F,52.6,82.3,9.2,3.0,2.2,0,0,DF059,095XF1800201C0,,0JFJ4006F4,0KPAF1T231018F,,, 4.5.0,,,,,,
6/21/2018,10:55:12.94 PM,2m 55.5s,175.5,39.96116309,-106.21646848,5.9,5.9,6.9,8134,0,1.8,-0.2,0.9,0,0,-1.8,0,-5.1,-4.1,161.5,161.5,P-GPS,Other,,16,5,True,,Matrice 210,True,False,,Smart,RC,False,True,False,,,True,,False,False,False,False,False,False,False,False,False,False,0,Follow Yaw,0,-5.1,159.9,159.9,False,False,False,False,False,False,,False,Normal,,,1024,1024,1308,1024,1,False,False,False,False,False,0,False,False,False,False,73,,,,23.533,False,3.906,3.928,3.918,3.921,3.925,3.935,0.034,False,False,3.898,3.922,3.912,3.913,3.922,3.904,0.026,False,False,,,,,0,0,0,15,10,3615.3,1479.12,,Idle,0,20,False,10,True,Go Home,39.9611626,-106.21646441,1.2,8244.6,393.7,True,1,1,False,False,False,False,0,False,False,False,Course Lock,98.4,265.4,23.0,Calm,19,, 4.5.0,DF059,095XF1800201C0,,0JFJ4006F4,0KPAF1T231018F,52.6,82.3,9.2,3.0,2.2,0,0,DF059,095XF1800201C0,,0JFJ4006F4,0KPAF1T231018F,,, 4.5.0,,,,,,
6/21/2018,10:55:13.04 PM,2m 55.6s,175.6,39.96116299,-106.21646847,6.2,6.2,6.9,8134,1.1,1.8,-0.2,0.9,0,0,-1.8,0,-5.7,-4.4,162.1,162.1,P-GPS,Other,,16,5,True,,Matrice 210,True,False,,Smart,RC,False,True,False,,,True,,False,False,False,False,False,False,False,False,False,False,0,Follow Yaw,0,-5,160.4,160.4,False,False,False,False,False,False,,False,Normal,,,1024,1024,1236,1024,1,False,False,False,False,False,0,False,False,False,False,73,,,,24.14,False,3.906,3.928,3.918,3.921,3.925,3.935,0.034,False,False,3.898,3.922,3.912,3.913,3.922,3.904,0.026,False,False,,,,,0,0,0,15,10,3615.3,2710.31,,Idle,0,20,False,10,True,Go Home,39.9611626,-106.21646441,1.2,8244.6,393.7,True,1,1,False,False,False,False,0,False,False,False,Course Lock,98.4,265.4,23.0,Calm,19,, 4.5.0,DF059,095XF1800201C0,,0JFJ4006F4,0KPAF1T231018F,52.6,82.3,9.2,3.0,2.2,0,0,DF059,095XF1800201C0,,0JFJ4006F4,0KPAF1T231018F,,, 4.5.0,,,,,,
6/21/2018,10:55:13.14 PM,2m 55.7s,175.7,39.96116285,-106.2164684,6.6,6.6,7.2,8134,1.1,1.8,-0.5,0.9,0,0,-2.0,0,-5.1,-5,162.5,162.5,P-GPS,Other,,16,5,True,,Matrice 210,True,False,,Smart,RC,False,True,False,,,True,,False,False,False,False,False,False,False,False,False,False,0,Follow Yaw,0,-5.4,160.6,160.6,False,False,False,False,False,False,,False,Normal,,,1024,1024,1024,1024,1,False,False,False,False,False,0,False,False,False,False,73,,,,24.14,False,3.906,3.928,3.918,3.921,3.925,3.935,0.034,False,False,3.898,3.922,3.912,3.913,3.922,3.904,0.026,False,False,,,,,0,0,0,15,10,3615.3,2710.31,,Idle,0,20,False,10,True,Go Home,39.9611626,-106.21646441,1.2,8244.6,393.7,True,1,1,False,False,False,False,0,False,False,False,Course Lock,98.4,265.4,23.0,Calm,19,, 4.5.0,DF059,095XF1800201C0,,0JFJ4006F4,0KPAF1T231018F,52.6,82.3,9.2,3.0,2.2,0,0,DF059,095XF1800201C0,,0JFJ4006F4,0KPAF1T231018F,,, 4.5.0,,,,,,
