sep=,
CUSTOM.date [local], CUSTOM.updateTime [local], OSD.flyTime, OSD.flyTime [s], OSD.latitude, OSD.longitude, OSD.height [ft], OSD.heightMax [ft], OSD.vpsHeight [ft], OSD.altitude [ft], OSD.hSpeed [MPH], OSD.hSpeedMax [MPH], OSD.xSpeed [MPH], OSD.xSpeedMax [MPH], OSD.ySpeed [MPH], OSD.ySpeedMax [MPH], OSD.zSpeed [MPH], OSD.zSpeedMax [MPH], OSD.pitch, OSD.roll, OSD.yaw, OSD.yaw [360], OSD.flycState, OSD.flycCommand, OSD.flightAction, OSD.gpsNum, OSD.gpsLevel, OSD.isGPSUsed, OSD.nonGPSCause, OSD.droneType, OSD.isSwaveWork, OSD.waveError, OSD.goHomeStatus, OSD.batteryType, OSD.ctrlDevice, OSD.isOnGround, OSD.isMotorOn, OSD.isMotorBlocked, OSD.motorStartFailedCause, OSD.motorFailReason, OSD.isImuPreheated, OSD.imuInitFailReason, OSD.isAcceletorOverRange, OSD.isBarometerDeadInAir, OSD.isCompassError, OSD.isGoHomeHeightModified, OSD.canIOCWork, OSD.isNotEnoughForce, OSD.isOutOfLimit, OSD.isPropellerCatapult, OSD.isVibrating, OSD.isVisionUsed, OSD.voltageWarning, GIMBAL.mode, GIMBAL.pitch, GIMBAL.roll, GIMBAL.yaw, GIMBAL.yaw [360], GIMBAL.isPitchAtLimit, GIMBAL.isRollAtLimit, GIMBAL.isYawAtLimit, GIMBAL.isStuck, CAMERA.isPhoto, CAMERA.isVideo, CAMERA.filename, CAMERA.sdCardIsInserted, CAMERA.sdCardState, RC.downlinkSignal, RC.uplinkSignal, RC.aileron, RC.elevator, RC.throttle, RC.rudder, RC.mode, RC.goHomeDepressed, RC.recordDepressed, RC.shutterDepressed, RC.playbackDepressed, RC.wheelDepressed, RC.wheelOffset, RC.custom1Depressed, RC.custom2Depressed, RC.custom3Depressed, RC.custom4Depressed, BATTERY.chargeLevel, BATTERY.currentPV [V], BATTERY.currentCapacity [mAh], BATTERY.fullCapacity [mAh], BATTERY.voltage [V], BATTERY.isCellVoltageEstimated, BATTERY.cellVoltage1 [V], BATTERY.cellVoltage2 [V], BATTERY.cellVoltage3 [V], BATTERY.cellVoltage4 [V], BATTERY.cellVoltage5 [V], BATTERY.cellVoltage6 [V], BATTERY.maxCellVoltageDeviation, BATTERY.isCellVoltageDeviationHigh, BATTERY.isVoltageLow, BATTERY2.cellVoltage1 [V], BATTERY2.cellVoltage2 [V], BATTERY2.cellVoltage3 [V], BATTERY2.cellVoltage4 [V], BATTERY2.cellVoltage5 [V], BATTERY2.cellVoltage6 [V], BATTERY2.maxCellVoltageDeviation, BATTERY2.isCellVoltageDeviationHigh, BATTERY2.isVoltageLow, BATTERY.current [A], BATTERY.temperature [F], BATTERY.minTemperature [F], BATTERY.maxTemperature [F], BATTERY.usefulTime [s], BATTERY.goHomeTime [s], BATTERY.landTime [s], BATTERY.goHomeBattery, BATTERY.landBattery, BATTERY.safeFlyRadius, BATTERY.volumeConsume, BATTERY.status, BATTERY.goHomeStatus, BATTERY.goHomeCountdown, BATTERY.lowWarning, BATTERY.lowWarningGoHome, BATTERY.seriousLowWarning, BATTERY.seriousLowWarningLanding, MC.failSafeAction, HOME.latitude, HOME.longitude, HOME.distance [ft], HOME.height [ft], HOME.heightLimit [ft], HOME.isHomeRecord, HOME.goHomeMode, HOME.aircraftHeadDirection, HOME.isDynamicHomePointEnabled, HOME.isReachedLimitDistance, HOME.isReachedLimitHeight, HOME.isCompassCeleing, HOME.compassCeleStatus, HOME.isMultipleFlightModeEnabled, HOME.isBeginnerMode, HOME.isIOCEnabled, HOME.iocMode, HOME.goHomeHeight [ft], HOME.courseLockAngle, HOME.forceLandingHeight [ft], HOME.wind, HOME.dataRecorderFileIndex, RECOVER.appType, RECOVER.appVersion, RECOVER.aircraftName, RECOVER.aircraftSerial, RECOVER.cameraSerial, RECOVER.rcSerial, RECOVER.batterySerial, DETAILS.totalTime [s], DETAILS.totalDistance [ft], DETAILS.maxHeight [ft], DETAILS.maxHorizontalSpeed [MPH], DETAILS.maxVerticalSpeed [MPH], DETAILS.photoNum, DETAILS.videoTime [s], DETAILS.aircraftName, DETAILS.aircraftSerial, DETAILS.cameraSerial, DETAILS.rcSerial, DETAILS.batterySerial, DETAILS.appName, DETAILS.appType, DETAILS.appVersion, APPGPS.latitude, APPGPS.longitude, APPGPS.accuracy, APP.message, APP.tip, APP.warning
6/21/2018,10:56:59.04 PM,3m 42.0s,222.0,39.961157,-106.2164589,0,0,0.3,8128,0,0,0,0,0,0,0,0,1.1,0.6,160.9,160.9,Starting Motors,Other,Takeoff (RC Assisted),16,5,True,,Matrice 210,True,False,,Smart,RC,True,True,False,,,True,,False,False,False,False,False,False,False,False,False,False,0,Free,0,0,0,0,False,False,False,False,False,False,,False,Normal,,,1024,1024,1022,1024,1,False,False,False,False,False,0,False,False,False,False,67,,,,23.827,True,,,,,,,,False,False,,,,,,,,False,False,,,,,0,1,0,15,10,1801.8,1058.16,,Idle,0,20,False,10,True,Go Home,39.9611626,-106.21646441,2.6,8246.9,393.7,True,1,1,False,False,False,False,0,False,False,False,Course Lock,98.4,265.4,23.0,Calm,19,, 4.5.0,DF059,095XF1800201C0,,0JFJ4006F4,0KPAF1T231018F,103.5,147.6,14.1,3.0,2.9,0,0,DF059,095XF1800201C0,,0JFJ4006F4,0KPAF1T231018F,,, 4.5.0,,,,Data Recorder File Index is 19.,,
6/21/2018,10:56:59.14 PM,3m 42.1s,222.1,39.96115698,-106.21645888,0,0,0.3,8128,0,0,0,0,0,0,0,0,1.1,0.6,160.9,160.9,Starting Motors,Other,Takeoff (RC Assisted),16,5,True,,Matrice 210,True,False,,Smart,RC,True,True,False,,,True,,False,False,False,False,False,False,False,False,False,False,0,Follow Yaw,0,-0.4,160.8,160.8,False,False,False,False,False,False,,False,Normal,,,1024,1024,1024,1024,1,False,False,False,False,False,0,False,False,False,False,67,,,,23.827,True,,,,,,,,False,False,,,,,,,,False,False,,,,,0,1,0,15,10,1801.8,1058.16,,Idle,0,20,False,10,True,Go Home,39.9611626,-106.21646441,2.6,8246.9,393.7,True,1,1,False,False,False,False,0,False,False,False,Course Lock,98.4,265.4,23.0,Calm,19,, 4.5.0,DF059,095XF1800201C0,,0JFJ4006F4,0KPAF1T231018F,103.5,147.6,14.1,3.0,2.9,0,0,DF059,095XF1800201C0,,0JFJ4006F4,0KPAF1T231018F,,, 4.5.0,,,,,,
6/21/2018,10:56:59.24 PM,3m 42.2s,222.2,39.96115691,-106.21645883,0,0,0.3,8128,0,0,0,0,0,0,0,0,1,0.6,160.9,160.9,Starting Motors,Other,Takeoff (RC Assisted),16,5,True,,Matrice 210,True,False,,Smart,RC,True,True,False,,,True,,False,False,False,False,False,False,False,False,False,False,0,Follow Yaw,0,-0.4,160.9,160.9,False,False,False,False,False,False,,False,Normal,,,1024,1024,1024,1024,1,False,False,False,False,False,0,False,False,False,False,67,,,,23.851,False,3.972,3.973,3.973,3.978,3.973,3.982,0.01,False,False,,,,,,,,False,False,,,,,0,1,0,15,10,1801.8,1058.16,,Idle,0,20,False,10,True,Go Home,39.9611626,-106.21646441,2.6,8246.9,393.7,True,1,1,False,False,False,False,0,False,False,False,Course Lock,98.4,265.4,23.0,Calm,19,, 4.5.0,DF059,095XF1800201C0,,0JFJ4006F4,0KPAF1T231018F,103.5,147.6,14.1,3.0,2.9,0,0,DF059,095XF1800201C0,,0JFJ4006F4,0KPAF1T231018F,,, 4.5.0,,,,,,
6/21/2018,10:56:59.34 PM,3m 42.3s,222.3,39.96115689,-106.21645881,0,0,0.3,8128,0,0,0,0,0,0,0,0,1,0.6,160.9,160.9,Starting Motors,Other,Takeoff (RC Assisted),16,5,True,,Matrice 210,True,False,,Smart,RC,True,True,False,,,True,,False,False,False,False,False,False,False,False,False,False,0,Follow Yaw,0,-0.4,160.9,160.9,False,False,False,False,False,False,,False,Normal,,,1024,1024,1024,1024,1,False,False,False,False,False,0,False,False,False,False,67,,,,23.851,False,3.972,3.973,3.973,3.978,3.973,3.982,0.01,False,False,,,,,,,,False,False,,,,,0,1,0,15,10,1801.8,1058.16,,Idle,0,20,False,10,True,Go Home,39.9611626,-106.21646441,2.6,8246.9,393.7,True,1,1,False,False,False,False,0,False,False,False,Course Lock,98.4,265.4,23.0,Calm,19,, 4.5.0,DF059,095XF1800201C0,,0JFJ4006F4,0KPAF1T231018F,103.5,147.6,14.1,3.0,2.9,0,0,DF059,095XF1800201C0,,0JFJ4006F4,0KPAF1T231018F,,, 4.5.0,,,,,,
6/21/2018,10:56:59.54 PM,3m 42.4s,222.4,39.96115688,-106.21645879,0,0,0.3,8128,0,0,0,0,0,0,0,0,1.1,0.6,160.9,160.9,Starting Motors,Other,Takeoff (RC Assisted),16,5,True,,Matrice 210,True,False,,Smart,RC,True,True,False,,,True,,False,False,False,False,False,False,False,False,False,False,0,Follow Yaw,0,-0.4,160.9,160.9,False,False,False,False,False,False,,False,Normal,,,1024,1024,1024,1024,1,False,False,False,False,False,0,False,False,False,False,67,,,,23.851,False,3.972,3.973,3.973,3.978,3.973,3.982,0.01,False,False,,,,,,,,False,False,,,,,0,1,0,15,10,1801.8,1058.16,,Idle,0,20,False,10,True,Go Home,39.9611626,-106.21646441,2.6,8246.9,393.7,True,1,1,False,False,False,False,0,False,False,False,Course Lock,98.4,265.4,23.0,Calm,19,, 4.5.0,DF059,095XF1800201C0,,0JFJ4006F4,0KPAF1T231018F,103.5,147.6,14.1,3.0,2.9,0,0,DF059,095XF1800201C0,,0JFJ4006F4,0KPAF1T231018F,,, 4.5.0,,,,,,
6/21/2018,10:56:59.64 PM,3m 42.5s,222.5,39.96115687,-106.21645877,0,0,0.3,8128,0,0,0,0,0,0,0,0,1.1,0.6,160.9,160.9,Starting Motors,Other,Takeoff (RC Assisted),16,5,True,,Matrice 210,True,False,,Smart,RC,True,True,False,,,True,,False,False,False,False,False,False,False,False,False,False,0,Follow Yaw,0,-0.4,160.9,160.9,False,False,False,False,False,False,,False,Normal,,,1024,1024,1024,1024,1,False,False,False,False,False,0,False,False,False,False,67,,,,23.851,False,3.972,3.973,3.973,3.978,3.973,3.982,0.01,False,False,,,,,,,,False,False,,,,,0,1,0,15,10,1801.8,1058.16,,Idle,0,20,False,10,True,Go Home,39.9611626,-106.21646441,2.6,8246.9,393.7,True,1,1,False,False,False,False,0,False,False,False,Course Lock,98.4,265.4,23.0,Calm,19,, 4.5.0,DF059,095XF1800201C0,,0JFJ4006F4,0KPAF1T231018F,103.5,147.6,14.1,3.0,2.9,0,0,DF059,095XF1800201C0,,0JFJ4006F4,0KPAF1T231018F,,, 4.5.0,,,,,,
6/21/2018,10:56:59.74 PM,3m 42.6s,222.6,39.96115686,-106.21645876,0,0,0.3,8128,0,0,0,0,0,0,0,0,1.1,0.6,160.9,160.9,Starting Motors,Other,Takeoff (RC Assisted),16,5,True,,Matrice 210,True,False,,Smart,RC,True,True,False,,,True,,False,False,False,False,False,False,False,False,False,False,0,Follow Yaw,0,-0.4,160.9,160.9,False,False,False,False,False,False,,False,Normal,,,1024,1024,1024,1024,1,False,False,False,False,False,0,False,False,False,False,67,,,,23.851,False,3.972,3.973,3.973,3.978,3.973,3.982,0.01,False,False,3.966,3.969,3.965,3.97,3.969,3.959,0.011,False,False,,,,,0,1,0,15,10,1801.8,1058.16,,Idle,0,20,False,10,True,Go Home,39.9611626,-106.21646441,2.6,8246.9,393.7,True,1,1,False,False,False,False,0,False,False,False,Course Lock,98.4,265.4,23.0,Calm,19,, 4.5.0,DF059,095XF1800201C0,,0JFJ4006F4,0KPAF1T231018F,103.5,147.6,14.1,3.0,2.9,0,0,DF059,095XF1800201C0,,0JFJ4006F4,0KPAF1T231018F,,, 4.5.0,,,,,,
6/21/2018,10:56:59.85 PM,3m 42.7s,222.7,39.96115687,-106.21645875,0,0,0.3,8128,0,0,0,0,0,0,0,0,1,0.6,160.9,160.9,Starting Motors,Other,Takeoff (RC Assisted),16,5,True,,Matrice 210,True,False,,Smart,RC,True,True,False,,,True,,False,False,False,False,False,False,False,False,False,False,0,Follow Yaw,0,-0.5,160.9,160.9,False,False,False,False,False,False,,False,Normal,,,1024,1024,1024,1024,1,False,False,False,False,False,0,False,False,False,False,67,,,,23.851,False,3.972,3.973,3.973,3.978,3.973,3.982,0.01,False,False,3.966,3.969,3.965,3.97,3.969,3.959,0.011,False,False,,,,,0,1,0,15,10,1801.8,1058.16,,Idle,0,20,False,10,True,Go Home,39.9611626,-106.21646441,2.6,8246.9,393.7,True,1,1,False,False,False,False,0,False,False,False,Course Lock,98.4,265.4,23.0,Calm,19,, 4.5.0,DF059,095XF1800201C0,,0JFJ4006F4,0KPAF1T231018F,103.5,147.6,14.1,3.0,2.9,0,0,DF059,095XF1800201C0,,0JFJ4006F4,0KPAF1T231018F,,, 4.5.0,,,,,,
6/21/2018,10:56:59.95 PM,3m 42.8s,222.8,39.96115688,-106.21645875,0,0,0.3,8128,0,0,0,0,0,0,0,0,0.9,0.6,160.9,160.9,Starting Motors,Other,Takeoff (RC Assisted),16,5,True,,Matrice 210,True,False,,Smart,RC,True,True,False,,,True,,False,False,False,False,False,False,False,False,False,False,0,Follow Yaw,0,-0.5,160.9,160.9,False,False,False,False,False,False,,False,Normal,,,1024,1024,1024,1024,1,False,False,False,False,False,0,False,False,False,False,67,,,,23.851,False,3.972,3.973,3.973,3.978,3.973,3.982,0.01,False,False,3.966,3.969,3.965,3.97,3.969,3.959,0.011,False,False,,,,,0,1,0,15,10,1801.8,1058.16,,Idle,0,20,False,10,True,Go Home,39.9611626,-106.21646441,2.6,8246.9,393.7,True,1,1,False,False,False,False,0,False,False,False,Course Lock,98.4,265.4,23.0,Calm,19,, 4.5.0,DF059,095XF1800201C0,,0JFJ4006F4,0KPAF1T231018F,103.5,147.6,14.1,3.0,2.9,0,0,DF059,095XF1800201C0,,0JFJ4006F4,0KPAF1T231018F,,, 4.5.0,,,,,,
6/21/2018,10:57:00.05 PM,3m 42.9s,222.9,39.96115688,-106.21645879,0,0,0.3,8128,0,0,0,0,0,0,0,0,0.8,0.6,160.9,160.9,Starting Motors,Other,Takeoff (RC Assisted),16,5,True,,Matrice 210,True,False,,Smart,RC,True,True,False,,,True,,False,False,False,False,False,False,False,False,False,False,0,Follow Yaw,0,-0.5,160.9,160.9,False,False,False,False,False,False,,False,Normal,,,1024,1024,1024,1024,1,False,False,False,False,False,0,False,False,False,False,67,,,,23.851,False,3.972,3.973,3.973,3.978,3.973,3.982,0.01,False,False,3.966,3.969,3.965,3.97,3.969,3.959,0.011,False,False,,,,,0,1,0,15,10,1801.8,1058.16,,Idle,0,20,False,10,True,Go Home,39.9611626,-106.21646441,2.6,8246.9,393.7,True,1,1,False,False,False,False,0,False,False,False,Course Lock,98.4,265.4,23.0,Calm,19,, 4.5.0,DF059,095XF1800201C0,,0JFJ4006F4,0KPAF1T231018F,103.5,147.6,14.1,3.0,2.9,0,0,DF059,095XF1800201C0,,0JFJ4006F4,0KPAF1T231018F,,, 4.5.0,,,,,,
6/21/2018,10:57:00.15 PM,3m 43.0s,223.0,39.9611569,-106.21645896,0,0,0.3,8128,0,0,0,0,0,0,0,0,0.8,0.6,160.9,160.9,Starting Motors,Other,Takeoff (RC Assisted),16,5,True,,Matrice 210,True,False,,Smart,RC,True,True,False,,,True,,False,False,False,False,False,False,False,False,False,False,0,Follow Yaw,0,-0.5,160.9,160.9,False,False,False,False,False,False,,False,Normal,,,1024,1024,1024,1024,1,False,False,False,False,False,0,False,False,False,False,67,,,,23.783,False,3.972,3.973,3.973,3.978,3.973,3.982,0.01,False,False,3.966,3.969,3.965,3.97,3.969,3.959,0.011,False,False,,,,,0,1,0,15,10,1801.8,1058.63,,Idle,0,20,False,10,True,Go Home,39.9611626,-106.21646441,2.6,8246.9,393.7,True,1,1,False,False,False,False,0,False,False,False,Course Lock,98.4,265.4,23.0,Calm,19,, 4.5.0,DF059,095XF1800201C0,,0JFJ4006F4,0KPAF1T231018F,103.5,147.6,14.1,3.0,2.9,0,0,DF059,095XF1800201C0,,0JFJ4006F4,0KPAF1T231018F,,, 4.5.0,,,,,,
6/21/2018,10:57:00.25 PM,3m 43.1s,223.1,39.96115689,-106.21645896,0,0,0.3,8128,0,0,0,0,0,0,0,0,0.9,0.6,160.9,160.9,Starting Motors,Other,Takeoff (RC Assisted),16,5,True,,Matrice 210,True,False,,Smart,RC,True,True,False,,,True,,False,False,False,False,False,False,False,False,False,False,0,Follow Yaw,0,-0.5,160.9,160.9,False,False,False,False,False,False,,False,Normal,,,1024,1024,1024,1024,1,False,False,False,False,False,0,False,False,False,False,67,,,,23.783,False,3.972,3.973,3.973,3.978,3.973,3.982,0.01,False,False,3.966,3.969,3.965,3.97,3.969,3.959,0.011,False,False,,,,,0,1,0,15,10,1801.8,1058.63,,Idle,0,20,False,10,True,Go Home,39.9611626,-106.21646441,2.6,8246.9,393.7,True,1,1,False,False,False,False,0,False,False,False,Course Lock,98.4,265.4,23.0,Calm,19,, 4.5.0,DF059,095XF1800201C0,,0JFJ4006F4,0KPAF1T231018F,103.5,147.6,14.1,3.0,2.9,0,0,DF059,095XF1800201C0,,0JFJ4006F4,0KPAF1T231018F,,, 4.5.0,,,,,,
6/21/2018,10:57:00.35 PM,3m 43.2s,223.2,39.96115687,-106.21645896,0,0,0.3,8128,0,0,0,0,0,0,0,0,0.9,0.6,160.9,160.9,Starting Motors,Other,Takeoff (RC Assisted),16,5,True,,Matrice 210,True,False,,Smart,RC,True,True,False,,,True,,False,False,False,False,False,False,False,False,False,False,0,Follow Yaw,0,-0.4,160.9,160.9,False,False,False,False,False,False,,False,Normal,,,1024,1024,1024,1024,1,False,False,False,False,False,0,False,False,False,False,67,,,,23.847,False,3.97,3.973,3.973,3.978,3.972,3.981,0.011,False,False,3.966,3.969,3.965,3.97,3.969,3.959,0.011,False,False,,,,,0,1,0,15,10,1801.8,1058.63,,Idle,0,20,False,10,True,Go Home,39.9611626,-106.21646441,2.6,8246.9,393.7,True,1,1,False,False,False,False,0,False,False,False,Course Lock,98.4,265.4,23.0,Calm,19,, 4.5.0,DF059,095XF1800201C0,,0JFJ4006F4,0KPAF1T231018F,103.5,147.6,14.1,3.0,2.9,0,0,DF059,095XF1800201C0,,0JFJ4006F4,0KPAF1T231018F,,, 4.5.0,,,,,,
6/21/2018,10:57:00.37 PM,3m 43.3s,223.3,39.96115684,-106.21645893,0,0,0.3,8128,0,0,0,0,0,0,0,0,0.8,0.6,160.9,160.9,Starting Motors,Other,Takeoff (RC Assisted),16,5,True,,Matrice 210,True,False,,Smart,RC,True,True,False,,,True,,False,False,False,False,False,False,False,False,False,False,0,Follow Yaw,0,-0.5,160.9,160.9,False,False,False,False,False,False,,False,Normal,,,1024,1024,1024,1024,1,False,False,False,False,False,0,False,False,False,False,67,,,,23.847,False,3.97,3.973,3.973,3.978,3.972,3.981,0.011,False,False,3.966,3.969,3.965,3.97,3.969,3.959,0.011,False,False,,,,,0,1,0,15,10,1801.8,1058.63,,Idle,0,20,False,10,True,Go Home,39.9611626,-106.21646441,2.6,8246.9,393.7,True,1,1,False,False,False,False,0,False,False,False,Course Lock,98.4,265.4,23.0,Calm,19,, 4.5.0,DF059,095XF1800201C0,,0JFJ4006F4,0KPAF1T231018F,103.5,147.6,14.1,3.0,2.9,0,0,DF059,095XF1800201C0,,0JFJ4006F4,0KPAF1T231018F,,, 4.5.0,,,,,,
6/21/2018,10:57:00.46 PM,3m 43.4s,223.4,39.96115683,-106.21645892,0,0,0.3,8128,0,0,0,0,0,0,0,0,0.7,0.6,160.9,160.9,Manual Takeoff,Other,Takeoff (RC Assisted),16,5,True,,Matrice 210,True,False,,Smart,RC,True,True,False,,,True,,False,False,False,False,False,False,False,False,False,False,0,Follow Yaw,0,-0.4,160.9,160.9,False,False,False,False,False,False,,False,Normal,,,1024,1024,1024,1024,1,False,False,False,False,False,0,False,False,False,False,67,,,,23.847,False,3.97,3.973,3.973,3.978,3.972,3.981,0.011,False,False,3.966,3.969,3.965,3.97,3.969,3.959,0.011,False,False,,,,,0,1,0,15,10,1801.8,1058.63,,Idle,0,20,False,10,True,Go Home,39.9611626,-106.21646441,2.6,8246.9,393.7,True,1,1,False,False,False,False,0,False,False,False,Course Lock,98.4,265.4,23.0,Calm,19,, 4.5.0,DF059,095XF1800201C0,,0JFJ4006F4,0KPAF1T231018F,103.5,147.6,14.1,3.0,2.9,0,0,DF059,095XF1800201C0,,0JFJ4006F4,0KPAF1T231018F,,, 4.5.0,,,,,,
6/21/2018,10:57:00.66 PM,3m 43.5s,223.5,39.96115695,-106.21645902,0,0,0.3,8128,0,0,0,0,0,0,0,0,0.7,0.6,160.9,160.9,Manual Takeoff,Other,Takeoff (RC Assisted),16,5,True,,Matrice 210,True,False,,Smart,RC,True,True,False,,,True,,False,False,False,False,False,False,False,False,False,False,0,Follow Yaw,0,-0.5,160.9,160.9,False,False,False,False,False,False,,False,Normal,,,1024,1024,1048,1024,1,False,False,False,False,False,0,False,False,False,False,67,,,,23.847,False,3.97,3.973,3.973,3.978,3.972,3.981,0.011,False,False,3.966,3.969,3.965,3.97,3.969,3.959,0.011,False,False,,,,,0,1,0,15,10,1801.8,1058.63,,Idle,0,20,False,10,True,Go Home,39.9611626,-106.21646441,2.5,8246.9,393.7,True,1,1,False,False,False,False,0,False,False,False,Course Lock,98.4,265.4,23.0,Calm,19,, 4.5.0,DF059,095XF1800201C0,,0JFJ4006F4,0KPAF1T231018F,103.5,147.6,14.1,3.0,2.9,0,0,DF059,095XF1800201C0,,0JFJ4006F4,0KPAF1T231018F,,, 4.5.0,,,,,,
6/21/2018,10:57:00.68 PM,3m 43.6s,223.6,39.96115697,-106.21645904,0,0,0.3,8128,0,0,0,0,0,0,0,0,0.9,0.6,160.9,160.9,Manual Takeoff,Other,Takeoff (RC Assisted),16,5,True,,Matrice 210,True,False,,Smart,RC,True,True,False,,,True,,False,False,False,False,False,False,False,False,False,False,0,Follow Yaw,0,-0.5,160.9,160.9,False,False,False,False,False,False,,False,Normal,,,1024,1024,1043,1024,1,False,False,False,False,False,0,False,False,False,False,67,,,,23.847,False,3.97,3.973,3.973,3.978,3.972,3.981,0.011,False,False,3.966,3.969,3.965,3.97,3.969,3.959,0.011,False,False,,,,,0,1,0,15,10,1801.8,1058.63,,Idle,0,20,False,10,True,Go Home,39.9611626,-106.21646441,2.5,8246.9,393.7,True,1,1,False,False,False,False,0,False,False,False,Course Lock,98.4,265.4,23.0,Calm,19,, 4.5.0,DF059,095XF1800201C0,,0JFJ4006F4,0KPAF1T231018F,103.5,147.6,14.1,3.0,2.9,0,0,DF059,095XF1800201C0,,0JFJ4006F4,0KPAF1T231018F,,, 4.5.0,,,,,,
6/21/2018,10:57:00.86 PM,3m 43.7s,223.7,39.96115698,-106.21645905,0,0,0.3,8128,0,0,0,0,0,0,0,0,0.9,0.6,160.9,160.9,Manual Takeoff,Other,Takeoff (RC Assisted),16,5,True,,Matrice 210,True,False,,Smart,RC,True,True,False,,,True,,False,False,False,False,False,False,False,False,False,False,0,Follow Yaw,0,-0.5,160.9,160.9,False,False,False,False,False,False,,False,Normal,,,1024,1024,1048,1024,1,False,False,False,False,False,0,False,False,False,False,67,,,,23.847,False,3.97,3.973,3.973,3.978,3.972,3.981,0.011,False,False,3.953,3.957,3.953,3.956,3.971,3.966,0.018,False,False,,,,,0,1,0,15,10,1801.8,1058.63,,Idle,0,20,False,10,True,Go Home,39.9611626,-106.21646441,2.5,8246.9,393.7,True,1,1,False,False,False,False,0,False,False,False,Course Lock,98.4,265.4,23.0,Calm,19,, 4.5.0,DF059,095XF1800201C0,,0JFJ4006F4,0KPAF1T231018F,103.5,147.6,14.1,3.0,2.9,0,0,DF059,095XF1800201C0,,0JFJ4006F4,0KPAF1T231018F,,, 4.5.0,,,,,,
6/21/2018,10:57:00.96 PM,3m 43.8s,223.8,39.96115697,-106.21645905,0,0,0.3,8128,0,0,0,0,0,0,0,0,0.9,0.6,160.9,160.9,Manual Takeoff,Other,Takeoff (RC Assisted),16,5,True,,Matrice 210,True,False,,Smart,RC,True,True,False,,,True,,False,False,False,False,False,False,False,False,False,False,0,Follow Yaw,0,-0.5,160.9,160.9,False,False,False,False,False,False,,False,Normal,,,1024,1024,1098,1024,1,False,False,False,False,False,0,False,False,False,False,67,,,,23.847,False,3.97,3.973,3.973,3.978,3.972,3.981,0.011,False,False,3.953,3.957,3.953,3.956,3.971,3.966,0.018,False,False,,,,,0,1,0,15,10,1801.8,1058.63,,Idle,0,20,False,10,True,Go Home,39.9611626,-106.21646441,2.5,8246.9,393.7,True,1,1,False,False,False,False,0,False,False,False,Course Lock,98.4,265.4,23.0,Calm,19,, 4.5.0,DF059,095XF1800201C0,,0JFJ4006F4,0KPAF1T231018F,103.5,147.6,14.1,3.0,2.9,0,0,DF059,095XF1800201C0,,0JFJ4006F4,0KPAF1T231018F,,, 4.5.0,,,,,,
6/21/2018,10:57:00.98 PM,3m 43.9s,223.9,39.96115699,-106.21645906,0,0,0.3,8128,0,0,0,0,0,0,0,0,0.9,0.6,160.9,160.9,Manual Takeoff,Other,Takeoff (RC Assisted),16,5,True,,Matrice 210,True,False,,Smart,RC,True,True,False,,,True,,False,False,False,False,False,False,False,False,False,False,0,Follow Yaw,0,-0.5,160.9,160.9,False,False,False,False,False,False,,False,Normal,,,1024,1024,1121,1024,1,False,False,False,False,False,0,False,False,False,False,67,,,,23.847,False,3.97,3.973,3.973,3.978,3.972,3.981,0.011,False,False,3.953,3.957,3.953,3.956,3.971,3.966,0.018,False,False,,,,,0,1,0,15,10,1801.8,1058.63,,Idle,0,20,False,10,True,Go Home,39.9611626,-106.21646441,2.5,8246.9,393.7,True,1,1,False,False,False,False,0,False,False,False,Course Lock,98.4,265.4,23.0,Calm,19,, 4.5.0,DF059,095XF1800201C0,,0JFJ4006F4,0KPAF1T231018F,103.5,147.6,14.1,3.0,2.9,0,0,DF059,095XF1800201C0,,0JFJ4006F4,0KPAF1T231018F,,, 4.5.0,,,,,,
6/21/2018,10:57:01.06 PM,3m 44.0s,224.0,39.96115698,-106.21645907,0,0,0.3,8128,0,0,0,0,0,0,0,0,0.9,0.7,160.9,160.9,Manual Takeoff,Other,Takeoff (RC Assisted),16,5,True,,Matrice 210,True,False,,Smart,RC,True,True,False,,,True,,False,False,False,False,False,False,False,False,False,False,0,Follow Yaw,0,-0.5,160.9,160.9,False,False,False,False,False,False,,False,Normal,,,1024,1024,1124,1024,1,False,False,False,False,False,0,False,False,False,False,67,,,,23.84,False,3.97,3.973,3.973,3.978,3.972,3.981,0.011,False,False,3.953,3.957,3.953,3.956,3.971,3.966,0.018,False,False,,,,,0,1,0,15,10,1801.8,1058.60,,Idle,0,20,False,10,True,Go Home,39.9611626,-106.21646441,2.5,8246.9,393.7,True,1,1,False,False,False,False,0,False,False,False,Course Lock,98.4,265.4,23.0,Calm,19,, 4.5.0,DF059,095XF1800201C0,,0JFJ4006F4,0KPAF1T231018F,103.5,147.6,14.1,3.0,2.9,0,0,DF059,095XF1800201C0,,0JFJ4006F4,0KPAF1T231018F,,, 4.5.0,,,,,,
6/21/2018,10:57:01.17 PM,3m 44.1s,224.1,39.96115697,-106.21645907,0,0,0.3,8128,1.1,1.1,0,0,0,0,0,0,0.9,0.7,160.9,160.9,Manual Takeoff,Other,Takeoff (RC Assisted),16,5,True,,Matrice 210,True,False,,Smart,RC,True,True,False,,,True,,False,False,False,False,False,False,False,False,False,False,0,Follow Yaw,0,-0.5,160.9,160.9,False,False,False,False,False,False,,False,Normal,,,1024,1024,1115,1024,1,False,False,False,False,False,0,False,False,False,False,67,,,,23.84,False,3.97,3.973,3.973,3.978,3.972,3.981,0.011,False,False,3.953,3.957,3.953,3.956,3.971,3.966,0.018,False,False,,,,,0,1,0,15,10,1801.8,1058.60,,Idle,0,20,False,10,True,Go Home,39.9611626,-106.21646441,2.5,8246.9,393.7,True,1,1,False,False,False,False,0,False,False,False,Course Lock,98.4,265.4,23.0,Calm,19,, 4.5.0,DF059,095XF1800201C0,,0JFJ4006F4,0KPAF1T231018F,103.5,147.6,14.1,3.0,2.9,0,0,DF059,095XF1800201C0,,0JFJ4006F4,0KPAF1T231018F,,, 4.5.0,,,,,,
6/21/2018,10:57:01.27 PM,3m 44.2s,224.2,39.96115695,-106.21645909,0,0,0.3,8128,0,1.1,0,0,0,0,0,0,0.9,0.7,160.9,160.9,Manual Takeoff,Other,Takeoff (RC Assisted),16,5,True,,Matrice 210,True,False,,Smart,RC,True,True,False,,,True,,False,False,False,False,False,False,False,False,False,False,0,Follow Yaw,0,-0.5,160.9,160.9,False,False,False,False,False,False,,False,Normal,,,1024,1024,1122,1024,1,False,False,False,False,False,0,False,False,False,False,67,,,,23.822,False,3.966,3.97,3.968,3.973,3.968,3.977,0.011,False,False,3.953,3.957,3.953,3.956,3.971,3.966,0.018,False,False,,,,,0,1,0,15,10,1801.8,1058.60,,Idle,0,20,False,10,True,Go Home,39.9611626,-106.21646441,2.5,8246.9,393.7,True,1,1,False,False,False,False,0,False,False,False,Course Lock,98.4,265.4,23.0,Calm,19,, 4.5.0,DF059,095XF1800201C0,,0JFJ4006F4,0KPAF1T231018F,103.5,147.6,14.1,3.0,2.9,0,0,DF059,095XF1800201C0,,0JFJ4006F4,0KPAF1T231018F,,, 4.5.0,,,,,,
6/21/2018,10:57:01.37 PM,3m 44.3s,224.3,39.96115694,-106.21645922,0,0,0.3,8128,0,1.1,0,0,0,0,0,0,0.8,0.7,160.9,160.9,Manual Takeoff,Other,Takeoff (RC Assisted),16,5,True,,Matrice 210,True,False,,Smart,RC,True,True,False,,,True,,False,False,False,False,False,False,False,False,False,False,0,Follow Yaw,0,-0.6,160.9,160.9,False,False,False,False,False,False,,False,Normal,,,1024,1024,1158,1024,1,False,False,False,False,False,0,False,False,False,False,67,,,,23.822,False,3.966,3.97,3.968,3.973,3.968,3.977,0.011,False,False,3.953,3.957,3.953,3.956,3.971,3.966,0.018,False,False,,,,,0,1,0,15,10,1801.8,1058.60,,Idle,0,20,False,10,True,Go Home,39.9611626,-106.21646441,2.5,8246.9,393.7,True,1,1,False,False,False,False,0,False,False,False,Course Lock,98.4,265.4,23.0,Calm,19,, 4.5.0,DF059,095XF1800201C0,,0JFJ4006F4,0KPAF1T231018F,103.5,147.6,14.1,3.0,2.9,0,0,DF059,095XF1800201C0,,0JFJ4006F4,0KPAF1T231018F,,, 4.5.0,,,,,,
6/21/2018,10:57:01.47 PM,3m 44.4s,224.4,39.96115691,-106.21645927,0,0,0.3,8128,0,1.1,0,0,0,0,0,0,0.8,0.6,160.9,160.9,Manual Takeoff,Other,Takeoff (RC Assisted),16,5,True,,Matrice 210,True,False,,Smart,RC,True,True,False,,,True,,False,False,False,False,False,False,False,False,False,False,0,Follow Yaw,0,-0.5,160.9,160.9,False,False,False,False,False,False,,False,Normal,,,1024,1024,1172,1024,1,False,False,False,False,False,0,False,False,False,False,67,,,,23.822,False,3.966,3.97,3.968,3.973,3.968,3.977,0.011,False,False,3.953,3.957,3.953,3.956,3.971,3.966,0.018,False,False,,,,,0,1,0,15,10,1801.8,1058.60,,Idle,0,20,False,10,True,Go Home,39.9611626,-106.21646441,2.5,8246.9,393.7,True,1,1,False,False,False,False,0,False,False,False,Course Lock,98.4,265.4,23.0,Calm,19,, 4.5.0,DF059,095XF1800201C0,,0JFJ4006F4,0KPAF1T231018F,103.5,147.6,14.1,3.0,2.9,0,0,DF059,095XF1800201C0,,0JFJ4006F4,0KPAF1T231018F,,, 4.5.0,,,,,,
6/21/2018,10:57:01.57 PM,3m 44.5s,224.5,39.96115686,-106.21645928,0,0,0.3,8128,0,1.1,0,0,0,0,0,0,0.7,0.7,160.9,160.9,Manual Takeoff,Other,Takeoff (RC Assisted),16,5,True,,Matrice 210,True,False,,Smart,RC,True,True,False,,,True,,False,False,False,False,False,False,False,False,False,False,0,Follow Yaw,0,-0.6,160.9,160.9,False,False,False,False,False,False,,False,Normal,,,1024,1024,1152,1024,1,False,False,False,False,False,0,False,False,False,False,67,,,,23.822,False,3.966,3.97,3.968,3.973,3.968,3.977,0.011,False,False,3.953,3.957,3.953,3.956,3.971,3.966,0.018,False,False,,,,,0,1,0,15,10,1801.8,1058.60,,Idle,0,20,False,10,True,Go Home,39.9611626,-106.21646441,2.5,8246.9,393.7,True,1,1,False,False,False,False,0,False,False,False,Course Lock,98.4,265.4,23.0,Calm,19,, 4.5.0,DF059,095XF1800201C0,,0JFJ4006F4,0KPAF1T231018F,103.5,147.6,14.1,3.0,2.9,0,0,DF059,095XF1800201C0,,0JFJ4006F4,0KPAF1T231018F,,, 4.5.0,,,,,,
6/21/2018,10:57:01.67 PM,3m 44.6s,224.6,39.96115682,-106.2164593,0,0,0.3,8128,0,1.1,0,0,0,0,0,0,0.7,0.6,160.9,160.9,Manual Takeoff,Other,Takeoff (RC Assisted),16,5,True,,Matrice 210,True,False,,Smart,RC,True,True,False,,,True,,False,False,False,False,False,False,False,False,False,False,0,Follow Yaw,0,-0.6,160.9,160.9,False,False,False,False,False,False,,False,Normal,,,1024,1024,1154,1024,1,False,False,False,False,False,0,False,False,False,False,67,,,,23.822,False,3.966,3.97,3.968,3.973,3.968,3.977,0.011,False,False,3.953,3.957,3.953,3.956,3.971,3.966,0.018,False,False,,,,,0,1,0,15,10,1801.8,1058.60,,Idle,0,20,False,10,True,Go Home,39.9611626,-106.21646441,2.5,8246.9,393.7,True,1,1,False,False,False,False,0,False,False,False,Course Lock,98.4,265.4,23.0,Calm,19,, 4.5.0,DF059,095XF1800201C0,,0JFJ4006F4,0KPAF1T231018F,103.5,147.6,14.1,3.0,2.9,0,0,DF059,095XF1800201C0,,0JFJ4006F4,0KPAF1T231018F,,, 4.5.0,,,,,,
6/21/2018,10:57:01.77 PM,3m 44.7s,224.7,39.96115677,-106.21645925,0,0,0.3,8128,1.1,1.1,0,0,0,0,0,0,0.6,0.6,160.8,160.8,Manual Takeoff,Other,Takeoff (RC Assisted),16,5,True,,Matrice 210,True,False,,Smart,RC,True,True,False,,,True,,False,False,False,False,False,False,False,False,False,False,0,Follow Yaw,0,-0.6,160.9,160.9,False,False,False,False,False,False,,False,Normal,,,1024,1024,1163,1024,1,False,False,False,False,False,0,False,False,False,False,67,,,,23.822,False,3.966,3.97,3.968,3.973,3.968,3.977,0.011,False,False,3.951,3.956,3.952,3.956,3.957,3.946,0.018,False,False,,,,,0,1,0,15,10,1801.8,1058.60,,Idle,0,20,False,10,True,Go Home,39.9611626,-106.21646441,2.6,8246.9,393.7,True,1,1,False,False,False,False,0,False,False,False,Course Lock,98.4,265.4,23.0,Calm,19,, 4.5.0,DF059,095XF1800201C0,,0JFJ4006F4,0KPAF1T231018F,103.5,147.6,14.1,3.0,2.9,0,0,DF059,095XF1800201C0,,0JFJ4006F4,0KPAF1T231018F,,, 4.5.0,,,,,,
6/21/2018,10:57:01.87 PM,3m 44.8s,224.8,39.96115676,-106.21645925,0,0,0.3,8128,0,1.1,0,0,0,0,0,0,0.4,0.7,160.8,160.8,Manual Takeoff,Other,Takeoff (RC Assisted),16,5,True,,Matrice 210,True,False,,Smart,RC,True,True,False,,,True,,False,False,False,False,False,False,False,False,False,False,0,Follow Yaw,0,-0.5,160.9,160.9,False,False,False,False,False,False,,False,Normal,,,1024,1024,1192,1024,1,False,False,False,False,False,0,False,False,False,False,67,,,,23.822,False,3.966,3.97,3.968,3.973,3.968,3.977,0.011,False,False,3.951,3.956,3.952,3.956,3.957,3.946,0.018,False,False,,,,,0,1,0,15,10,1801.8,1058.60,,Idle,0,20,False,10,True,Go Home,39.9611626,-106.21646441,2.6,8246.9,393.7,True,1,1,False,False,False,False,0,False,False,False,Course Lock,98.4,265.4,23.0,Calm,19,, 4.5.0,DF059,095XF1800201C0,,0JFJ4006F4,0KPAF1T231018F,103.5,147.6,14.1,3.0,2.9,0,0,DF059,095XF1800201C0,,0JFJ4006F4,0KPAF1T231018F,,, 4.5.0,,,,,,
6/21/2018,10:57:01.98 PM,3m 44.9s,224.9,39.96115677,-106.21645925,0,0,0.3,8128,0,1.1,0,0,0,0,0,0,0.2,0.7,160.8,160.8,Manual Takeoff,Other,Takeoff (RC Assisted),16,5,True,,Matrice 210,True,False,,Smart,RC,True,True,False,,,True,,False,False,False,False,False,False,False,False,False,False,0,Follow Yaw,0,-0.7,160.8,160.8,False,False,False,False,False,False,,False,Normal,,,1024,1024,1197,1024,1,False,False,False,False,False,0,False,False,False,False,67,,,,23.822,False,3.966,3.97,3.968,3.973,3.968,3.977,0.011,False,False,3.951,3.956,3.952,3.956,3.957,3.946,0.018,False,False,,,,,0,1,0,15,10,1801.8,1058.60,,Idle,0,20,False,10,True,Go Home,39.9611626,-106.21646441,2.6,8246.9,393.7,True,1,1,False,False,False,False,0,False,False,False,Course Lock,98.4,265.4,23.0,Calm,19,, 4.5.0,DF059,095XF1800201C0,,0JFJ4006F4,0KPAF1T231018F,103.5,147.6,14.1,3.0,2.9,0,0,DF059,095XF1800201C0,,0JFJ4006F4,0KPAF1T231018F,,, 4.5.0,,,,,,
6/21/2018,10:57:02.08 PM,3m 45.0s,225.0,39.96115678,-106.21645925,0,0,0.3,8128,0,1.1,0,0,0,0,0,0,-0.3,0.7,160.8,160.8,Manual Takeoff,Other,Takeoff (RC Assisted),16,5,True,,Matrice 210,True,False,,Smart,RC,True,True,False,,,True,,False,False,False,False,False,False,False,False,False,False,0,Follow Yaw,-0.2,-0.6,160.9,160.9,False,False,False,False,False,False,,False,Normal,,,1024,1024,1186,1024,1,False,False,False,False,False,0,False,False,False,False,67,,,,23.702,False,3.966,3.97,3.968,3.973,3.968,3.977,0.011,False,False,3.951,3.956,3.952,3.956,3.957,3.946,0.018,False,False,,,,,0,1,0,15,10,1801.8,1061.34,,Idle,0,20,False,10,True,Go Home,39.9611626,-106.21646441,2.6,8246.9,393.7,True,1,1,False,False,False,False,0,False,False,False,Course Lock,98.4,265.4,23.0,Calm,19,, 4.5.0,DF059,095XF1800201C0,,0JFJ4006F4,0KPAF1T231018F,103.5,147.6,14.1,3.0,2.9,0,0,DF059,095XF1800201C0,,0JFJ4006F4,0KPAF1T231018F,,, 4.5.0,,,,,,
6/21/2018,10:57:02.18 PM,3m 45.1s,225.1,39.96115677,-106.21645926,0,0,0.3,8128,0,1.1,0,0,0,0,0,0,-1.2,0.8,160.7,160.7,Manual Takeoff,Other,Takeoff (RC Assisted),16,5,True,,Matrice 210,True,False,,Smart,RC,True,True,False,,,True,,False,False,False,False,False,False,False,False,False,False,0,Follow Yaw,0,-0.6,160.7,160.7,False,False,False,False,False,False,,False,Normal,,,1024,1024,1159,1024,1,False,False,False,False,False,0,False,False,False,False,67,,,,23.702,False,3.966,3.97,3.968,3.973,3.968,3.977,0.011,False,False,3.951,3.956,3.952,3.956,3.957,3.946,0.018,False,False,,,,,0,1,0,15,10,1801.8,1061.34,,Idle,0,20,False,10,True,Go Home,39.9611626,-106.21646441,2.6,8246.9,393.7,True,1,1,False,False,False,False,0,False,False,False,Course Lock,98.4,265.4,23.0,Calm,19,, 4.5.0,DF059,095XF1800201C0,,0JFJ4006F4,0KPAF1T231018F,103.5,147.6,14.1,3.0,2.9,0,0,DF059,095XF1800201C0,,0JFJ4006F4,0KPAF1T231018F,,, 4.5.0,,,,,,
6/21/2018,10:57:02.28 PM,3m 45.2s,225.2,39.9611568,-106.21645924,0,0,0.7,8128,0,1.1,0,0,0,0,0,0,-2.7,1.6,160.6,160.6,Manual Takeoff,Other,Takeoff (RC Assisted),16,5,True,,Matrice 210,True,False,,Smart,RC,True,True,False,,,True,,False,False,False,False,False,False,False,False,False,False,0,Follow Yaw,0,-0.3,160.3,160.3,False,False,False,False,False,False,,False,Normal,,,1024,1024,1160,1024,1,False,False,False,False,False,0,False,False,False,False,67,,,,23.702,False,3.966,3.97,3.968,3.973,3.968,3.977,0.011,False,False,3.951,3.956,3.952,3.956,3.957,3.946,0.018,False,False,,,,,0,1,0,15,10,1801.8,1061.34,,Idle,0,20,False,10,True,Go Home,39.9611626,-106.21646441,2.6,8246.9,393.7,True,1,1,False,False,False,False,0,False,False,False,Course Lock,98.4,265.4,23.0,Calm,19,, 4.5.0,DF059,095XF1800201C0,,0JFJ4006F4,0KPAF1T231018F,103.5,147.6,14.1,3.0,2.9,0,0,DF059,095XF1800201C0,,0JFJ4006F4,0KPAF1T231018F,,, 4.5.0,,,,,,
6/21/2018,10:57:02.38 PM,3m 45.3s,225.3,39.96115669,-106.21645928,0,0,0.7,8128,0,1.1,-0.2,0,0,0,-0.2,0,-4.7,3.2,160.3,160.3,Manual Takeoff,Other,Takeoff (RC Assisted),16,5,True,,Matrice 210,True,False,,Smart,RC,True,True,False,,,True,,False,False,False,False,False,False,False,False,False,False,0,Follow Yaw,0,0,159.9,159.9,False,False,False,False,False,False,,False,Normal,,,1024,1024,1155,1024,1,False,False,False,False,False,0,False,False,False,False,67,,,,23.8,False,3.961,3.967,3.965,3.968,3.965,3.974,0.013,False,False,3.951,3.956,3.952,3.956,3.957,3.946,0.018,False,False,,,,,0,1,0,15,10,1801.8,1061.34,,Idle,0,20,False,10,True,Go Home,39.9611626,-106.21646441,2.6,8246.9,393.7,True,1,1,False,False,False,False,0,False,False,False,Course Lock,98.4,265.4,23.0,Calm,19,, 4.5.0,DF059,095XF1800201C0,,0JFJ4006F4,0KPAF1T231018F,103.5,147.6,14.1,3.0,2.9,0,0,DF059,095XF1800201C0,,0JFJ4006F4,0KPAF1T231018F,,, 4.5.0,,,,,,
6/21/2018,10:57:02.48 PM,3m 45.4s,225.4,39.96115651,-106.21645936,0,0,0.7,8128,0,1.1,-0.5,0,-0.2,0,-0.5,0,-6.2,4.5,160,160,P-GPS,Other,,16,5,True,,Matrice 210,True,False,,Smart,RC,False,True,False,,,True,,False,False,False,False,False,False,False,False,False,False,0,Follow Yaw,0,-0.1,159.8,159.8,False,False,False,False,False,False,,False,Normal,,,1024,1024,1090,1024,1,False,False,False,False,False,0,False,False,False,False,67,,,,23.8,False,3.961,3.967,3.965,3.968,3.965,3.974,0.013,False,False,3.951,3.956,3.952,3.956,3.957,3.946,0.018,False,False,,,,,0,1,0,15,10,1801.8,1061.34,,Idle,0,20,False,10,True,Go Home,39.9611626,-106.21646441,2.6,8246.9,393.7,True,1,1,False,False,False,False,0,False,False,False,Course Lock,98.4,265.4,23.0,Calm,19,, 4.5.0,DF059,095XF1800201C0,,0JFJ4006F4,0KPAF1T231018F,103.5,147.6,14.1,3.0,2.9,0,0,DF059,095XF1800201C0,,0JFJ4006F4,0KPAF1T231018F,,, 4.5.0,,,,,,
6/21/2018,10:57:02.58 PM,3m 45.5s,225.5,39.96115627,-106.21645953,0,0,0.7,8128,0,1.1,-0.7,0,-0.2,0,-0.5,0,-4.2,3.1,159.9,159.9,P-GPS,Other,,16,5,True,,Matrice 210,True,False,,Smart,RC,False,True,False,,,True,,False,False,False,False,False,False,False,False,False,False,0,Follow Yaw,-0.1,0,160,160,False,False,False,False,False,False,,False,Normal,,,1024,1024,1024,1024,1,False,False,False,False,False,0,False,False,False,False,67,,,,23.8,False,3.961,3.967,3.965,3.968,3.965,3.974,0.013,False,False,3.951,3.956,3.952,3.956,3.957,3.946,0.018,False,False,,,,,0,1,0,15,10,1801.8,1061.34,,Idle,0,20,False,10,True,Go Home,39.9611626,-106.21646441,2.7,8246.9,393.7,True,1,1,False,False,False,False,0,False,False,False,Course Lock,98.4,265.4,23.0,Calm,19,, 4.5.0,DF059,095XF1800201C0,,0JFJ4006F4,0KPAF1T231018F,103.5,147.6,14.1,3.0,2.9,0,0,DF059,095XF1800201C0,,0JFJ4006F4,0KPAF1T231018F,,, 4.5.0,,,,,,
6/21/2018,10:57:02.68 PM,3m 45.6s,225.6,39.96115594,-106.21645974,0,0,0.7,8128,0,1.1,-0.5,0,-0.5,0,-0.5,0,-2.3,0.7,159.7,159.7,P-GPS,Other,,16,5,True,,Matrice 210,True,False,,Smart,RC,False,True,False,,,True,,False,False,False,False,False,False,False,False,False,False,0,Follow Yaw,0,-0.2,160.3,160.3,False,False,False,False,False,False,,False,Normal,,,1024,1024,1024,1024,1,False,False,False,False,False,0,False,False,False,False,67,,,,23.8,False,3.961,3.967,3.965,3.968,3.965,3.974,0.013,False,False,3.898,3.912,3.903,3.91,3.911,3.898,0.018,False,False,,,,,0,1,0,15,10,1801.8,1061.34,,Idle,0,20,False,10,True,Go Home,39.9611626,-106.21646441,2.8,8246.9,393.7,True,1,1,False,False,False,False,0,False,False,False,Course Lock,98.4,265.4,23.0,Calm,19,, 4.5.0,DF059,095XF1800201C0,,0JFJ4006F4,0KPAF1T231018F,103.5,147.6,14.1,3.0,2.9,0,0,DF059,095XF1800201C0,,0JFJ4006F4,0KPAF1T231018F,,, 4.5.0,,,,,,
6/21/2018,10:57:02.79 PM,3m 45.7s,225.7,39.96115574,-106.21646001,0.3,0.3,0.7,8128,0,1.1,-0.2,0,-0.5,0,-0.2,0,-1.3,-0.7,160,160,P-GPS,Other,,16,5,True,,Matrice 210,True,False,,Smart,RC,False,True,False,,,True,,False,False,False,False,False,False,False,False,False,False,0,Follow Yaw,0,-0.4,160.4,160.4,False,False,False,False,False,False,,False,Normal,,,1024,1024,1024,1024,1,False,False,False,False,False,0,False,False,False,False,67,,,,23.8,False,3.961,3.967,3.965,3.968,3.965,3.974,0.013,False,False,3.898,3.912,3.903,3.91,3.911,3.898,0.018,False,False,,,,,0,1,0,15,10,1801.8,1061.34,,Idle,0,20,False,10,True,Go Home,39.9611626,-106.21646441,2.8,8246.9,393.7,True,1,1,False,False,False,False,0,False,False,False,Course Lock,98.4,265.4,23.0,Calm,19,, 4.5.0,DF059,095XF1800201C0,,0JFJ4006F4,0KPAF1T231018F,103.5,147.6,14.1,3.0,2.9,0,0,DF059,095XF1800201C0,,0JFJ4006F4,0KPAF1T231018F,,, 4.5.0,,,,,,
6/21/2018,10:57:02.89 PM,3m 45.8s,225.8,39.96115563,-106.2164603,0.3,0.3,1.0,8128,1.1,1.1,0,0,-0.5,0,0,0,-0.9,-1.1,160.5,160.5,P-GPS,Other,,16,5,True,,Matrice 210,True,False,,Smart,RC,False,True,False,,,True,,False,False,False,False,False,False,False,False,False,False,0,Follow Yaw,0,-0.5,160.9,160.9,False,False,False,False,False,False,,False,Normal,,,1024,1024,1024,1024,1,False,False,False,False,False,0,False,False,False,False,67,,,,23.8,False,3.961,3.967,3.965,3.968,3.965,3.974,0.013,False,False,3.898,3.912,3.903,3.91,3.911,3.898,0.018,False,False,,,,,0,1,0,15,10,1801.8,1061.34,,Idle,0,20,False,10,True,Go Home,39.9611626,-106.21646441,2.8,8246.9,393.7,True,1,1,False,False,False,False,0,False,False,False,Course Lock,98.4,265.4,23.0,Calm,19,, 4.5.0,DF059,095XF1800201C0,,0JFJ4006F4,0KPAF1T231018F,103.5,147.6,14.1,3.0,2.9,0,0,DF059,095XF1800201C0,,0JFJ4006F4,0KPAF1T231018F,,, 4.5.0,,,,,,
6/21/2018,10:57:02.99 PM,3m 45.9s,225.9,39.96115561,-106.21646062,0.3,0.3,1.0,8128,1.1,1.1,0,0,-0.5,0,0,0,-1.1,-1.2,160.9,160.9,P-GPS,Other,,16,5,True,,Matrice 210,True,False,,Smart,RC,False,True,False,,,True,,False,False,False,False,False,False,False,False,False,False,0,Follow Yaw,0,-0.8,161.2,161.2,False,False,False,False,False,False,,False,Normal,,,1024,1024,1024,1024,1,False,False,False,False,False,0,False,False,False,False,67,,,,23.8,False,3.961,3.967,3.965,3.968,3.965,3.974,0.013,False,False,3.898,3.912,3.903,3.91,3.911,3.898,0.018,False,False,,,,,0,1,0,15,10,1801.8,1061.34,,Idle,0,20,False,10,True,Go Home,39.9611626,-106.21646441,2.8,8246.9,393.7,True,1,1,False,False,False,False,0,False,False,False,Course Lock,98.4,265.4,23.0,Calm,19,, 4.5.0,DF059,095XF1800201C0,,0JFJ4006F4,0KPAF1T231018F,103.5,147.6,14.1,3.0,2.9,0,0,DF059,095XF1800201C0,,0JFJ4006F4,0KPAF1T231018F,,, 4.5.0,,,,,,
6/21/2018,10:57:03.09 PM,3m 46.0s,226.0,39.9611555,-106.21646082,0.3,0.3,1.0,8128,0,1.1,0.2,0.2,-0.5,0,0,0,-1.3,-1.7,161.2,161.2,P-GPS,Other,,16,5,True,,Matrice 210,True,False,,Smart,RC,False,True,False,,,True,,False,False,False,False,False,False,False,False,False,False,0,Follow Yaw,0,-1,161.1,161.1,False,False,False,False,False,False,,False,Normal,,,1024,1024,1024,1024,1,False,False,False,False,False,0,False,False,False,False,67,,,,23.707,False,3.961,3.967,3.965,3.968,3.965,3.974,0.013,False,False,3.898,3.912,3.903,3.91,3.911,3.898,0.018,False,False,,,,,0,1,0,15,10,1801.8,1124.16,,Idle,0,20,False,10,True,Go Home,39.96115662,-106.21645931,0.6,8246.9,393.7,True,1,1,False,False,False,False,0,False,False,False,Course Lock,98.4,265.4,23.0,Calm,19,, 4.5.0,DF059,095XF1800201C0,,0JFJ4006F4,0KPAF1T231018F,103.5,147.6,14.1,3.0,2.9,0,0,DF059,095XF1800201C0,,0JFJ4006F4,0KPAF1T231018F,,, 4.5.0,,,,Home Point Updated.,,
6/21/2018,10:57:03.19 PM,3m 46.1s,226.1,39.9611556,-106.21646108,0.3,0.3,1.0,8128,0,1.1,0.5,0.5,-0.2,0,0,0,-1.6,-2.1,161.2,161.2,P-GPS,Other,,16,5,True,,Matrice 210,True,False,,Smart,RC,False,True,False,,,True,,False,False,False,False,False,False,False,False,False,False,0,Follow Yaw,0,-1.2,160.9,160.9,False,False,False,False,False,False,,False,Normal,,,1023,1024,1024,1024,1,False,False,False,False,False,0,False,False,False,False,67,,,,23.707,False,3.961,3.967,3.965,3.968,3.965,3.974,0.013,False,False,3.898,3.912,3.903,3.91,3.911,3.898,0.018,False,False,,,,,0,1,0,15,10,1801.8,1124.16,,Idle,0,20,False,10,True,Go Home,39.96115662,-106.21645931,0.5,8246.9,393.7,True,1,1,False,False,False,False,0,False,False,False,Course Lock,98.4,265.4,23.0,Calm,19,, 4.5.0,DF059,095XF1800201C0,,0JFJ4006F4,0KPAF1T231018F,103.5,147.6,14.1,3.0,2.9,0,0,DF059,095XF1800201C0,,0JFJ4006F4,0KPAF1T231018F,,, 4.5.0,,,,,,
6/21/2018,10:57:03.29 PM,3m 46.2s,226.2,39.96115572,-106.21646126,0.3,0.3,1.0,8128,0,1.1,0.2,0.5,-0.2,0,0,0,-1.7,-1.6,161.1,161.1,P-GPS,Other,,16,5,True,,Matrice 210,True,False,,Smart,RC,False,True,False,,,True,,False,False,False,False,False,False,False,False,False,False,0,Follow Yaw,0,-1.3,160.7,160.7,False,False,False,False,False,False,,False,Normal,,,1017,1024,1024,1024,1,False,False,False,False,False,0,False,False,False,False,67,,,,23.707,False,3.961,3.967,3.965,3.968,3.965,3.974,0.013,False,False,3.898,3.912,3.903,3.91,3.911,3.898,0.018,False,False,,,,,0,1,0,15,10,1801.8,1124.16,,Idle,0,20,False,10,True,Go Home,39.96115662,-106.21645931,0.6,8246.9,393.7,True,1,1,False,False,False,False,0,False,False,False,Course Lock,98.4,265.4,23.0,Calm,19,, 4.5.0,DF059,095XF1800201C0,,0JFJ4006F4,0KPAF1T231018F,103.5,147.6,14.1,3.0,2.9,0,0,DF059,095XF1800201C0,,0JFJ4006F4,0KPAF1T231018F,,, 4.5.0,,,,,,
6/21/2018,10:57:03.39 PM,3m 46.3s,226.3,39.96115591,-106.21646139,0.3,0.3,1.0,8128,0,1.1,0.2,0.5,-0.2,0,0,0,-1.4,-1.2,161,161,P-GPS,Other,,16,5,True,,Matrice 210,True,False,,Smart,RC,False,True,False,,,True,,False,False,False,False,False,False,False,False,False,False,0,Follow Yaw,-0.1,-1.3,160.5,160.5,False,False,False,False,False,False,,False,Normal,,,1001,987,1024,1024,1,False,False,False,False,False,0,False,False,False,False,67,,,,23.526,False,3.909,3.925,3.918,3.921,3.923,3.93,0.021,False,False,3.898,3.912,3.903,3.91,3.911,3.898,0.018,False,False,,,,,0,1,0,15,10,1801.8,1124.16,,Idle,0,20,False,10,True,Go Home,39.96115662,-106.21645931,0.8,8246.9,393.7,True,1,1,False,False,False,False,0,False,False,False,Course Lock,98.4,265.4,23.0,Calm,19,, 4.5.0,DF059,095XF1800201C0,,0JFJ4006F4,0KPAF1T231018F,103.5,147.6,14.1,3.0,2.9,0,0,DF059,095XF1800201C0,,0JFJ4006F4,0KPAF1T231018F,,, 4.5.0,,,,,,
6/21/2018,10:57:03.50 PM,3m 46.4s,226.4,39.96115617,-106.21646137,0.3,0.3,1.0,8128,0,1.1,0,0.5,0,0,0,0,-1.2,-0.9,160.9,160.9,P-GPS,Other,,16,5,True,,Matrice 210,True,False,,Smart,RC,False,True,False,,,True,,False,False,False,False,False,False,False,False,False,False,0,Follow Yaw,0,-1.5,160.2,160.2,False,False,False,False,False,False,,False,Normal,,,1002,960,1024,1024,1,False,False,False,False,False,0,False,False,False,False,67,,,,23.526,False,3.909,3.925,3.918,3.921,3.923,3.93,0.021,False,False,3.898,3.912,3.903,3.91,3.911,3.898,0.018,False,False,,,,,0,1,0,15,10,1801.8,1124.16,,Idle,0,20,False,10,True,Go Home,39.96115662,-106.21645931,0.6,8246.9,393.7,True,1,1,False,False,False,False,0,False,False,False,Course Lock,98.4,265.4,23.0,Calm,19,, 4.5.0,DF059,095XF1800201C0,,0JFJ4006F4,0KPAF1T231018F,103.5,147.6,14.1,3.0,2.9,0,0,DF059,095XF1800201C0,,0JFJ4006F4,0KPAF1T231018F,,, 4.5.0,,,,,,
6/21/2018,10:57:03.60 PM,3m 46.5s,226.5,39.9611562,-106.21646141,0.3,0.3,1.0,8128,0,1.1,0,0.5,0,0,0,0,-1,-0.8,160.8,160.8,P-GPS,Other,,16,5,True,,Matrice 210,True,False,,Smart,RC,False,True,False,,,True,,False,False,False,False,False,False,False,False,False,False,0,Follow Yaw,0,-1.5,160.1,160.1,False,False,False,False,False,False,,False,Normal,,,1009,938,1024,1024,1,False,False,False,False,False,0,False,False,False,False,67,,,,23.526,False,3.909,3.925,3.918,3.921,3.923,3.93,0.021,False,False,3.898,3.912,3.903,3.91,3.911,3.898,0.018,False,False,,,,,0,1,0,15,10,1801.8,1124.16,,Idle,0,20,False,10,True,Go Home,39.96115662,-106.21645931,0.6,8246.9,393.7,True,1,1,False,False,False,False,0,False,False,False,Course Lock,98.4,265.4,23.0,Calm,19,, 4.5.0,DF059,095XF1800201C0,,0JFJ4006F4,0KPAF1T231018F,103.5,147.6,14.1,3.0,2.9,0,0,DF059,095XF1800201C0,,0JFJ4006F4,0KPAF1T231018F,,, 4.5.0,,,,,,
6/21/2018,10:57:03.70 PM,3m 46.6s,226.6,39.96115617,-106.21646144,0.3,0.3,1.0,8128,0,1.1,0,0.5,0,0,0,0,-0.4,-0.7,160.8,160.8,P-GPS,Other,,16,5,True,,Matrice 210,True,False,,Smart,RC,False,True,False,,,True,,False,False,False,False,False,False,False,False,False,False,0,Follow Yaw,-0.1,-1.5,159.9,159.9,False,False,False,False,False,False,,False,Normal,,,1015,911,1024,1024,1,False,False,False,False,False,0,False,False,False,False,67,,,,23.526,False,3.909,3.925,3.918,3.921,3.923,3.93,0.021,False,False,3.898,3.912,3.903,3.91,3.911,3.898,0.018,False,False,,,,,0,1,0,15,10,1801.8,1124.16,,Idle,0,20,False,10,True,Go Home,39.96115662,-106.21645931,0.6,8246.9,393.7,True,1,1,False,False,False,False,0,False,False,False,Course Lock,98.4,265.4,23.0,Calm,19,, 4.5.0,DF059,095XF1800201C0,,0JFJ4006F4,0KPAF1T231018F,103.5,147.6,14.1,3.0,2.9,0,0,DF059,095XF1800201C0,,0JFJ4006F4,0KPAF1T231018F,,, 4.5.0,,,,,,
6/21/2018,10:57:03.80 PM,3m 46.7s,226.7,39.96115609,-106.21646148,0.3,0.3,1.0,8128,0,1.1,0,0.5,0,0,0,0,0.2,-0.7,160.8,160.8,P-GPS,Other,,16,5,True,,Matrice 210,True,False,,Smart,RC,False,True,False,,,True,,False,False,False,False,False,False,False,False,False,False,0,Follow Yaw,0.1,-1.6,159.9,159.9,False,False,False,False,False,False,,False,Normal,,,1024,1024,1024,1024,1,False,False,False,False,False,0,False,False,False,False,67,,,,23.526,False,3.909,3.925,3.918,3.921,3.923,3.93,0.021,False,False,3.906,3.916,3.908,3.913,3.916,3.901,0.018,False,False,,,,,0,1,0,15,10,1801.8,1124.16,,Idle,0,20,False,10,True,Go Home,39.96115662,-106.21645931,0.6,8246.9,393.7,True,1,1,False,False,False,False,0,False,False,False,Course Lock,98.4,265.4,23.0,Calm,19,, 4.5.0,DF059,095XF1800201C0,,0JFJ4006F4,0KPAF1T231018F,103.5,147.6,14.1,3.0,2.9,0,0,DF059,095XF1800201C0,,0JFJ4006F4,0KPAF1T231018F,,, 4.5.0,,,,,,
6/21/2018,10:57:03.90 PM,3m 46.8s,226.8,39.96115599,-106.2164615,0.3,0.3,1.0,8128,0,1.1,0,0.5,0,0,0,0,1.1,-0.4,160.7,160.7,P-GPS,Other,,16,5,True,,Matrice 210,True,False,,Smart,RC,False,True,False,,,True,,False,False,False,False,False,False,False,False,False,False,0,Follow Yaw,-0.1,-1.5,159.8,159.8,False,False,False,False,False,False,,False,Normal,,,1024,1024,1024,1024,1,False,False,False,False,False,0,False,False,False,False,67,,,,23.526,False,3.909,3.925,3.918,3.921,3.923,3.93,0.021,False,False,3.906,3.916,3.908,3.913,3.916,3.901,0.018,False,False,,,,,0,1,0,15,10,1801.8,1124.16,,Idle,0,20,False,10,True,Go Home,39.96115662,-106.21645931,0.6,8246.9,393.7,True,1,1,False,False,False,False,0,False,False,False,Course Lock,98.4,265.4,23.0,Calm,19,, 4.5.0,DF059,095XF1800201C0,,0JFJ4006F4,0KPAF1T231018F,103.5,147.6,14.1,3.0,2.9,0,0,DF059,095XF1800201C0,,0JFJ4006F4,0KPAF1T231018F,,, 4.5.0,,,,,,
6/21/2018,10:57:04.00 PM,3m 46.9s,226.9,39.96115563,-106.21646157,0.3,0.3,1.0,8128,1.1,1.1,0,0.5,0,0,0,0,0.7,-0.6,160.7,160.7,P-GPS,Other,,16,5,True,,Matrice 210,True,False,,Smart,RC,False,True,False,,,True,,False,False,False,False,False,False,False,False,False,False,0,Follow Yaw,0,-1.7,159.5,159.5,False,False,False,False,False,False,,False,Normal,,,1024,1024,1024,1024,1,False,False,False,False,False,0,False,False,False,False,67,,,,23.526,False,3.909,3.925,3.918,3.921,3.923,3.93,0.021,False,False,3.906,3.916,3.908,3.913,3.916,3.901,0.018,False,False,,,,,0,1,0,15,10,1801.8,1124.16,,Idle,0,20,False,10,True,Go Home,39.96115662,-106.21645931,0.8,8246.9,393.7,True,1,1,False,False,False,False,0,False,False,False,Course Lock,98.4,265.4,23.0,Calm,19,, 4.5.0,DF059,095XF1800201C0,,0JFJ4006F4,0KPAF1T231018F,103.5,147.6,14.1,3.0,2.9,0,0,DF059,095XF1800201C0,,0JFJ4006F4,0KPAF1T231018F,,, 4.5.0,,,,,,
6/21/2018,10:57:04.10 PM,3m 47.0s,227.0,39.96115557,-106.21646156,0.3,0.3,1.0,8128,0,1.1,0,0.5,0,0,0,0,0,-0.7,160.6,160.6,P-GPS,Other,,16,5,True,,Matrice 210,True,False,,Smart,RC,False,True,False,,,True,,False,False,False,False,False,False,False,False,False,False,0,Follow Yaw,0.1,-1.6,159.5,159.5,False,False,False,False,False,False,,False,Normal,,,1024,1024,1024,1024,1,False,False,False,False,False,0,False,False,False,False,67,,,,23.753,False,3.909,3.925,3.918,3.921,3.923,3.93,0.021,False,False,3.906,3.916,3.908,3.913,3.916,3.901,0.018,False,False,,,,,0,1,0,15,10,1801.8,1315.11,,Idle,0,20,False,10,True,Go Home,39.96115662,-106.21645931,0.8,8246.9,393.7,True,1,1,False,False,False,False,0,False,False,False,Course Lock,98.4,265.4,23.0,Calm,19,, 4.5.0,DF059,095XF1800201C0,,0JFJ4006F4,0KPAF1T231018F,103.5,147.6,14.1,3.0,2.9,0,0,DF059,095XF1800201C0,,0JFJ4006F4,0KPAF1T231018F,,, 4.5.0,,,,,,
6/21/2018,10:57:04.20 PM,3m 47.1s,227.1,39.96115558,-106.21646151,0.3,0.3,1.0,8128,0,1.1,0,0.5,0,0,0,0,-0.1,-0.4,160.5,160.5,P-GPS,Other,,16,5,True,,Matrice 210,True,False,,Smart,RC,False,True,False,,,True,,False,False,False,False,False,False,False,False,False,False,0,Follow Yaw,-0.2,-1.5,159.4,159.4,False,False,False,False,False,False,,False,Normal,,,1024,1024,1024,1024,1,False,False,False,False,False,0,False,False,False,False,67,,,,23.753,False,3.909,3.925,3.918,3.921,3.923,3.93,0.021,False,False,3.906,3.916,3.908,3.913,3.916,3.901,0.018,False,False,,,,,0,1,0,15,10,1801.8,1315.11,,Idle,0,20,False,10,True,Go Home,39.96115662,-106.21645931,0.8,8246.9,393.7,True,1,1,False,False,False,False,0,False,False,False,Course Lock,98.4,265.4,23.0,Calm,19,, 4.5.0,DF059,095XF1800201C0,,0JFJ4006F4,0KPAF1T231018F,103.5,147.6,14.1,3.0,2.9,0,0,DF059,095XF1800201C0,,0JFJ4006F4,0KPAF1T231018F,,, 4.5.0,,,,,,
6/21/2018,10:57:04.31 PM,3m 47.2s,227.2,39.96115559,-106.21646147,0.3,0.3,1.0,8128,1.1,1.1,0,0.5,0,0,0,0,0,-0.4,160.4,160.4,P-GPS,Other,,16,5,True,,Matrice 210,True,False,,Smart,RC,False,True,False,,,True,,False,False,False,False,False,False,False,False,False,False,0,Follow Yaw,0.1,-1.8,159.1,159.1,False,False,False,False,False,False,,False,Normal,,,1024,1024,1042,1024,1,False,False,False,False,False,0,False,False,False,False,67,,,,23.753,False,3.909,3.925,3.918,3.921,3.923,3.93,0.021,False,False,3.906,3.916,3.908,3.913,3.916,3.901,0.018,False,False,,,,,0,1,0,15,10,1801.8,1315.11,,Idle,0,20,False,10,True,Go Home,39.96115662,-106.21645931,0.8,8246.9,393.7,True,1,1,False,False,False,False,0,False,False,False,Course Lock,98.4,265.4,23.0,Calm,19,, 4.5.0,DF059,095XF1800201C0,,0JFJ4006F4,0KPAF1T231018F,103.5,147.6,14.1,3.0,2.9,0,0,DF059,095XF1800201C0,,0JFJ4006F4,0KPAF1T231018F,,, 4.5.0,,,,,,
6/21/2018,10:57:04.41 PM,3m 47.3s,227.3,39.96115576,-106.21646146,0.3,0.3,1.0,8128,0,1.1,0,0.5,0,0,0,0,0,-0.3,160.4,160.4,P-GPS,Other,,16,5,True,,Matrice 210,True,False,,Smart,RC,False,True,False,,,True,,False,False,False,False,False,False,False,False,False,False,0,Follow Yaw,0,-1.6,159.1,159.1,False,False,False,False,False,False,,False,Normal,,,1024,1024,1092,1024,1,False,False,False,False,False,0,False,False,False,False,67,,,,23.524,False,3.909,3.923,3.918,3.923,3.923,3.928,0.021,False,False,3.906,3.916,3.908,3.913,3.916,3.901,0.018,False,False,,,,,0,1,0,15,10,1801.8,1315.11,,Idle,0,20,False,10,True,Go Home,39.96115662,-106.21645931,0.7,8246.9,393.7,True,1,1,False,False,False,False,0,False,False,False,Course Lock,98.4,265.4,23.0,Calm,19,, 4.5.0,DF059,095XF1800201C0,,0JFJ4006F4,0KPAF1T231018F,103.5,147.6,14.1,3.0,2.9,0,0,DF059,095XF1800201C0,,0JFJ4006F4,0KPAF1T231018F,,, 4.5.0,,,,,,
6/21/2018,10:57:04.51 PM,3m 47.4s,227.4,39.96115577,-106.21646145,0.3,0.3,1.0,8128,0,1.1,0,0.5,0,0,0,0,0.1,-0.1,160.4,160.4,P-GPS,Other,,16,5,True,,Matrice 210,True,False,,Smart,RC,False,True,False,,,True,,False,False,False,False,False,False,False,False,False,False,0,Follow Yaw,0,-1.5,159.1,159.1,False,False,False,False,False,False,,False,Normal,,,1024,1024,1109,923,1,False,False,False,False,False,0,False,False,False,False,67,,,,23.524,False,3.909,3.923,3.918,3.923,3.923,3.928,0.021,False,False,3.906,3.916,3.908,3.913,3.916,3.901,0.018,False,False,,,,,0,1,0,15,10,1801.8,1315.11,,Idle,0,20,False,10,True,Go Home,39.96115662,-106.21645931,0.8,8246.9,393.7,True,1,1,False,False,False,False,0,False,False,False,Course Lock,98.4,265.4,23.0,Calm,19,, 4.5.0,DF059,095XF1800201C0,,0JFJ4006F4,0KPAF1T231018F,103.5,147.6,14.1,3.0,2.9,0,0,DF059,095XF1800201C0,,0JFJ4006F4,0KPAF1T231018F,,, 4.5.0,,,,,,
6/21/2018,10:57:04.61 PM,3m 47.5s,227.5,39.96115577,-106.21646143,0.3,0.3,1.0,8128,0,1.1,0,0.5,0,0,0,0,-0.1,0,160.4,160.4,P-GPS,Other,,16,5,True,,Matrice 210,True,False,,Smart,RC,False,True,False,,,True,,False,False,False,False,False,False,False,False,False,False,0,Follow Yaw,0,-1.6,159.1,159.1,False,False,False,False,False,False,,False,Normal,,,1024,1024,1111,856,1,False,False,False,False,False,0,False,False,False,False,67,,,,23.524,False,3.909,3.923,3.918,3.923,3.923,3.928,0.021,False,False,3.906,3.916,3.908,3.913,3.916,3.901,0.018,False,False,,,,,0,1,0,15,10,1801.8,1315.11,,Idle,0,20,False,10,True,Go Home,39.96115662,-106.21645931,0.8,8246.9,393.7,True,1,1,False,False,False,False,0,False,False,False,Course Lock,98.4,265.4,23.0,Calm,19,, 4.5.0,DF059,095XF1800201C0,,0JFJ4006F4,0KPAF1T231018F,103.5,147.6,14.1,3.0,2.9,0,0,DF059,095XF1800201C0,,0JFJ4006F4,0KPAF1T231018F,,, 4.5.0,,,,,,
6/21/2018,10:57:04.71 PM,3m 47.6s,227.6,39.96115577,-106.21646144,0.3,0.3,1.0,8128,0,1.1,0,0.5,0,0,0,0,-0.1,-0.1,160.4,160.4,P-GPS,Other,,16,5,True,,Matrice 210,True,False,,Smart,RC,False,True,False,,,True,,False,False,False,False,False,False,False,False,False,False,0,Follow Yaw,-0.1,-1.5,159,159,False,False,False,False,False,False,,False,Normal,,,1024,1024,1151,718,1,False,False,False,False,False,0,False,False,False,False,67,,,,23.524,False,3.909,3.923,3.918,3.923,3.923,3.928,0.021,False,False,3.906,3.916,3.908,3.913,3.916,3.901,0.018,False,False,,,,,0,1,0,15,10,1801.8,1315.11,,Idle,0,20,False,10,True,Go Home,39.96115662,-106.21645931,0.8,8246.9,393.7,True,1,1,False,False,False,False,0,False,False,False,Course Lock,98.4,265.4,23.0,Calm,19,, 4.5.0,DF059,095XF1800201C0,,0JFJ4006F4,0KPAF1T231018F,103.5,147.6,14.1,3.0,2.9,0,0,DF059,095XF1800201C0,,0JFJ4006F4,0KPAF1T231018F,,, 4.5.0,,,,,,
6/21/2018,10:57:04.81 PM,3m 47.7s,227.7,39.96115582,-106.21646164,0.3,0.3,1.0,8128,0,1.1,0,0.5,0,0,0,0,0,-0.2,160.2,160.2,P-GPS,Other,,16,5,True,,Matrice 210,True,False,,Smart,RC,False,True,False,,,True,,False,False,False,False,False,False,False,False,False,False,0,Follow Yaw,0,-1.5,158.5,158.5,False,False,False,False,False,False,,False,Normal,,,1024,1024,1107,724,1,False,False,False,False,False,0,False,False,False,False,67,,,,23.524,False,3.909,3.923,3.918,3.923,3.923,3.928,0.021,False,False,3.899,3.911,3.905,3.908,3.912,3.899,0.018,False,False,,,,,0,1,0,15,10,1801.8,1315.11,,Idle,0,20,False,10,True,Go Home,39.96115662,-106.21645931,0.6,8246.9,393.7,True,1,1,False,False,False,False,0,False,False,False,Course Lock,98.4,265.4,23.0,Calm,19,, 4.5.0,DF059,095XF1800201C0,,0JFJ4006F4,0KPAF1T231018F,103.5,147.6,14.1,3.0,2.9,0,0,DF059,095XF1800201C0,,0JFJ4006F4,0KPAF1T231018F,,, 4.5.0,,,,,,
6/21/2018,10:57:04.91 PM,3m 47.8s,227.8,39.96115581,-106.21646167,0.3,0.3,1.0,8128,0,1.1,0,0.5,0,0,0,0,0,-0.5,159.5,159.5,P-GPS,Other,,16,5,True,,Matrice 210,True,False,,Smart,RC,False,True,False,,,True,,False,False,False,False,False,False,False,False,False,False,0,Follow Yaw,0,-1.6,157.2,157.2,False,False,False,False,False,False,,False,Normal,,,1024,1024,1024,897,1,False,False,False,False,False,0,False,False,False,False,67,,,,23.524,False,3.909,3.923,3.918,3.923,3.923,3.928,0.021,False,False,3.899,3.911,3.905,3.908,3.912,3.899,0.018,False,False,,,,,0,1,0,15,10,1801.8,1315.11,,Idle,0,20,False,10,True,Go Home,39.96115662,-106.21645931,0.8,8246.9,393.7,True,1,1,False,False,False,False,0,False,False,False,Course Lock,98.4,265.4,23.0,Calm,19,, 4.5.0,DF059,095XF1800201C0,,0JFJ4006F4,0KPAF1T231018F,103.5,147.6,14.1,3.0,2.9,0,0,DF059,095XF1800201C0,,0JFJ4006F4,0KPAF1T231018F,,, 4.5.0,,,,,,
6/21/2018,10:57:05.02 PM,3m 47.9s,227.9,39.96115581,-106.21646164,0.3,0.3,1.0,8128,0,1.1,0,0.5,0,0,-0.2,0,0.3,-1,158,158,P-GPS,Other,,16,5,True,,Matrice 210,True,False,,Smart,RC,False,True,False,,,True,,False,False,False,False,False,False,False,False,False,False,0,Follow Yaw,0,-1.7,155.9,155.9,False,False,False,False,False,False,,False,Normal,,,1024,1024,1024,1018,1,False,False,False,False,False,0,False,False,False,False,67,,,,23.524,False,3.909,3.923,3.918,3.923,3.923,3.928,0.021,False,False,3.899,3.911,3.905,3.908,3.912,3.899,0.018,False,False,,,,,0,1,0,15,10,1801.8,1315.11,,Idle,0,20,False,10,True,Go Home,39.96115662,-106.21645931,0.7,8246.9,393.7,True,1,1,False,False,False,False,0,False,False,False,Course Lock,98.4,265.4,23.0,Calm,19,, 4.5.0,DF059,095XF1800201C0,,0JFJ4006F4,0KPAF1T231018F,103.5,147.6,14.1,3.0,2.9,0,0,DF059,095XF1800201C0,,0JFJ4006F4,0KPAF1T231018F,,, 4.5.0,,,,,,
6/21/2018,10:57:05.12 PM,3m 48.0s,228.0,39.96115582,-106.21646159,0.3,0.3,1.0,8128,0,1.1,0,0.5,0,0,0,0,0.2,-0.6,157,157,P-GPS,Other,,16,5,True,,Matrice 210,True,False,,Smart,RC,False,True,False,,,True,,False,False,False,False,False,False,False,False,False,False,0,Follow Yaw,0.1,-1.6,155.5,155.5,False,False,False,False,False,False,,False,Normal,,,1024,1024,1024,1024,1,False,False,False,False,False,0,False,False,False,False,67,,,,23.769,False,3.909,3.923,3.918,3.923,3.923,3.928,0.021,False,False,3.899,3.911,3.905,3.908,3.912,3.899,0.018,False,False,,,,,0,1,0,15,10,1801.8,1754.72,,Idle,0,20,False,10,True,Go Home,39.96115662,-106.21645931,0.6,8246.9,393.7,True,1,1,False,False,False,False,0,False,False,False,Course Lock,98.4,265.4,23.0,Calm,19,, 4.5.0,DF059,095XF1800201C0,,0JFJ4006F4,0KPAF1T231018F,103.5,147.6,14.1,3.0,2.9,0,0,DF059,095XF1800201C0,,0JFJ4006F4,0KPAF1T231018F,,, 4.5.0,,,,,,
6/21/2018,10:57:05.22 PM,3m 48.1s,228.1,39.9611559,-106.21646147,0.3,0.3,1.0,8128,0,1.1,0,0.5,0,0,0,0,0,0.1,156.7,156.7,P-GPS,Other,,16,5,True,,Matrice 210,True,False,,Smart,RC,False,True,False,,,True,,False,False,False,False,False,False,False,False,False,False,0,Follow Yaw,-0.1,-1.5,155.2,155.2,False,False,False,False,False,False,,False,Normal,,,1024,1024,1024,1024,1,False,False,False,False,False,0,False,False,False,False,67,,,,23.769,False,3.909,3.923,3.918,3.923,3.923,3.928,0.021,False,False,3.899,3.911,3.905,3.908,3.912,3.899,0.018,False,False,,,,,0,1,0,15,10,1801.8,1754.72,,Idle,0,20,False,10,True,Go Home,39.96115662,-106.21645931,0.6,8246.9,393.7,True,1,1,False,False,False,False,0,False,False,False,Course Lock,98.4,265.4,23.0,Calm,19,, 4.5.0,DF059,095XF1800201C0,,0JFJ4006F4,0KPAF1T231018F,103.5,147.6,14.1,3.0,2.9,0,0,DF059,095XF1800201C0,,0JFJ4006F4,0KPAF1T231018F,,, 4.5.0,,,,,,
