sep=,
CUSTOM.date [local], CUSTOM.updateTime [local], OSD.flyTime, OSD.flyTime [s], OSD.latitude, OSD.longitude, OSD.height [ft], OSD.heightMax [ft], OSD.vpsHeight [ft], OSD.altitude [ft], OSD.hSpeed [MPH], OSD.hSpeedMax [MPH], OSD.xSpeed [MPH], OSD.xSpeedMax [MPH], OSD.ySpeed [MPH], OSD.ySpeedMax [MPH], OSD.zSpeed [MPH], OSD.zSpeedMax [MPH], OSD.pitch, OSD.roll, OSD.yaw, OSD.yaw [360], OSD.flycState, OSD.flycCommand, OSD.flightAction, OSD.gpsNum, OSD.gpsLevel, OSD.isGPSUsed, OSD.nonGPSCause, OSD.droneType, OSD.isSwaveWork, OSD.waveError, OSD.goHomeStatus, OSD.batteryType, OSD.ctrlDevice, OSD.isOnGround, OSD.isMotorOn, OSD.isMotorBlocked, OSD.motorStartFailedCause, OSD.motorFailReason, OSD.isImuPreheated, OSD.imuInitFailReason, OSD.isAcceletorOverRange, OSD.isBarometerDeadInAir, OSD.isCompassError, OSD.isGoHomeHeightModified, OSD.canIOCWork, OSD.isNotEnoughForce, OSD.isOutOfLimit, OSD.isPropellerCatapult, OSD.isVibrating, OSD.isVisionUsed, OSD.voltageWarning, GIMBAL.mode, GIMBAL.pitch, GIMBAL.roll, GIMBAL.yaw, GIMBAL.yaw [360], GIMBAL.isPitchAtLimit, GIMBAL.isRollAtLimit, GIMBAL.isYawAtLimit, GIMBAL.isStuck, CAMERA.isPhoto, CAMERA.isVideo, CAMERA.filename, CAMERA.sdCardIsInserted, CAMERA.sdCardState, RC.downlinkSignal, RC.uplinkSignal, RC.aileron, RC.elevator, RC.throttle, RC.rudder, RC.mode, RC.goHomeDepressed, RC.recordDepressed, RC.shutterDepressed, RC.playbackDepressed, RC.wheelDepressed, RC.wheelOffset, RC.custom1Depressed, RC.custom2Depressed, RC.custom3Depressed, RC.custom4Depressed, BATTERY.chargeLevel, BATTERY.currentPV [V], BATTERY.currentCapacity [mAh], BATTERY.fullCapacity [mAh], BATTERY.voltage [V], BATTERY.isCellVoltageEstimated, BATTERY.cellVoltage1 [V], BATTERY.cellVoltage2 [V], BATTERY.cellVoltage3 [V], BATTERY.cellVoltage4 [V], BATTERY.cellVoltage5 [V], BATTERY.cellVoltage6 [V], BATTERY.maxCellVoltageDeviation, BATTERY.isCellVoltageDeviationHigh, BATTERY.isVoltageLow, BATTERY2.cellVoltage1 [V], BATTERY2.cellVoltage2 [V], BATTERY2.cellVoltage3 [V], BATTERY2.cellVoltage4 [V], BATTERY2.cellVoltage5 [V], BATTERY2.cellVoltage6 [V], BATTERY2.maxCellVoltageDeviation, BATTERY2.isCellVoltageDeviationHigh, BATTERY2.isVoltageLow, BATTERY.current [A], BATTERY.temperature [F], BATTERY.minTemperature [F], BATTERY.maxTemperature [F], BATTERY.usefulTime [s], BATTERY.goHomeTime [s], BATTERY.landTime [s], BATTERY.goHomeBattery, BATTERY.landBattery, BATTERY.safeFlyRadius, BATTERY.volumeConsume, BATTERY.status, BATTERY.goHomeStatus, BATTERY.goHomeCountdown, BATTERY.lowWarning, BATTERY.lowWarningGoHome, BATTERY.seriousLowWarning, BATTERY.seriousLowWarningLanding, MC.failSafeAction, HOME.latitude, HOME.longitude, HOME.distance [ft], HOME.height [ft], HOME.heightLimit [ft], HOME.isHomeRecord, HOME.goHomeMode, HOME.aircraftHeadDirection, HOME.isDynamicHomePointEnabled, HOME.isReachedLimitDistance, HOME.isReachedLimitHeight, HOME.isCompassCeleing, HOME.compassCeleStatus, HOME.isMultipleFlightModeEnabled, HOME.isBeginnerMode, HOME.isIOCEnabled, HOME.iocMode, HOME.goHomeHeight [ft], HOME.courseLockAngle, HOME.forceLandingHeight [ft], HOME.wind, HOME.dataRecorderFileIndex, RECOVER.appType, RECOVER.appVersion, RECOVER.aircraftName, RECOVER.aircraftSerial, RECOVER.cameraSerial, RECOVER.rcSerial, RECOVER.batterySerial, DETAILS.totalTime [s], DETAILS.totalDistance [ft], DETAILS.maxHeight [ft], DETAILS.maxHorizontalSpeed [MPH], DETAILS.maxVerticalSpeed [MPH], DETAILS.photoNum, DETAILS.videoTime [s], DETAILS.aircraftName, DETAILS.aircraftSerial, DETAILS.cameraSerial, DETAILS.rcSerial, DETAILS.batterySerial, DETAILS.appName, DETAILS.appType, DETAILS.appVersion, APPGPS.latitude, APPGPS.longitude, APPGPS.accuracy, APP.message, APP.tip, APP.warning
6/21/2018,10:53:27.56 PM,2m 31.7s,151.7,39.9611741,-106.21644891,0,0,0.0,8128,0,0,0,0,0,0,0,0,4.5,-8.1,154.4,154.4,Starting Motors,Other,Takeoff (RC Assisted),17,5,True,,Matrice 210,True,False,,Smart,RC,True,True,False,,,True,,False,False,False,False,False,False,False,False,False,False,0,Follow Yaw,0,-9.1,155,155,False,False,False,False,False,False,,False,Normal,,,1024,1024,1024,1024,1,False,False,False,False,False,0,False,False,False,False,,,,,24.346,False,4.055,4.057,4.055,4.06,4.055,4.064,0.009,False,False,,,,,,,,False,False,,,,,,,,,,,,,Idle,,,True,,False,Go Home,,,,,,False,,,False,False,False,False,0,False,False,False,,,,,Calm,,, 4.5.0,DF059,095XF1800201C0,,0JFJ4006F4,0KPAF1T231018F,17.9,10.2,1.3,1.1,0.7,0,0,DF059,095XF1800201C0,,0JFJ4006F4,0KPAF1T231018F,,, 4.5.0,,,,,,
6/21/2018,10:53:27.67 PM,2m 31.8s,151.8,39.96117409,-106.21644892,0,0,0.0,8128,0,0,0,0,0,0,0,0,4.5,-8.1,154.4,154.4,Starting Motors,Other,Takeoff (RC Assisted),17,5,True,,Matrice 210,True,False,,Smart,RC,True,True,False,,,True,,False,False,False,False,False,False,False,False,False,False,0,Follow Yaw,0,-9.1,155.1,155.1,False,False,False,False,False,False,,False,Normal,,,1024,1024,1024,1024,1,False,False,False,False,False,0,False,False,False,False,,,,,24.346,False,4.055,4.057,4.055,4.06,4.055,4.064,0.009,False,False,,,,,,,,False,False,,,,,,,,,,,,,Idle,,,True,,False,Go Home,,,,,,False,,,False,False,False,False,0,False,False,False,,,,,Calm,,, 4.5.0,DF059,095XF1800201C0,,0JFJ4006F4,0KPAF1T231018F,17.9,10.2,1.3,1.1,0.7,0,0,DF059,095XF1800201C0,,0JFJ4006F4,0KPAF1T231018F,,, 4.5.0,,,,,,
6/21/2018,10:53:27.77 PM,2m 31.9s,151.9,39.96117407,-106.21644893,0,0,0.0,8128,0,0,0,0,0,0,0,0,4.5,-8.1,154.4,154.4,Starting Motors,Other,Takeoff (RC Assisted),17,5,True,,Matrice 210,True,False,,Smart,RC,True,True,False,,,True,,False,False,False,False,False,False,False,False,False,False,0,Follow Yaw,0,-9.1,155.1,155.1,False,False,False,False,False,False,,False,Normal,,,1024,1024,1024,1024,1,False,False,False,False,False,0,False,False,False,False,,,,,24.346,False,4.055,4.057,4.055,4.06,4.055,4.064,0.009,False,False,,,,,,,,False,False,,,,,,,,,,,,,Idle,,,True,,False,Go Home,,,,,,False,,,False,False,False,False,0,False,False,False,,,,,Calm,,, 4.5.0,DF059,095XF1800201C0,,0JFJ4006F4,0KPAF1T231018F,17.9,10.2,1.3,1.1,0.7,0,0,DF059,095XF1800201C0,,0JFJ4006F4,0KPAF1T231018F,,, 4.5.0,,,,,,
6/21/2018,10:53:27.87 PM,2m 32.0s,152.0,39.96117408,-106.21644893,0,0,0.0,8128,0,0,0,0,0,0,0,0,4.5,-8.1,154.4,154.4,Starting Motors,Other,Takeoff (RC Assisted),17,5,True,,Matrice 210,True,False,,Smart,RC,True,True,False,,,True,,False,False,False,False,False,False,False,False,False,False,0,Follow Yaw,0,-9.1,155,155,False,False,False,False,False,False,,False,Normal,,,1024,1024,1024,1024,1,False,False,False,False,False,0,False,False,False,False,,,,,24.346,False,4.055,4.057,4.055,4.06,4.055,4.064,0.009,False,False,,,,,,,,False,False,,,,,,,,,,,,,Idle,,,True,,False,Go Home,,,,,,False,,,False,False,False,False,0,False,False,False,,,,,Calm,,, 4.5.0,DF059,095XF1800201C0,,0JFJ4006F4,0KPAF1T231018F,17.9,10.2,1.3,1.1,0.7,0,0,DF059,095XF1800201C0,,0JFJ4006F4,0KPAF1T231018F,,, 4.5.0,,,,,,
6/21/2018,10:53:27.97 PM,2m 32.1s,152.1,39.96117411,-106.21644893,0,0,0.0,8128,0,0,0,0,0,0,0,0,4.5,-8.1,154.4,154.4,Starting Motors,Other,Takeoff (RC Assisted),17,5,True,,Matrice 210,True,False,,Smart,RC,True,True,False,,,True,,False,False,False,False,False,False,False,False,False,False,0,Follow Yaw,0,-9.1,155,155,False,False,False,False,False,False,,False,Normal,,,1024,1024,1024,1024,1,False,False,False,False,False,0,False,False,False,False,,,,,24.346,False,4.055,4.057,4.055,4.06,4.055,4.064,0.009,False,False,4.052,4.052,4.049,4.055,4.052,4.042,0.013,False,False,,,,,,,,,,,,,Idle,,,True,,False,Go Home,,,,,,False,,,False,False,False,False,0,False,False,False,,,,,Calm,,, 4.5.0,DF059,095XF1800201C0,,0JFJ4006F4,0KPAF1T231018F,17.9,10.2,1.3,1.1,0.7,0,0,DF059,095XF1800201C0,,0JFJ4006F4,0KPAF1T231018F,,, 4.5.0,,,,,,
6/21/2018,10:53:28.07 PM,2m 32.2s,152.2,39.96117421,-106.21644886,0,0,0.0,8128,0,0,0,0,0,0,0,0,4.5,-8.1,154.4,154.4,Starting Motors,Other,Takeoff (RC Assisted),17,5,True,,Matrice 210,True,False,,Smart,RC,True,True,False,,,True,,False,False,False,False,False,False,False,False,False,False,0,Follow Yaw,0,-9.1,155,155,False,False,False,False,False,False,,False,Normal,,,1024,1024,1024,1024,1,False,False,False,False,False,0,False,False,False,False,75,,,,24.289,False,4.055,4.057,4.055,4.06,4.055,4.064,0.009,False,False,4.052,4.052,4.049,4.055,4.052,4.042,0.013,False,False,,,,,0,6,0,16,10,2137.2,1035.97,,Idle,0,20,False,10,True,Go Home,,,,,,False,,,False,False,False,False,0,False,False,False,,,,,Calm,,, 4.5.0,DF059,095XF1800201C0,,0JFJ4006F4,0KPAF1T231018F,17.9,10.2,1.3,1.1,0.7,0,0,DF059,095XF1800201C0,,0JFJ4006F4,0KPAF1T231018F,,, 4.5.0,,,,,,
6/21/2018,10:53:28.17 PM,2m 32.3s,152.3,39.96117422,-106.21644884,0,0,0.0,8128,0,0,0,0,0,0,0,0,4.5,-8.1,154.4,154.4,Starting Motors,Other,Takeoff (RC Assisted),17,5,True,,Matrice 210,True,False,,Smart,RC,True,True,False,,,True,,False,False,False,False,False,False,False,False,False,False,0,Follow Yaw,0,-9.1,155.1,155.1,False,False,False,False,False,False,,False,Normal,,,1024,1024,1024,1024,1,False,False,False,False,False,0,False,False,False,False,75,,,,24.289,False,4.055,4.057,4.055,4.06,4.055,4.064,0.009,False,False,4.052,4.052,4.049,4.055,4.052,4.042,0.013,False,False,,,,,0,6,0,16,10,2137.2,1035.97,,Idle,0,20,False,10,True,Go Home,,,,,,False,,,False,False,False,False,0,False,False,False,,,,,Calm,,, 4.5.0,DF059,095XF1800201C0,,0JFJ4006F4,0KPAF1T231018F,17.9,10.2,1.3,1.1,0.7,0,0,DF059,095XF1800201C0,,0JFJ4006F4,0KPAF1T231018F,,, 4.5.0,,,,,,
6/21/2018,10:53:28.19 PM,2m 32.4s,152.4,39.96117423,-106.21644885,0,0,0.0,8128,0,0,0,0,0,0,0,0,4.5,-8.1,154.4,154.4,Starting Motors,Other,Takeoff (RC Assisted),17,5,True,,Matrice 210,True,False,,Smart,RC,True,True,False,,,True,,False,False,False,False,False,False,False,False,False,False,0,Follow Yaw,0,-9.1,155,155,False,False,False,False,False,False,,False,Normal,,,1024,1024,1024,1024,1,False,False,False,False,False,0,False,False,False,False,75,,,,24.289,False,4.055,4.057,4.055,4.06,4.055,4.064,0.009,False,False,4.052,4.052,4.049,4.055,4.052,4.042,0.013,False,False,,,,,0,6,0,16,10,2137.2,1035.97,,Idle,0,20,False,10,True,Go Home,,,,,,False,,,False,False,False,False,0,False,False,False,,,,,Calm,,, 4.5.0,DF059,095XF1800201C0,,0JFJ4006F4,0KPAF1T231018F,17.9,10.2,1.3,1.1,0.7,0,0,DF059,095XF1800201C0,,0JFJ4006F4,0KPAF1T231018F,,, 4.5.0,,,,,,
6/21/2018,10:53:28.37 PM,2m 32.5s,152.5,39.96117423,-106.2164489,0,0,0.0,8128,0,0,0,0,0,0,0,0,4.5,-8.1,154.3,154.3,Starting Motors,Other,Takeoff (RC Assisted),17,5,True,,Matrice 210,True,False,,Smart,RC,True,True,False,,,True,,False,False,False,False,False,False,False,False,False,False,0,Follow Yaw,0,-9.1,155,155,False,False,False,False,False,False,,False,Normal,,,1024,1024,1024,1024,1,False,False,False,False,False,0,False,False,False,False,75,,,,24.289,False,4.055,4.057,4.055,4.06,4.055,4.064,0.009,False,False,4.052,4.052,4.049,4.055,4.052,4.042,0.013,False,False,,,,,0,6,0,16,10,2137.2,1035.97,,Idle,0,20,False,10,True,Go Home,,,,,,False,,,False,False,False,False,0,False,False,False,,,,,Calm,,, 4.5.0,DF059,095XF1800201C0,,0JFJ4006F4,0KPAF1T231018F,17.9,10.2,1.3,1.1,0.7,0,0,DF059,095XF1800201C0,,0JFJ4006F4,0KPAF1T231018F,,, 4.5.0,,,,,,
6/21/2018,10:53:28.39 PM,2m 32.6s,152.6,39.96117423,-106.21644895,0,0,0.0,8128,1.1,1.1,0,0,0,0,0,0,4.5,-8.1,154.3,154.3,Starting Motors,Other,Takeoff (RC Assisted),17,5,True,,Matrice 210,True,False,,Smart,RC,True,True,False,,,True,,False,False,False,False,False,False,False,False,False,False,0,Follow Yaw,0,-9.1,155,155,False,False,False,False,False,False,,False,Normal,,,1024,1024,1024,1024,1,False,False,False,False,False,0,False,False,False,False,75,,,,24.289,False,4.055,4.057,4.055,4.06,4.055,4.064,0.009,False,False,4.052,4.052,4.049,4.055,4.052,4.042,0.013,False,False,,,,,0,6,0,16,10,2137.2,1035.97,,Idle,0,20,False,10,True,Go Home,,,,,,False,,,False,False,False,False,0,False,False,False,,,,,Calm,,, 4.5.0,DF059,095XF1800201C0,,0JFJ4006F4,0KPAF1T231018F,17.9,10.2,1.3,1.1,0.7,0,0,DF059,095XF1800201C0,,0JFJ4006F4,0KPAF1T231018F,,, 4.5.0,,,,,,
6/21/2018,10:53:28.58 PM,2m 32.7s,152.7,39.96117422,-106.21644891,0,0,0.0,8128,0,1.1,0,0,0,0,0,0,4.5,-8.1,154.3,154.3,Starting Motors,Other,Takeoff (RC Assisted),17,5,True,,Matrice 210,True,False,,Smart,RC,True,True,False,,,True,,False,False,False,False,False,False,False,False,False,False,0,Follow Yaw,0,-9.1,155,155,False,False,False,False,False,False,,False,Normal,,,1024,1024,1024,1024,1,False,False,False,False,False,0,False,False,False,False,75,,,,24.289,False,4.055,4.057,4.055,4.06,4.055,4.064,0.009,False,False,4.052,4.052,4.049,4.055,4.052,4.042,0.013,False,False,,,,,0,6,0,16,10,2137.2,1035.97,,Idle,0,20,False,10,True,Go Home,,,,,,False,,,False,False,False,False,0,False,False,False,,,,,Calm,,, 4.5.0,DF059,095XF1800201C0,,0JFJ4006F4,0KPAF1T231018F,17.9,10.2,1.3,1.1,0.7,0,0,DF059,095XF1800201C0,,0JFJ4006F4,0KPAF1T231018F,,, 4.5.0,,,,,,
6/21/2018,10:53:28.68 PM,2m 32.8s,152.8,39.96117422,-106.21644887,0,0,0.0,8128,0,1.1,0,0,0,0,0,0,4.5,-8.1,154.3,154.3,Manual Takeoff,Other,Takeoff (RC Assisted),17,5,True,,Matrice 210,True,False,,Smart,RC,True,True,False,,,True,,False,False,False,False,False,False,False,False,False,False,0,Follow Yaw,0,-9.1,155,155,False,False,False,False,False,False,,False,Normal,,,1024,1024,1024,1024,1,False,False,False,False,False,0,False,False,False,False,75,,,,24.348,False,4.057,4.057,4.055,4.06,4.055,4.064,0.009,False,False,4.052,4.052,4.049,4.055,4.052,4.042,0.013,False,False,,,,,0,6,0,16,10,2137.2,1035.97,,Idle,0,20,False,10,True,Go Home,,,,,,False,,,False,False,False,False,0,False,False,False,,,,,Calm,,, 4.5.0,DF059,095XF1800201C0,,0JFJ4006F4,0KPAF1T231018F,17.9,10.2,1.3,1.1,0.7,0,0,DF059,095XF1800201C0,,0JFJ4006F4,0KPAF1T231018F,,, 4.5.0,,,,,,
6/21/2018,10:53:28.78 PM,2m 32.9s,152.9,39.96117421,-106.21644884,0,0,0.0,8128,0,1.1,0,0,0,0,0,0,4.5,-8.1,154.3,154.3,Manual Takeoff,Other,Takeoff (RC Assisted),17,5,True,,Matrice 210,True,False,,Smart,RC,True,True,False,,,True,,False,False,False,False,False,False,False,False,False,False,0,Follow Yaw,0,-9.1,155,155,False,False,False,False,False,False,,False,Normal,,,1024,1024,1024,1024,1,False,False,False,False,False,0,False,False,False,False,75,,,,24.348,False,4.057,4.057,4.055,4.06,4.055,4.064,0.009,False,False,4.052,4.052,4.049,4.055,4.052,4.042,0.013,False,False,,,,,0,6,0,16,10,2137.2,1035.97,,Idle,0,20,False,10,True,Go Home,,,,,,False,,,False,False,False,False,0,False,False,False,,,,,Calm,,, 4.5.0,DF059,095XF1800201C0,,0JFJ4006F4,0KPAF1T231018F,17.9,10.2,1.3,1.1,0.7,0,0,DF059,095XF1800201C0,,0JFJ4006F4,0KPAF1T231018F,,, 4.5.0,,,,,,
6/21/2018,10:53:28.88 PM,2m 33.0s,153.0,39.96117423,-106.2164488,0,0,0.0,8128,0,1.1,0,0,0,0,0,0,4.5,-8.1,154.3,154.3,Manual Takeoff,Other,Takeoff (RC Assisted),17,5,True,,Matrice 210,True,False,,Smart,RC,True,True,False,,,True,,False,False,False,False,False,False,False,False,False,False,0,Follow Yaw,0,-9.1,155,155,False,False,False,False,False,False,,False,Normal,,,1024,1024,1024,1024,1,False,False,False,False,False,0,False,False,False,False,75,,,,24.348,False,4.057,4.057,4.055,4.06,4.055,4.064,0.009,False,False,4.052,4.052,4.049,4.055,4.052,4.042,0.013,False,False,,,,,0,6,0,16,10,2137.2,1035.97,,Idle,0,20,False,10,True,Go Home,,,,,,False,,,False,False,False,False,0,False,False,False,,,,,Calm,,, 4.5.0,DF059,095XF1800201C0,,0JFJ4006F4,0KPAF1T231018F,17.9,10.2,1.3,1.1,0.7,0,0,DF059,095XF1800201C0,,0JFJ4006F4,0KPAF1T231018F,,, 4.5.0,,,,,,
6/21/2018,10:53:28.98 PM,2m 33.1s,153.1,39.9611743,-106.21644875,0,0,0.0,8128,0,1.1,0,0,0,0,0,0,4.5,-8.1,154.3,154.3,Manual Takeoff,Other,Takeoff (RC Assisted),17,5,True,,Matrice 210,True,False,,Smart,RC,True,True,False,,,True,,False,False,False,False,False,False,False,False,False,False,0,Follow Yaw,0,-9.2,155,155,False,False,False,False,False,False,,False,Normal,,,1024,1024,1024,1024,1,False,False,False,False,False,0,False,False,False,False,75,,,,24.348,False,4.057,4.057,4.055,4.06,4.055,4.064,0.009,False,False,4.04,4.042,4.039,4.041,4.042,4.031,0.013,False,False,,,,,0,6,0,16,10,2137.2,1035.97,,Idle,0,20,False,10,True,Go Home,,,,,,False,,,False,False,False,False,0,False,False,False,,,,,Calm,,, 4.5.0,DF059,095XF1800201C0,,0JFJ4006F4,0KPAF1T231018F,17.9,10.2,1.3,1.1,0.7,0,0,DF059,095XF1800201C0,,0JFJ4006F4,0KPAF1T231018F,,, 4.5.0,,,,,,
6/21/2018,10:53:29.08 PM,2m 33.2s,153.2,39.96117435,-106.21644872,0,0,0.0,8128,0,1.1,0,0,0,0,0,0,4.5,-8.1,154.3,154.3,Manual Takeoff,Other,Takeoff (RC Assisted),17,5,True,,Matrice 210,True,False,,Smart,RC,True,True,False,,,True,,False,False,False,False,False,False,False,False,False,False,0,Follow Yaw,0,-9.2,155,155,False,False,False,False,False,False,,False,Normal,,,1024,1024,1024,1024,1,False,False,False,False,False,0,False,False,False,False,75,,,,24.337,False,4.057,4.057,4.055,4.06,4.055,4.064,0.009,False,False,4.04,4.042,4.039,4.041,4.042,4.031,0.013,False,False,,,,,0,6,0,16,10,2137.2,1035.70,,Idle,0,20,False,10,True,Go Home,,,,,,False,,,False,False,False,False,0,False,False,False,,,,,Calm,,, 4.5.0,DF059,095XF1800201C0,,0JFJ4006F4,0KPAF1T231018F,17.9,10.2,1.3,1.1,0.7,0,0,DF059,095XF1800201C0,,0JFJ4006F4,0KPAF1T231018F,,, 4.5.0,,,,,,
6/21/2018,10:53:29.19 PM,2m 33.3s,153.3,39.96117436,-106.21644874,0,0,0.0,8128,0,1.1,0,0,0,0,0,0,4.5,-8.1,154.3,154.3,Manual Takeoff,Other,Takeoff (RC Assisted),17,5,True,,Matrice 210,True,False,,Smart,RC,True,True,False,,,True,,False,False,False,False,False,False,False,False,False,False,0,Follow Yaw,0,-9.2,155,155,False,False,False,False,False,False,,False,Normal,,,1024,1024,1028,1024,1,False,False,False,False,False,0,False,False,False,False,75,,,,24.337,False,4.057,4.057,4.055,4.06,4.055,4.064,0.009,False,False,4.04,4.042,4.039,4.041,4.042,4.031,0.013,False,False,,,,,0,6,0,16,10,2137.2,1035.70,,Idle,0,20,False,10,True,Go Home,,,,,,False,,,False,False,False,False,0,False,False,False,,,,,Calm,,, 4.5.0,DF059,095XF1800201C0,,0JFJ4006F4,0KPAF1T231018F,17.9,10.2,1.3,1.1,0.7,0,0,DF059,095XF1800201C0,,0JFJ4006F4,0KPAF1T231018F,,, 4.5.0,,,,,,
6/21/2018,10:53:29.29 PM,2m 33.4s,153.4,39.96117435,-106.2164487,0,0,0.0,8128,0,1.1,0,0,0,0,0,0,4.5,-8.1,154.3,154.3,Manual Takeoff,Other,Takeoff (RC Assisted),17,5,True,,Matrice 210,True,False,,Smart,RC,True,True,False,,,True,,False,False,False,False,False,False,False,False,False,False,0,Follow Yaw,0,-9.2,155,155,False,False,False,False,False,False,,False,Normal,,,1024,1024,1044,1024,1,False,False,False,False,False,0,False,False,False,False,75,,,,24.337,False,4.057,4.057,4.055,4.06,4.055,4.064,0.009,False,False,4.04,4.042,4.039,4.041,4.042,4.031,0.013,False,False,,,,,0,6,0,16,10,2137.2,1035.70,,Idle,0,20,False,10,True,Go Home,,,,,,False,,,False,False,False,False,0,False,False,False,,,,,Calm,,, 4.5.0,DF059,095XF1800201C0,,0JFJ4006F4,0KPAF1T231018F,17.9,10.2,1.3,1.1,0.7,0,0,DF059,095XF1800201C0,,0JFJ4006F4,0KPAF1T231018F,,, 4.5.0,,,,,,
6/21/2018,10:53:29.39 PM,2m 33.5s,153.5,39.96117435,-106.21644868,0,0,0.0,8128,0,1.1,0,0,0,0,0,0,4.5,-8.1,154.3,154.3,Manual Takeoff,Other,Takeoff (RC Assisted),17,5,True,,Matrice 210,True,False,,Smart,RC,True,True,False,,,True,,False,False,False,False,False,False,False,False,False,False,0,Follow Yaw,0,-9.2,155,155,False,False,False,False,False,False,,False,Normal,,,1024,1024,1059,1024,1,False,False,False,False,False,0,False,False,False,False,75,,,,24.337,False,4.057,4.057,4.055,4.06,4.055,4.064,0.009,False,False,4.04,4.042,4.039,4.041,4.042,4.031,0.013,False,False,,,,,0,6,0,16,10,2137.2,1035.70,,Idle,0,20,False,10,True,Go Home,,,,,,False,,,False,False,False,False,0,False,False,False,,,,,Calm,,, 4.5.0,DF059,095XF1800201C0,,0JFJ4006F4,0KPAF1T231018F,17.9,10.2,1.3,1.1,0.7,0,0,DF059,095XF1800201C0,,0JFJ4006F4,0KPAF1T231018F,,, 4.5.0,,,,,,
6/21/2018,10:53:29.49 PM,2m 33.6s,153.6,39.96117435,-106.21644867,0,0,0.0,8128,0,1.1,0,0,0,0,0,0,4.5,-8.1,154.3,154.3,Manual Takeoff,Other,Takeoff (RC Assisted),17,5,True,,Matrice 210,True,False,,Smart,RC,True,True,False,,,True,,False,False,False,False,False,False,False,False,False,False,0,Follow Yaw,0,-9.2,155,155,False,False,False,False,False,False,,False,Normal,,,1024,1024,1073,1024,1,False,False,False,False,False,0,False,False,False,False,75,,,,24.337,False,4.057,4.057,4.055,4.06,4.055,4.064,0.009,False,False,4.04,4.042,4.039,4.041,4.042,4.031,0.013,False,False,,,,,0,6,0,16,10,2137.2,1035.70,,Idle,0,20,False,10,True,Go Home,,,,,,False,,,False,False,False,False,0,False,False,False,,,,,Calm,,, 4.5.0,DF059,095XF1800201C0,,0JFJ4006F4,0KPAF1T231018F,17.9,10.2,1.3,1.1,0.7,0,0,DF059,095XF1800201C0,,0JFJ4006F4,0KPAF1T231018F,,, 4.5.0,,,,,,
6/21/2018,10:53:29.59 PM,2m 33.7s,153.7,39.96117435,-106.21644869,0,0,0.0,8128,0,1.1,0,0,0,0,0,0,4.5,-8.1,154.3,154.3,Manual Takeoff,Other,Takeoff (RC Assisted),17,5,True,,Matrice 210,True,False,,Smart,RC,True,True,False,,,True,,False,False,False,False,False,False,False,False,False,False,0,Follow Yaw,0,-9.2,155,155,False,False,False,False,False,False,,False,Normal,,,1024,1024,1099,1024,1,False,False,False,False,False,0,False,False,False,False,75,,,,24.337,False,4.057,4.057,4.055,4.06,4.055,4.064,0.009,False,False,4.04,4.042,4.039,4.041,4.042,4.031,0.013,False,False,,,,,0,6,0,16,10,2137.2,1035.70,,Idle,0,20,False,10,True,Go Home,,,,,,False,,,False,False,False,False,0,False,False,False,,,,,Calm,,, 4.5.0,DF059,095XF1800201C0,,0JFJ4006F4,0KPAF1T231018F,17.9,10.2,1.3,1.1,0.7,0,0,DF059,095XF1800201C0,,0JFJ4006F4,0KPAF1T231018F,,, 4.5.0,,,,,,
6/21/2018,10:53:29.69 PM,2m 33.8s,153.8,39.96117434,-106.21644869,0,0,0.0,8128,0,1.1,0,0,0,0,0,0,4.5,-8.1,154.3,154.3,Manual Takeoff,Other,Takeoff (RC Assisted),17,5,True,,Matrice 210,True,False,,Smart,RC,True,True,False,,,True,,False,False,False,False,False,False,False,False,False,False,0,Follow Yaw,0,-9.3,155,155,False,False,False,False,False,False,,False,Normal,,,1024,1024,1133,1024,1,False,False,False,False,False,0,False,False,False,False,75,,,,24.273,False,4.04,4.045,4.042,4.047,4.045,4.054,0.014,False,False,4.04,4.042,4.039,4.041,4.042,4.031,0.013,False,False,,,,,0,6,0,16,10,2137.2,1035.70,,Idle,0,20,False,10,True,Go Home,,,,,,False,,,False,False,False,False,0,False,False,False,,,,,Calm,,, 4.5.0,DF059,095XF1800201C0,,0JFJ4006F4,0KPAF1T231018F,17.9,10.2,1.3,1.1,0.7,0,0,DF059,095XF1800201C0,,0JFJ4006F4,0KPAF1T231018F,,, 4.5.0,,,,,,
6/21/2018,10:53:29.79 PM,2m 33.9s,153.9,39.96117432,-106.2164486,0,0,0.0,8128,0,1.1,0,0,0,0,0,0,4.4,-8.1,154.3,154.3,Manual Takeoff,Other,Takeoff (RC Assisted),17,5,True,,Matrice 210,True,False,,Smart,RC,True,True,False,,,True,,False,False,False,False,False,False,False,False,False,False,0,Follow Yaw,0,-9.3,155,155,False,False,False,False,False,False,,False,Normal,,,1024,1024,1141,1024,1,False,False,False,False,False,0,False,False,False,False,75,,,,24.273,False,4.04,4.045,4.042,4.047,4.045,4.054,0.014,False,False,4.04,4.042,4.039,4.041,4.042,4.031,0.013,False,False,,,,,0,6,0,16,10,2137.2,1035.70,,Idle,0,20,False,10,True,Go Home,,,,,,False,,,False,False,False,False,0,False,False,False,,,,,Calm,,, 4.5.0,DF059,095XF1800201C0,,0JFJ4006F4,0KPAF1T231018F,17.9,10.2,1.3,1.1,0.7,0,0,DF059,095XF1800201C0,,0JFJ4006F4,0KPAF1T231018F,,, 4.5.0,,,,,,
6/21/2018,10:53:29.89 PM,2m 34.0s,154.0,39.96117432,-106.21644859,0,0,0.0,8128,0,1.1,0,0,0,0,0,0,4.4,-8.1,154.3,154.3,Manual Takeoff,Other,Takeoff (RC Assisted),17,5,True,,Matrice 210,True,False,,Smart,RC,True,True,False,,,True,,False,False,False,False,False,False,False,False,False,False,0,Follow Yaw,0,-9.3,155,155,False,False,False,False,False,False,,False,Normal,,,1024,1024,1142,1024,1,False,False,False,False,False,0,False,False,False,False,75,,,,24.273,False,4.04,4.045,4.042,4.047,4.045,4.054,0.014,False,False,4.04,4.042,4.039,4.041,4.042,4.031,0.013,False,False,,,,,0,6,0,16,10,2137.2,1035.70,,Idle,0,20,False,10,True,Go Home,,,,,,False,,,False,False,False,False,0,False,False,False,,,,,Calm,,, 4.5.0,DF059,095XF1800201C0,,0JFJ4006F4,0KPAF1T231018F,17.9,10.2,1.3,1.1,0.7,0,0,DF059,095XF1800201C0,,0JFJ4006F4,0KPAF1T231018F,,, 4.5.0,,,,,,
6/21/2018,10:53:30.00 PM,2m 34.1s,154.1,39.96117431,-106.2164486,0,0,0.0,8128,0,1.1,0,0,0,0,0,0,4.5,-8.1,154.3,154.3,Manual Takeoff,Other,Takeoff (RC Assisted),17,5,True,,Matrice 210,True,False,,Smart,RC,True,True,False,,,True,,False,False,False,False,False,False,False,False,False,False,0,Follow Yaw,0,-9.3,155,155,False,False,False,False,False,False,,False,Normal,,,1024,1024,1142,1024,1,False,False,False,False,False,0,False,False,False,False,75,,,,24.273,False,4.04,4.045,4.042,4.047,4.045,4.054,0.014,False,False,4.048,4.052,4.049,4.051,4.05,4.041,0.013,False,False,,,,,0,6,0,16,10,2137.2,1035.70,,Idle,0,20,False,10,True,Go Home,,,,,,False,,,False,False,False,False,0,False,False,False,,,,,Calm,,, 4.5.0,DF059,095XF1800201C0,,0JFJ4006F4,0KPAF1T231018F,17.9,10.2,1.3,1.1,0.7,0,0,DF059,095XF1800201C0,,0JFJ4006F4,0KPAF1T231018F,,, 4.5.0,,,,,,
6/21/2018,10:53:30.10 PM,2m 34.2s,154.2,39.96117433,-106.21644861,0,0,0.0,8128,0,1.1,0,0,0,0,0,0,4.4,-8.1,154.3,154.3,Manual Takeoff,Other,Takeoff (RC Assisted),17,5,True,,Matrice 210,True,False,,Smart,RC,True,True,False,,,True,,False,False,False,False,False,False,False,False,False,False,0,Follow Yaw,0,-9.3,155.1,155.1,False,False,False,False,False,False,,False,Normal,,,1024,1024,1151,1024,1,False,False,False,False,False,0,False,False,False,False,75,,,,24.286,False,4.04,4.045,4.042,4.047,4.045,4.054,0.014,False,False,4.048,4.052,4.049,4.051,4.05,4.041,0.013,False,False,,,,,0,6,0,16,10,2137.2,1042.15,,Idle,0,20,False,10,True,Go Home,,,,,,False,,,False,False,False,False,0,False,False,False,,,,,Calm,,, 4.5.0,DF059,095XF1800201C0,,0JFJ4006F4,0KPAF1T231018F,17.9,10.2,1.3,1.1,0.7,0,0,DF059,095XF1800201C0,,0JFJ4006F4,0KPAF1T231018F,,, 4.5.0,,,,,,
6/21/2018,10:53:30.20 PM,2m 34.3s,154.3,39.96117446,-106.21644863,0,0,0.0,8128,1.1,1.1,0,0,0,0,0,0,4.4,-8.1,154.3,154.3,Manual Takeoff,Other,Takeoff (RC Assisted),17,5,True,,Matrice 210,True,False,,Smart,RC,True,True,False,,,True,,False,False,False,False,False,False,False,False,False,False,0,Follow Yaw,0,-9.3,155,155,False,False,False,False,False,False,,False,Normal,,,1024,1024,1161,1024,1,False,False,False,False,False,0,False,False,False,False,75,,,,24.286,False,4.04,4.045,4.042,4.047,4.045,4.054,0.014,False,False,4.048,4.052,4.049,4.051,4.05,4.041,0.013,False,False,,,,,0,6,0,16,10,2137.2,1042.15,,Idle,0,20,False,10,True,Go Home,,,,,,False,,,False,False,False,False,0,False,False,False,,,,,Calm,,, 4.5.0,DF059,095XF1800201C0,,0JFJ4006F4,0KPAF1T231018F,17.9,10.2,1.3,1.1,0.7,0,0,DF059,095XF1800201C0,,0JFJ4006F4,0KPAF1T231018F,,, 4.5.0,,,,,,
6/21/2018,10:53:30.30 PM,2m 34.4s,154.4,39.9611745,-106.21644865,0,0,0.0,8128,0,1.1,0,0,0,0,0,0,4.4,-8.1,154.3,154.3,Manual Takeoff,Other,Takeoff (RC Assisted),17,5,True,,Matrice 210,True,False,,Smart,RC,True,True,False,,,True,,False,False,False,False,False,False,False,False,False,False,0,Follow Yaw,0,-9.3,155,155,False,False,False,False,False,False,,False,Normal,,,1024,1024,1161,1024,1,False,False,False,False,False,0,False,False,False,False,75,,,,24.286,False,4.04,4.045,4.042,4.047,4.045,4.054,0.014,False,False,4.048,4.052,4.049,4.051,4.05,4.041,0.013,False,False,,,,,0,6,0,16,10,2137.2,1042.15,,Idle,0,20,False,10,True,Go Home,,,,,,False,,,False,False,False,False,0,False,False,False,,,,,Calm,,, 4.5.0,DF059,095XF1800201C0,,0JFJ4006F4,0KPAF1T231018F,17.9,10.2,1.3,1.1,0.7,0,0,DF059,095XF1800201C0,,0JFJ4006F4,0KPAF1T231018F,,, 4.5.0,,,,,,
6/21/2018,10:53:30.40 PM,2m 34.5s,154.5,39.96117452,-106.21644866,0,0,0.0,8128,0,1.1,0,0,0,0,0,0,4.3,-8.2,154.3,154.3,Manual Takeoff,Other,Takeoff (RC Assisted),17,5,True,,Matrice 210,True,False,,Smart,RC,True,True,False,,,True,,False,False,False,False,False,False,False,False,False,False,0,Follow Yaw,0,-9.3,155,155,False,False,False,False,False,False,,False,Normal,,,1024,1024,1159,1024,1,False,False,False,False,False,0,False,False,False,False,75,,,,24.286,False,4.04,4.045,4.042,4.047,4.045,4.054,0.014,False,False,4.048,4.052,4.049,4.051,4.05,4.041,0.013,False,False,,,,,0,6,0,16,10,2137.2,1042.15,,Idle,0,20,False,10,True,Go Home,,,,,,False,,,False,False,False,False,0,False,False,False,,,,,Calm,,, 4.5.0,DF059,095XF1800201C0,,0JFJ4006F4,0KPAF1T231018F,17.9,10.2,1.3,1.1,0.7,0,0,DF059,095XF1800201C0,,0JFJ4006F4,0KPAF1T231018F,,, 4.5.0,,,,,,
6/21/2018,10:53:30.50 PM,2m 34.6s,154.6,39.96117453,-106.21644868,0,0,0.0,8128,1.1,1.1,0,0,0,0,0,0,4.3,-8.2,154.3,154.3,Manual Takeoff,Other,Takeoff (RC Assisted),17,5,True,,Matrice 210,True,False,,Smart,RC,True,True,False,,,True,,False,False,False,False,False,False,False,False,False,False,0,Follow Yaw,0,-9.3,155,155,False,False,False,False,False,False,,False,Normal,,,1024,1024,1157,1024,1,False,False,False,False,False,0,False,False,False,False,75,,,,24.286,False,4.04,4.045,4.042,4.047,4.045,4.054,0.014,False,False,4.048,4.052,4.049,4.051,4.05,4.041,0.013,False,False,,,,,0,6,0,16,10,2137.2,1042.15,,Idle,0,20,False,10,True,Go Home,,,,,,False,,,False,False,False,False,0,False,False,False,,,,,Calm,,, 4.5.0,DF059,095XF1800201C0,,0JFJ4006F4,0KPAF1T231018F,17.9,10.2,1.3,1.1,0.7,0,0,DF059,095XF1800201C0,,0JFJ4006F4,0KPAF1T231018F,,, 4.5.0,,,,,,
6/21/2018,10:53:30.60 PM,2m 34.7s,154.7,39.9611745,-106.21644868,0,0,0.0,8128,0,1.1,0,0,0,0,0,0,4.3,-8.3,154.3,154.3,Manual Takeoff,Other,Takeoff (RC Assisted),17,5,True,,Matrice 210,True,False,,Smart,RC,True,True,False,,,True,,False,False,False,False,False,False,False,False,False,False,0,Follow Yaw,0,-9.4,155.1,155.1,False,False,False,False,False,False,,False,Normal,,,1024,1024,1163,1024,1,False,False,False,False,False,0,False,False,False,False,75,,,,24.286,False,4.04,4.045,4.042,4.047,4.045,4.054,0.014,False,False,4.048,4.052,4.049,4.051,4.05,4.041,0.013,False,False,,,,,0,6,0,16,10,2137.2,1042.15,,Idle,0,20,False,10,True,Go Home,,,,,,False,,,False,False,False,False,0,False,False,False,,,,,Calm,,, 4.5.0,DF059,095XF1800201C0,,0JFJ4006F4,0KPAF1T231018F,17.9,10.2,1.3,1.1,0.7,0,0,DF059,095XF1800201C0,,0JFJ4006F4,0KPAF1T231018F,,, 4.5.0,,,,,,
6/21/2018,10:53:30.70 PM,2m 34.8s,154.8,39.96117451,-106.21644868,0,0,0.0,8128,0,1.1,0,0,0,0,0,0,4.2,-8.5,154.4,154.4,Manual Takeoff,Other,Takeoff (RC Assisted),17,5,True,,Matrice 210,True,False,,Smart,RC,True,True,False,,,True,,False,False,False,False,False,False,False,False,False,False,0,Follow Yaw,-0.1,-9.4,155.1,155.1,False,False,False,False,False,False,,False,Normal,,,1024,1024,1172,1024,1,False,False,False,False,False,0,False,False,False,False,75,,,,24.336,False,4.052,4.055,4.054,4.058,4.054,4.063,0.014,False,False,4.048,4.052,4.049,4.051,4.05,4.041,0.013,False,False,,,,,0,6,0,16,10,2137.2,1042.15,,Idle,0,20,False,10,True,Go Home,,,,,,False,,,False,False,False,False,0,False,False,False,,,,,Calm,,, 4.5.0,DF059,095XF1800201C0,,0JFJ4006F4,0KPAF1T231018F,17.9,10.2,1.3,1.1,0.7,0,0,DF059,095XF1800201C0,,0JFJ4006F4,0KPAF1T231018F,,, 4.5.0,,,,,,
6/21/2018,10:53:30.81 PM,2m 34.9s,154.9,39.96117454,-106.21644868,0,0,0.0,8128,1.5,1.5,0,0,0,0,0,0,3.4,-8.7,154.4,154.4,Manual Takeoff,Other,Takeoff (RC Assisted),17,5,True,,Matrice 210,True,False,,Smart,RC,True,True,False,,,True,,False,False,False,False,False,False,False,False,False,False,0,Follow Yaw,0,-9.5,154.7,154.7,False,False,False,False,False,False,,False,Normal,,,1024,1024,1173,1024,1,False,False,False,False,False,0,False,False,False,False,75,,,,24.336,False,4.052,4.055,4.054,4.058,4.054,4.063,0.014,False,False,4.048,4.052,4.049,4.051,4.05,4.041,0.013,False,False,,,,,0,6,0,16,10,2137.2,1042.15,,Idle,0,20,False,10,True,Go Home,,,,,,False,,,False,False,False,False,0,False,False,False,,,,,Calm,,, 4.5.0,DF059,095XF1800201C0,,0JFJ4006F4,0KPAF1T231018F,17.9,10.2,1.3,1.1,0.7,0,0,DF059,095XF1800201C0,,0JFJ4006F4,0KPAF1T231018F,,, 4.5.0,,,,,,
6/21/2018,10:53:30.91 PM,2m 35.0s,155.0,39.96117465,-106.21644868,0,0,0.0,8128,0,1.5,0.2,0.2,0,0,0,0,1.9,-9.1,154.2,154.2,Manual Takeoff,Other,Takeoff (RC Assisted),17,5,True,,Matrice 210,True,False,,Smart,RC,True,True,False,,,True,,False,False,False,False,False,False,False,False,False,False,0,Follow Yaw,0,-9.6,154.2,154.2,False,False,False,False,False,False,,False,Normal,,,1024,1024,1175,1024,1,False,False,False,False,False,0,False,False,False,False,75,,,,24.336,False,4.052,4.055,4.054,4.058,4.054,4.063,0.014,False,False,4.048,4.052,4.049,4.051,4.05,4.041,0.013,False,False,,,,,0,6,0,16,10,2137.2,1042.15,,Idle,0,20,False,10,True,Go Home,,,,,,False,,,False,False,False,False,0,False,False,False,,,,,Calm,,, 4.5.0,DF059,095XF1800201C0,,0JFJ4006F4,0KPAF1T231018F,17.9,10.2,1.3,1.1,0.7,0,0,DF059,095XF1800201C0,,0JFJ4006F4,0KPAF1T231018F,,, 4.5.0,,,,,,
6/21/2018,10:53:31.01 PM,2m 35.1s,155.1,39.96117495,-106.21644859,0,0,0.3,8128,1.1,1.5,0.5,0.5,0,0,-0.2,0,0.5,-9.2,154,154,Manual Takeoff,Other,Takeoff (RC Assisted),17,5,True,,Matrice 210,True,False,,Smart,RC,False,True,False,,,True,,False,False,False,False,False,False,False,False,False,False,0,Follow Yaw,0,-9.5,154.2,154.2,False,False,False,False,False,False,,False,Normal,,,1024,1024,1211,1024,1,False,False,False,False,False,0,False,False,False,False,75,,,,24.336,False,4.052,4.055,4.054,4.058,4.054,4.063,0.014,False,False,4.048,4.052,4.049,4.051,4.05,4.041,0.013,False,False,,,,,0,6,0,16,10,2137.2,1042.15,,Idle,0,20,False,10,True,Go Home,,,,,,False,,,False,False,False,False,0,False,False,False,,,,,Calm,,, 4.5.0,DF059,095XF1800201C0,,0JFJ4006F4,0KPAF1T231018F,17.9,10.2,1.3,1.1,0.7,0,0,DF059,095XF1800201C0,,0JFJ4006F4,0KPAF1T231018F,,, 4.5.0,,,,,,
6/21/2018,10:53:31.11 PM,2m 35.2s,155.2,39.96117523,-106.21644849,0,0,0.3,8128,0,1.5,0.5,0.5,0.2,0.2,-0.5,0,-0.2,-7.9,154.1,154.1,P-GPS,Other,,17,5,True,,Matrice 210,True,False,,Smart,RC,False,True,False,,,True,,False,False,False,False,False,False,False,False,False,False,0,Follow Yaw,0,-9.2,154.1,154.1,False,False,False,False,False,False,,False,Normal,,,1024,1024,1219,1024,1,False,False,False,False,False,0,False,False,False,False,75,,,,24.114,False,4.052,4.055,4.054,4.058,4.054,4.063,0.014,False,False,4.037,4.04,4.035,4.04,4.04,4.029,0.013,False,False,,,,,0,6,0,16,10,2137.2,1095.75,,Idle,0,20,False,10,True,Go Home,39.96117495,-106.21644859,0.0,8240.9,393.7,True,1,1,False,False,False,False,0,False,False,False,Course Lock,98.4,265.4,23.0,Calm,19,, 4.5.0,DF059,095XF1800201C0,,0JFJ4006F4,0KPAF1T231018F,17.9,10.2,1.3,1.1,0.7,0,0,DF059,095XF1800201C0,,0JFJ4006F4,0KPAF1T231018F,,, 4.5.0,,,,Data Recorder File Index is 19.,,
6/21/2018,10:53:31.21 PM,2m 35.3s,155.3,39.96117548,-106.21644834,0,0,0.3,8128,0,1.5,0.5,0.5,0.2,0.2,-0.5,0,-0.5,-4.7,154.2,154.2,P-GPS,Other,,17,5,True,,Matrice 210,True,False,,Smart,RC,False,True,False,,,True,,False,False,False,False,False,False,False,False,False,False,0,Follow Yaw,0,-8.6,153.8,153.8,False,False,False,False,False,False,,False,Normal,,,1024,1024,1220,1024,1,False,False,False,False,False,0,False,False,False,False,75,,,,24.114,False,4.052,4.055,4.054,4.058,4.054,4.063,0.014,False,False,4.037,4.04,4.035,4.04,4.04,4.029,0.013,False,False,,,,,0,6,0,16,10,2137.2,1095.75,,Idle,0,20,False,10,True,Go Home,39.96117495,-106.21644859,0.0,8240.9,393.7,True,1,1,False,False,False,False,0,False,False,False,Course Lock,98.4,265.4,23.0,Calm,19,, 4.5.0,DF059,095XF1800201C0,,0JFJ4006F4,0KPAF1T231018F,17.9,10.2,1.3,1.1,0.7,0,0,DF059,095XF1800201C0,,0JFJ4006F4,0KPAF1T231018F,,, 4.5.0,,,,,,
6/21/2018,10:53:31.31 PM,2m 35.4s,155.4,39.96117569,-106.21644817,0,0,0.3,8128,1.1,1.5,0.5,0.5,0.2,0.2,-0.7,0,-1.2,-1.6,154.1,154.1,P-GPS,Other,,17,5,True,,Matrice 210,True,False,,Smart,RC,False,True,False,,,True,,False,False,False,False,False,False,False,False,False,False,0,Follow Yaw,0.1,-7.6,153.6,153.6,False,False,False,False,False,False,,False,Normal,,,1024,1024,1225,1024,1,False,False,False,False,False,0,False,False,False,False,75,,,,24.114,False,4.052,4.055,4.054,4.058,4.054,4.063,0.014,False,False,4.037,4.04,4.035,4.04,4.04,4.029,0.013,False,False,,,,,0,6,0,16,10,2137.2,1095.75,,Idle,0,20,False,10,True,Go Home,39.96117495,-106.21644859,0.4,8240.9,393.7,True,1,1,False,False,False,False,0,False,False,False,Course Lock,98.4,265.4,23.0,Calm,19,, 4.5.0,DF059,095XF1800201C0,,0JFJ4006F4,0KPAF1T231018F,17.9,10.2,1.3,1.1,0.7,0,0,DF059,095XF1800201C0,,0JFJ4006F4,0KPAF1T231018F,,, 4.5.0,,,,,,
6/21/2018,10:53:31.42 PM,2m 35.5s,155.5,39.96117588,-106.21644799,0,0,0.3,8128,0,1.5,0.2,0.5,0.2,0.2,-0.7,0,-1.6,1,154,154,P-GPS,Other,,17,5,True,,Matrice 210,True,False,,Smart,RC,False,True,False,,,True,,False,False,False,False,False,False,False,False,False,False,0,Follow Yaw,0,-6.1,153.5,153.5,False,False,False,False,False,False,,False,Normal,,,1024,1024,1221,1024,1,False,False,False,False,False,0,False,False,False,False,75,,,,24.114,False,4.052,4.055,4.054,4.058,4.054,4.063,0.014,False,False,4.037,4.04,4.035,4.04,4.04,4.029,0.013,False,False,,,,,0,6,0,16,10,2137.2,1095.75,,Idle,0,20,False,10,True,Go Home,39.96117495,-106.21644859,0.3,8240.9,393.7,True,1,1,False,False,False,False,0,False,False,False,Course Lock,98.4,265.4,23.0,Calm,19,, 4.5.0,DF059,095XF1800201C0,,0JFJ4006F4,0KPAF1T231018F,17.9,10.2,1.3,1.1,0.7,0,0,DF059,095XF1800201C0,,0JFJ4006F4,0KPAF1T231018F,,, 4.5.0,,,,,,
6/21/2018,10:53:31.52 PM,2m 35.6s,155.6,39.96117601,-106.21644769,0.3,0.3,0.7,8128,0,1.5,0.2,0.5,0,0.2,-0.7,0,-1.9,2.4,153.9,153.9,P-GPS,Other,,17,5,True,,Matrice 210,True,False,,Smart,RC,False,True,False,,,True,,False,False,False,False,False,False,False,False,False,False,0,Follow Yaw,-0.1,-5,153.3,153.3,False,False,False,False,False,False,,False,Normal,,,1024,1024,1215,1024,1,False,False,False,False,False,0,False,False,False,False,75,,,,24.114,False,4.052,4.055,4.054,4.058,4.054,4.063,0.014,False,False,4.037,4.04,4.035,4.04,4.04,4.029,0.013,False,False,,,,,0,6,0,16,10,2137.2,1095.75,,Idle,0,20,False,10,True,Go Home,39.96117495,-106.21644859,0.5,8240.9,393.7,True,1,1,False,False,False,False,0,False,False,False,Course Lock,98.4,265.4,23.0,Calm,19,, 4.5.0,DF059,095XF1800201C0,,0JFJ4006F4,0KPAF1T231018F,17.9,10.2,1.3,1.1,0.7,0,0,DF059,095XF1800201C0,,0JFJ4006F4,0KPAF1T231018F,,, 4.5.0,,,,,,
6/21/2018,10:53:31.62 PM,2m 35.7s,155.7,39.96117615,-106.21644763,0.3,0.3,0.7,8128,0,1.5,0,0.5,0,0.2,-0.7,0,-2,2.1,153.9,153.9,P-GPS,Other,,17,5,True,,Matrice 210,True,False,,Smart,RC,False,True,False,,,True,,False,False,False,False,False,False,False,False,False,False,0,Follow Yaw,0,-4.5,153.4,153.4,False,False,False,False,False,False,,False,Normal,,,1024,1024,1215,1024,1,False,False,False,False,False,0,False,False,False,False,75,,,,24.114,False,4.052,4.055,4.054,4.058,4.054,4.063,0.014,False,False,4.037,4.04,4.035,4.04,4.04,4.029,0.013,False,False,,,,,0,6,0,16,10,2137.2,1095.75,,Idle,0,20,False,10,True,Go Home,39.96117495,-106.21644859,0.6,8240.9,393.7,True,1,1,False,False,False,False,0,False,False,False,Course Lock,98.4,265.4,23.0,Calm,19,, 4.5.0,DF059,095XF1800201C0,,0JFJ4006F4,0KPAF1T231018F,17.9,10.2,1.3,1.1,0.7,0,0,DF059,095XF1800201C0,,0JFJ4006F4,0KPAF1T231018F,,, 4.5.0,,,,,,
6/21/2018,10:53:31.72 PM,2m 35.8s,155.8,39.96117621,-106.21644765,0.3,0.3,0.7,8128,0,1.5,0,0.5,-0.2,0.2,-0.7,0,-1.8,1,154,154,P-GPS,Other,,17,5,True,,Matrice 210,True,False,,Smart,RC,False,True,False,,,True,,False,False,False,False,False,False,False,False,False,False,0,Follow Yaw,0,-4.3,153.5,153.5,False,False,False,False,False,False,,False,Normal,,,1024,1024,1215,1024,1,False,False,False,False,False,0,False,False,False,False,75,,,,24.248,False,4.037,4.042,4.039,4.042,4.04,4.048,0.014,False,False,4.037,4.04,4.035,4.04,4.04,4.029,0.013,False,False,,,,,0,6,0,16,10,2137.2,1095.75,,Idle,0,20,False,10,True,Go Home,39.96117495,-106.21644859,0.6,8240.9,393.7,True,1,1,False,False,False,False,0,False,False,False,Course Lock,98.4,265.4,23.0,Calm,19,, 4.5.0,DF059,095XF1800201C0,,0JFJ4006F4,0KPAF1T231018F,17.9,10.2,1.3,1.1,0.7,0,0,DF059,095XF1800201C0,,0JFJ4006F4,0KPAF1T231018F,,, 4.5.0,,,,,,
6/21/2018,10:53:31.82 PM,2m 35.9s,155.9,39.96117621,-106.21644778,0.7,0.7,0.7,8128,0,1.5,0,0.5,-0.2,0.2,-0.7,0,-1.5,-0.1,154.1,154.1,P-GPS,Other,,17,5,True,,Matrice 210,True,False,,Smart,RC,False,True,False,,,True,,False,False,False,False,False,False,False,False,False,False,0,Follow Yaw,-0.1,-4,153.7,153.7,False,False,False,False,False,False,,False,Normal,,,1024,1024,1204,1028,1,False,False,False,False,False,0,False,False,False,False,75,,,,24.248,False,4.037,4.042,4.039,4.042,4.04,4.048,0.014,False,False,4.037,4.04,4.035,4.04,4.04,4.029,0.013,False,False,,,,,0,6,0,16,10,2137.2,1095.75,,Idle,0,20,False,10,True,Go Home,39.96117495,-106.21644859,0.6,8240.9,393.7,True,1,1,False,False,False,False,0,False,False,False,Course Lock,98.4,265.4,23.0,Calm,19,, 4.5.0,DF059,095XF1800201C0,,0JFJ4006F4,0KPAF1T231018F,17.9,10.2,1.3,1.1,0.7,0,0,DF059,095XF1800201C0,,0JFJ4006F4,0KPAF1T231018F,,, 4.5.0,,,,,,
6/21/2018,10:53:31.92 PM,2m 36.0s,156.0,39.96117608,-106.21644792,0.7,0.7,1.0,8128,0,1.5,0,0.5,-0.2,0.2,-0.7,0,-1.3,-1.1,154.3,154.3,P-GPS,Other,,17,5,True,,Matrice 210,True,False,,Smart,RC,False,True,False,,,True,,False,False,False,False,False,False,False,False,False,False,0,Follow Yaw,-0.1,-3.8,153.8,153.8,False,False,False,False,False,False,,False,Normal,,,1024,1024,1100,1162,1,False,False,False,False,False,0,False,False,False,False,75,,,,24.248,False,4.037,4.042,4.039,4.042,4.04,4.048,0.014,False,False,4.037,4.04,4.035,4.04,4.04,4.029,0.013,False,False,,,,,0,6,0,16,10,2137.2,1095.75,,Idle,0,20,False,10,True,Go Home,39.96117495,-106.21644859,0.5,8240.9,393.7,True,1,1,False,False,False,False,0,False,False,False,Course Lock,98.4,265.4,23.0,Calm,19,, 4.5.0,DF059,095XF1800201C0,,0JFJ4006F4,0KPAF1T231018F,17.9,10.2,1.3,1.1,0.7,0,0,DF059,095XF1800201C0,,0JFJ4006F4,0KPAF1T231018F,,, 4.5.0,,,,,,
6/21/2018,10:53:32.02 PM,2m 36.1s,156.1,39.96117608,-106.21644812,0.7,0.7,1.0,8128,0,1.5,0,0.5,-0.2,0.2,-0.7,0,-1.5,-1.8,154.6,154.6,P-GPS,Other,,17,5,True,,Matrice 210,True,False,,Smart,RC,False,True,False,,,True,,False,False,False,False,False,False,False,False,False,False,0,Follow Yaw,0,-3.6,154.3,154.3,False,False,False,False,False,False,,False,Normal,,,1024,1024,1024,1252,1,False,False,False,False,False,0,False,False,False,False,75,,,,24.248,False,4.037,4.042,4.039,4.042,4.04,4.048,0.014,False,False,4.037,4.04,4.035,4.04,4.04,4.029,0.013,False,False,,,,,0,6,0,16,10,2137.2,1095.75,,Idle,0,20,False,10,True,Go Home,39.96117495,-106.21644859,0.4,8240.9,393.7,True,1,1,False,False,False,False,0,False,False,False,Course Lock,98.4,265.4,23.0,Calm,19,, 4.5.0,DF059,095XF1800201C0,,0JFJ4006F4,0KPAF1T231018F,17.9,10.2,1.3,1.1,0.7,0,0,DF059,095XF1800201C0,,0JFJ4006F4,0KPAF1T231018F,,, 4.5.0,,,,,,
6/21/2018,10:53:32.12 PM,2m 36.2s,156.2,39.96117609,-106.21644832,1.0,1.0,1.0,8129,0,1.5,0,0.5,-0.2,0.2,-0.7,0,-1.3,-2.1,155.1,155.1,P-GPS,Other,,17,5,True,,Matrice 210,True,False,,Smart,RC,False,True,False,,,True,,False,False,False,False,False,False,False,False,False,False,0,Follow Yaw,-0.1,-3.7,154.9,154.9,False,False,False,False,False,False,,False,Normal,,,1024,1024,1024,1233,1,False,False,False,False,False,0,False,False,False,False,75,,,,24.2,False,4.037,4.042,4.039,4.042,4.04,4.048,0.014,False,False,3.983,3.996,3.988,3.991,3.994,3.981,0.015,False,False,,,,,0,6,0,16,10,2137.2,1249.45,,Idle,0,20,False,10,True,Go Home,39.96117495,-106.21644859,0.4,8240.9,393.7,True,1,1,False,False,False,False,0,False,False,False,Course Lock,98.4,265.4,23.0,Calm,19,, 4.5.0,DF059,095XF1800201C0,,0JFJ4006F4,0KPAF1T231018F,17.9,10.2,1.3,1.1,0.7,0,0,DF059,095XF1800201C0,,0JFJ4006F4,0KPAF1T231018F,,, 4.5.0,,,,,,
6/21/2018,10:53:32.23 PM,2m 36.3s,156.3,39.96117614,-106.21644852,1.0,1.0,1.3,8129,0,1.5,0,0.5,-0.2,0.2,-0.2,0,-1.4,-2.5,155.8,155.8,P-GPS,Other,,17,5,True,,Matrice 210,True,False,,Smart,RC,False,True,False,,,True,,False,False,False,False,False,False,False,False,False,False,0,Follow Yaw,0,-3.6,155.7,155.7,False,False,False,False,False,False,,False,Normal,,,1024,1024,1024,1207,1,False,False,False,False,False,0,False,False,False,False,75,,,,24.2,False,4.037,4.042,4.039,4.042,4.04,4.048,0.014,False,False,3.983,3.996,3.988,3.991,3.994,3.981,0.015,False,False,,,,,0,6,0,16,10,2137.2,1249.45,,Idle,0,20,False,10,True,Go Home,39.96117495,-106.21644859,0.4,8240.9,393.7,True,1,1,False,False,False,False,0,False,False,False,Course Lock,98.4,265.4,23.0,Calm,19,, 4.5.0,DF059,095XF1800201C0,,0JFJ4006F4,0KPAF1T231018F,17.9,10.2,1.3,1.1,0.7,0,0,DF059,095XF1800201C0,,0JFJ4006F4,0KPAF1T231018F,,, 4.5.0,,,,,,
6/21/2018,10:53:32.33 PM,2m 36.4s,156.4,39.96117622,-106.21644869,1.0,1.0,1.3,8129,0,1.5,0.2,0.5,-0.2,0.2,-0.2,0,-1.6,-2.7,156.8,156.8,P-GPS,Other,,17,5,True,,Matrice 210,True,False,,Smart,RC,False,True,False,,,True,,False,False,False,False,False,False,False,False,False,False,0,Follow Yaw,0,-3.6,156.5,156.5,False,False,False,False,False,False,,False,Normal,,,1024,1024,1024,1226,1,False,False,False,False,False,0,False,False,False,False,75,,,,24.2,False,4.037,4.042,4.039,4.042,4.04,4.048,0.014,False,False,3.983,3.996,3.988,3.991,3.994,3.981,0.015,False,False,,,,,0,6,0,16,10,2137.2,1249.45,,Idle,0,20,False,10,True,Go Home,39.96117495,-106.21644859,0.5,8240.9,393.7,True,1,1,False,False,False,False,0,False,False,False,Course Lock,98.4,265.4,23.0,Calm,19,, 4.5.0,DF059,095XF1800201C0,,0JFJ4006F4,0KPAF1T231018F,17.9,10.2,1.3,1.1,0.7,0,0,DF059,095XF1800201C0,,0JFJ4006F4,0KPAF1T231018F,,, 4.5.0,,,,,,
6/21/2018,10:53:32.43 PM,2m 36.5s,156.5,39.96117638,-106.21644891,1.0,1.0,1.3,8129,0,1.5,0,0.5,0,0.2,-0.2,0,-1.8,-2.5,157.6,157.6,P-GPS,Other,,17,5,True,,Matrice 210,True,False,,Smart,RC,False,True,False,,,True,,False,False,False,False,False,False,False,False,False,False,0,Follow Yaw,0.1,-3.5,157.1,157.1,False,False,False,False,False,False,,False,Normal,,,1024,1024,1024,1226,1,False,False,False,False,False,0,False,False,False,False,75,,,,24.2,False,4.037,4.042,4.039,4.042,4.04,4.048,0.014,False,False,3.983,3.996,3.988,3.991,3.994,3.981,0.015,False,False,,,,,0,6,0,16,10,2137.2,1249.45,,Idle,0,20,False,10,True,Go Home,39.96117495,-106.21644859,0.5,8240.9,393.7,True,1,1,False,False,False,False,0,False,False,False,Course Lock,98.4,265.4,23.0,Calm,19,, 4.5.0,DF059,095XF1800201C0,,0JFJ4006F4,0KPAF1T231018F,17.9,10.2,1.3,1.1,0.7,0,0,DF059,095XF1800201C0,,0JFJ4006F4,0KPAF1T231018F,,, 4.5.0,,,,,,
6/21/2018,10:53:32.53 PM,2m 36.6s,156.6,39.96117652,-106.21644903,1.3,1.3,1.6,8129,1.5,1.5,0,0.5,0,0.2,0,0,-2.1,-1.5,158.3,158.3,P-GPS,Other,,17,5,True,,Matrice 210,True,False,,Smart,RC,False,True,False,,,True,,False,False,False,False,False,False,False,False,False,False,0,Follow Yaw,0,-3.4,157.6,157.6,False,False,False,False,False,False,,False,Normal,,,1024,1024,1024,1194,1,False,False,False,False,False,0,False,False,False,False,75,,,,24.2,False,4.037,4.042,4.039,4.042,4.04,4.048,0.014,False,False,3.983,3.996,3.988,3.991,3.994,3.981,0.015,False,False,,,,,0,6,0,16,10,2137.2,1249.45,,Idle,0,20,False,10,True,Go Home,39.96117495,-106.21644859,0.6,8240.9,393.7,True,1,1,False,False,False,False,0,False,False,False,Course Lock,98.4,265.4,23.0,Calm,19,, 4.5.0,DF059,095XF1800201C0,,0JFJ4006F4,0KPAF1T231018F,17.9,10.2,1.3,1.1,0.7,0,0,DF059,095XF1800201C0,,0JFJ4006F4,0KPAF1T231018F,,, 4.5.0,,,,,,
6/21/2018,10:53:32.55 PM,2m 36.7s,156.7,39.96117665,-106.21644908,1.3,1.3,1.6,8129,0,1.5,0,0.5,0,0.2,0,0,-2.2,-0.7,159,159,P-GPS,Other,,17,5,True,,Matrice 210,True,False,,Smart,RC,False,True,False,,,True,,False,False,False,False,False,False,False,False,False,False,0,Follow Yaw,0,-3.3,158.3,158.3,False,False,False,False,False,False,,False,Normal,,,1024,1024,1024,1172,1,False,False,False,False,False,0,False,False,False,False,75,,,,24.2,False,4.037,4.042,4.039,4.042,4.04,4.048,0.014,False,False,3.983,3.996,3.988,3.991,3.994,3.981,0.015,False,False,,,,,0,6,0,16,10,2137.2,1249.45,,Idle,0,20,False,10,True,Go Home,39.96117495,-106.21644859,0.6,8240.9,393.7,True,1,1,False,False,False,False,0,False,False,False,Course Lock,98.4,265.4,23.0,Calm,19,, 4.5.0,DF059,095XF1800201C0,,0JFJ4006F4,0KPAF1T231018F,17.9,10.2,1.3,1.1,0.7,0,0,DF059,095XF1800201C0,,0JFJ4006F4,0KPAF1T231018F,,, 4.5.0,,,,,,
6/21/2018,10:53:32.63 PM,2m 36.8s,156.8,39.96117699,-106.21644908,1.3,1.3,1.6,8129,1.1,1.5,0,0.5,0,0.2,0,0,-2.3,-0.9,159.7,159.7,P-GPS,Other,,17,5,True,,Matrice 210,True,False,,Smart,RC,False,True,False,,,True,,False,False,False,False,False,False,False,False,False,False,0,Follow Yaw,0.1,-3.4,158.8,158.8,False,False,False,False,False,False,,False,Normal,,,1024,1024,1024,1136,1,False,False,False,False,False,0,False,False,False,False,75,,,,24.2,False,4.037,4.042,4.039,4.042,4.04,4.048,0.014,False,False,3.983,3.996,3.988,3.991,3.994,3.981,0.015,False,False,,,,,0,6,0,16,10,2137.2,1249.45,,Idle,0,20,False,10,True,Go Home,39.96117495,-106.21644859,0.8,8240.9,393.7,True,1,1,False,False,False,False,0,False,False,False,Course Lock,98.4,265.4,23.0,Calm,19,, 4.5.0,DF059,095XF1800201C0,,0JFJ4006F4,0KPAF1T231018F,17.9,10.2,1.3,1.1,0.7,0,0,DF059,095XF1800201C0,,0JFJ4006F4,0KPAF1T231018F,,, 4.5.0,,,,,,
6/21/2018,10:53:32.73 PM,2m 36.9s,156.9,39.96117701,-106.21644909,1.3,1.3,1.6,8129,0,1.5,0,0.5,0,0.2,0,0,-1.9,-1.4,160.3,160.3,P-GPS,Other,,17,5,True,,Matrice 210,True,False,,Smart,RC,False,True,False,,,True,,False,False,False,False,False,False,False,False,False,False,0,Follow Yaw,0,-3,159.3,159.3,False,False,False,False,False,False,,False,Normal,,,1024,1024,1024,1123,1,False,False,False,False,False,0,False,False,False,False,75,,,,24.075,False,4.002,4.014,4.01,4.013,4.014,4.022,0.02,False,False,3.983,3.996,3.988,3.991,3.994,3.981,0.015,False,False,,,,,0,6,0,16,10,2137.2,1249.45,,Idle,0,20,False,10,True,Go Home,39.96117495,-106.21644859,0.8,8240.9,393.7,True,1,1,False,False,False,False,0,False,False,False,Course Lock,98.4,265.4,23.0,Calm,19,, 4.5.0,DF059,095XF1800201C0,,0JFJ4006F4,0KPAF1T231018F,17.9,10.2,1.3,1.1,0.7,0,0,DF059,095XF1800201C0,,0JFJ4006F4,0KPAF1T231018F,,, 4.5.0,,,,,,
6/21/2018,10:53:32.94 PM,2m 37.0s,157.0,39.96117696,-106.21644905,1.3,1.3,1.6,8129,1.1,1.5,-0.2,0.5,0,0.2,0,0,-1.2,-1.7,160.7,160.7,P-GPS,Other,,17,5,True,,Matrice 210,True,False,,Smart,RC,False,True,False,,,True,,False,False,False,False,False,False,False,False,False,False,0,Follow Yaw,0,-3.1,159.5,159.5,False,False,False,False,False,False,,False,Normal,,,1024,1024,1026,1074,1,False,False,False,False,False,0,False,False,False,False,75,,,,24.075,False,4.002,4.014,4.01,4.013,4.014,4.022,0.02,False,False,3.983,3.996,3.988,3.991,3.994,3.981,0.015,False,False,,,,,0,6,0,16,10,2137.2,1249.45,,Idle,0,20,False,10,True,Go Home,39.96117495,-106.21644859,0.8,8240.9,393.7,True,1,1,False,False,False,False,0,False,False,False,Course Lock,98.4,265.4,23.0,Calm,19,, 4.5.0,DF059,095XF1800201C0,,0JFJ4006F4,0KPAF1T231018F,17.9,10.2,1.3,1.1,0.7,0,0,DF059,095XF1800201C0,,0JFJ4006F4,0KPAF1T231018F,,, 4.5.0,,,,,,
6/21/2018,10:53:33.04 PM,2m 37.1s,157.1,39.9611768,-106.21644895,1.3,1.3,1.6,8129,0,1.5,-0.2,0.5,0,0.2,0,0,-0.6,-1.5,161,161,P-GPS,Other,,17,5,True,,Matrice 210,True,False,,Smart,RC,False,True,False,,,True,,False,False,False,False,False,False,False,False,False,False,0,Follow Yaw,0,-3.1,159.9,159.9,False,False,False,False,False,False,,False,Normal,,,1024,1024,1091,1024,1,False,False,False,False,False,0,False,False,False,False,75,,,,24.075,False,4.002,4.014,4.01,4.013,4.014,4.022,0.02,False,False,3.983,3.996,3.988,3.991,3.994,3.981,0.015,False,False,,,,,0,6,0,16,10,2137.2,1249.45,,Idle,0,20,False,10,True,Go Home,39.96117495,-106.21644859,0.8,8240.9,393.7,True,1,1,False,False,False,False,0,False,False,False,Course Lock,98.4,265.4,23.0,Calm,19,, 4.5.0,DF059,095XF1800201C0,,0JFJ4006F4,0KPAF1T231018F,17.9,10.2,1.3,1.1,0.7,0,0,DF059,095XF1800201C0,,0JFJ4006F4,0KPAF1T231018F,,, 4.5.0,,,,,,
6/21/2018,10:53:33.06 PM,2m 37.2s,157.2,39.96117665,-106.21644885,1.0,1.3,1.6,8129,0,1.5,-0.2,0.5,0,0.2,0,0,-0.2,-0.8,161.4,161.4,P-GPS,Other,,17,5,True,,Matrice 210,True,False,,Smart,RC,False,True,False,,,True,,False,False,False,False,False,False,False,False,False,False,0,Follow Yaw,0,-2.7,160.1,160.1,False,False,False,False,False,False,,False,Normal,,,1024,1024,1112,1032,1,False,False,False,False,False,0,False,False,False,False,75,,,,24.218,False,4.002,4.014,4.01,4.013,4.014,4.022,0.02,False,False,3.983,3.996,3.988,3.991,3.994,3.981,0.015,False,False,,,,,0,6,0,16,10,2137.2,1556.93,,Idle,0,20,False,10,True,Go Home,39.96117495,-106.21644859,0.6,8240.9,393.7,True,1,1,False,False,False,False,0,False,False,False,Course Lock,98.4,265.4,23.0,Calm,19,, 4.5.0,DF059,095XF1800201C0,,0JFJ4006F4,0KPAF1T231018F,17.9,10.2,1.3,1.1,0.7,0,0,DF059,095XF1800201C0,,0JFJ4006F4,0KPAF1T231018F,,, 4.5.0,,,,,,
6/21/2018,10:53:33.14 PM,2m 37.3s,157.3,39.96117622,-106.21644867,1.0,1.3,1.6,8129,1.1,1.5,-0.2,0.5,0,0.2,0,0,-0.2,-0.5,161.8,161.8,P-GPS,Other,,17,5,True,,Matrice 210,True,False,,Smart,RC,False,True,False,,,True,,False,False,False,False,False,False,False,False,False,False,0,Follow Yaw,0,-2.7,160.5,160.5,False,False,False,False,False,False,,False,Normal,,,1024,1024,1024,1184,1,False,False,False,False,False,0,False,False,False,False,75,,,,24.218,False,4.002,4.014,4.01,4.013,4.014,4.022,0.02,False,False,3.975,3.991,3.983,3.986,3.989,3.978,0.016,False,False,,,,,0,6,0,16,10,2137.2,1556.93,,Idle,0,20,False,10,True,Go Home,39.96117495,-106.21644859,0.5,8240.9,393.7,True,1,1,False,False,False,False,0,False,False,False,Course Lock,98.4,265.4,23.0,Calm,19,, 4.5.0,DF059,095XF1800201C0,,0JFJ4006F4,0KPAF1T231018F,17.9,10.2,1.3,1.1,0.7,0,0,DF059,095XF1800201C0,,0JFJ4006F4,0KPAF1T231018F,,, 4.5.0,,,,,,
6/21/2018,10:53:33.24 PM,2m 37.4s,157.4,39.96117609,-106.21644865,1.0,1.3,1.6,8129,0,1.5,0,0.5,0,0.2,0,0,0,-1,162.1,162.1,P-GPS,Other,,17,5,True,,Matrice 210,True,False,,Smart,RC,False,True,False,,,True,,False,False,False,False,False,False,False,False,False,False,0,Follow Yaw,0.1,-2.7,160.8,160.8,False,False,False,False,False,False,,False,Normal,,,1024,1024,1024,1222,1,False,False,False,False,False,0,False,False,False,False,75,,,,24.218,False,4.002,4.014,4.01,4.013,4.014,4.022,0.02,False,False,3.975,3.991,3.983,3.986,3.989,3.978,0.016,False,False,,,,,0,6,0,16,10,2137.2,1556.93,,Idle,0,20,False,10,True,Go Home,39.96117495,-106.21644859,0.4,8240.9,393.7,True,1,1,False,False,False,False,0,False,False,False,Course Lock,98.4,265.4,23.0,Calm,19,, 4.5.0,DF059,095XF1800201C0,,0JFJ4006F4,0KPAF1T231018F,17.9,10.2,1.3,1.1,0.7,0,0,DF059,095XF1800201C0,,0JFJ4006F4,0KPAF1T231018F,,, 4.5.0,,,,,,
6/21/2018,10:53:33.34 PM,2m 37.5s,157.5,39.96117599,-106.2164487,1.0,1.3,1.6,8129,1.1,1.5,0,0.5,0,0.2,0,0,0.1,-1.3,162.6,162.6,P-GPS,Other,,17,5,True,,Matrice 210,True,False,,Smart,RC,False,True,False,,,True,,False,False,False,False,False,False,False,False,False,False,0,Follow Yaw,0,-2.7,161.6,161.6,False,False,False,False,False,False,,False,Normal,,,1024,1024,1024,1243,1,False,False,False,False,False,0,False,False,False,False,75,,,,24.218,False,4.002,4.014,4.01,4.013,4.014,4.022,0.02,False,False,3.975,3.991,3.983,3.986,3.989,3.978,0.016,False,False,,,,,0,6,0,16,10,2137.2,1556.93,,Idle,0,20,False,10,True,Go Home,39.96117495,-106.21644859,0.5,8240.9,393.7,True,1,1,False,False,False,False,0,False,False,False,Course Lock,98.4,265.4,23.0,Calm,19,, 4.5.0,DF059,095XF1800201C0,,0JFJ4006F4,0KPAF1T231018F,17.9,10.2,1.3,1.1,0.7,0,0,DF059,095XF1800201C0,,0JFJ4006F4,0KPAF1T231018F,,, 4.5.0,,,,,,
6/21/2018,10:53:33.44 PM,2m 37.6s,157.6,39.96117593,-106.21644876,1.0,1.3,1.6,8129,0,1.5,0,0.5,0,0.2,0,0,0,-1.4,163.5,163.5,P-GPS,Other,,17,5,True,,Matrice 210,True,False,,Smart,RC,False,True,False,,,True,,False,False,False,False,False,False,False,False,False,False,0,Follow Yaw,0,-2.6,162.5,162.5,False,False,False,False,False,False,,False,Normal,,,1024,1024,1024,1155,1,False,False,False,False,False,0,False,False,False,False,75,,,,24.218,False,4.002,4.014,4.01,4.013,4.014,4.022,0.02,False,False,3.975,3.991,3.983,3.986,3.989,3.978,0.016,False,False,,,,,0,6,0,16,10,2137.2,1556.93,,Idle,0,20,False,10,True,Go Home,39.96117495,-106.21644859,0.4,8240.9,393.7,True,1,1,False,False,False,False,0,False,False,False,Course Lock,98.4,265.4,23.0,Calm,19,, 4.5.0,DF059,095XF1800201C0,,0JFJ4006F4,0KPAF1T231018F,17.9,10.2,1.3,1.1,0.7,0,0,DF059,095XF1800201C0,,0JFJ4006F4,0KPAF1T231018F,,, 4.5.0,,,,,,
6/21/2018,10:53:33.54 PM,2m 37.7s,157.7,39.9611758,-106.2164489,1.0,1.3,1.6,8129,1.5,1.5,0,0.5,0,0.2,0,0,-0.4,-2,164.6,164.6,P-GPS,Other,,17,5,True,,Matrice 210,True,False,,Smart,RC,False,True,False,,,True,,False,False,False,False,False,False,False,False,False,False,0,Follow Yaw,0,-2.5,163.7,163.7,False,False,False,False,False,False,,False,Normal,,,1024,1024,1024,1081,1,False,False,False,False,False,0,False,False,False,False,75,,,,24.218,False,4.002,4.014,4.01,4.013,4.014,4.022,0.02,False,False,3.975,3.991,3.983,3.986,3.989,3.978,0.016,False,False,,,,,0,6,0,16,10,2137.2,1556.93,,Idle,0,20,False,10,True,Go Home,39.96117495,-106.21644859,0.4,8240.9,393.7,True,1,1,False,False,False,False,0,False,False,False,Course Lock,98.4,265.4,23.0,Calm,19,, 4.5.0,DF059,095XF1800201C0,,0JFJ4006F4,0KPAF1T231018F,17.9,10.2,1.3,1.1,0.7,0,0,DF059,095XF1800201C0,,0JFJ4006F4,0KPAF1T231018F,,, 4.5.0,,,,,,
6/21/2018,10:53:33.65 PM,2m 37.8s,157.8,39.96117577,-106.21644892,1.0,1.3,1.6,8129,0,1.5,0,0.5,0,0.2,0,0,-0.4,-2.2,165.6,165.6,P-GPS,Other,,17,5,True,,Matrice 210,True,False,,Smart,RC,False,True,False,,,True,,False,False,False,False,False,False,False,False,False,False,0,Follow Yaw,0,-2.5,164.3,164.3,False,False,False,False,False,False,,False,Normal,,,1024,1024,1024,1061,1,False,False,False,False,False,0,False,False,False,False,75,,,,24.218,False,4.002,4.014,4.01,4.013,4.014,4.022,0.02,False,False,3.975,3.991,3.983,3.986,3.989,3.978,0.016,False,False,,,,,0,6,0,16,10,2137.2,1556.93,,Idle,0,20,False,10,True,Go Home,39.96117495,-106.21644859,0.4,8240.9,393.7,True,1,1,False,False,False,False,0,False,False,False,Course Lock,98.4,265.4,23.0,Calm,19,, 4.5.0,DF059,095XF1800201C0,,0JFJ4006F4,0KPAF1T231018F,17.9,10.2,1.3,1.1,0.7,0,0,DF059,095XF1800201C0,,0JFJ4006F4,0KPAF1T231018F,,, 4.5.0,,,,,,
6/21/2018,10:53:33.75 PM,2m 37.9s,157.9,39.96117581,-106.21644893,1.0,1.3,1.6,8129,1.5,1.5,0,0.5,0,0.2,0,0,0,-2,165.9,165.9,P-GPS,Other,,17,5,True,,Matrice 210,True,False,,Smart,RC,False,True,False,,,True,,False,False,False,False,False,False,False,False,False,False,0,Follow Yaw,0,-2.5,164.6,164.6,False,False,False,False,False,False,,False,Normal,,,1024,1024,1024,1024,1,False,False,False,False,False,0,False,False,False,False,75,,,,24.009,False,3.993,4.004,4,4.001,4.002,4.009,0.02,False,False,3.975,3.991,3.983,3.986,3.989,3.978,0.016,False,False,,,,,0,6,0,16,10,2137.2,1556.93,,Idle,0,20,False,10,True,Go Home,39.96117495,-106.21644859,0.4,8240.9,393.7,True,1,1,False,False,False,False,0,False,False,False,Course Lock,98.4,265.4,23.0,Calm,19,, 4.5.0,DF059,095XF1800201C0,,0JFJ4006F4,0KPAF1T231018F,17.9,10.2,1.3,1.1,0.7,0,0,DF059,095XF1800201C0,,0JFJ4006F4,0KPAF1T231018F,,, 4.5.0,,,,,,
6/21/2018,10:53:33.85 PM,2m 38.0s,158.0,39.96117585,-106.21644894,1.0,1.3,1.6,8129,1.1,1.5,0,0.5,0,0.2,0,0,0,-1.5,166.3,166.3,P-GPS,Other,,17,5,True,,Matrice 210,True,False,,Smart,RC,False,True,False,,,True,,False,False,False,False,False,False,False,False,False,False,0,Follow Yaw,0,-2.5,164.6,164.6,False,False,False,False,False,False,,False,Normal,,,1024,1024,1024,1024,1,False,False,False,False,False,0,False,False,False,False,75,,,,24.009,False,3.993,4.004,4,4.001,4.002,4.009,0.02,False,False,3.975,3.991,3.983,3.986,3.989,3.978,0.016,False,False,,,,,0,6,0,16,10,2137.2,1556.93,,Idle,0,20,False,10,True,Go Home,39.96117495,-106.21644859,0.4,8240.9,393.7,True,1,1,False,False,False,False,0,False,False,False,Course Lock,98.4,265.4,23.0,Calm,19,, 4.5.0,DF059,095XF1800201C0,,0JFJ4006F4,0KPAF1T231018F,17.9,10.2,1.3,1.1,0.7,0,0,DF059,095XF1800201C0,,0JFJ4006F4,0KPAF1T231018F,,, 4.5.0,,,,,,
