sep=,
CUSTOM.date [local], CUSTOM.updateTime [local], OSD.flyTime, OSD.flyTime [s], OSD.latitude, OSD.longitude, OSD.height [ft], OSD.heightMax [ft], OSD.vpsHeight [ft], OSD.altitude [ft], OSD.hSpeed [MPH], OSD.hSpeedMax [MPH], OSD.xSpeed [MPH], OSD.xSpeedMax [MPH], OSD.ySpeed [MPH], OSD.ySpeedMax [MPH], OSD.zSpeed [MPH], OSD.zSpeedMax [MPH], OSD.pitch, OSD.roll, OSD.yaw, OSD.yaw [360], OSD.flycState, OSD.flycCommand, OSD.flightAction, OSD.gpsNum, OSD.gpsLevel, OSD.isGPSUsed, OSD.nonGPSCause, OSD.droneType, OSD.isSwaveWork, OSD.waveError, OSD.goHomeStatus, OSD.batteryType, OSD.ctrlDevice, OSD.isOnGround, OSD.isMotorOn, OSD.isMotorBlocked, OSD.motorStartFailedCause, OSD.motorFailReason, OSD.isImuPreheated, OSD.imuInitFailReason, OSD.isAcceletorOverRange, OSD.isBarometerDeadInAir, OSD.isCompassError, OSD.isGoHomeHeightModified, OSD.canIOCWork, OSD.isNotEnoughForce, OSD.isOutOfLimit, OSD.isPropellerCatapult, OSD.isVibrating, OSD.isVisionUsed, OSD.voltageWarning, GIMBAL.mode, GIMBAL.pitch, GIMBAL.roll, GIMBAL.yaw, GIMBAL.yaw [360], GIMBAL.isPitchAtLimit, GIMBAL.isRollAtLimit, GIMBAL.isYawAtLimit, GIMBAL.isStuck, CAMERA.isPhoto, CAMERA.isVideo, CAMERA.filename, CAMERA.sdCardIsInserted, CAMERA.sdCardState, RC.downlinkSignal, RC.uplinkSignal, RC.aileron, RC.elevator, RC.throttle, RC.rudder, RC.mode, RC.goHomeDepressed, RC.recordDepressed, RC.shutterDepressed, RC.playbackDepressed, RC.wheelDepressed, RC.wheelOffset, RC.custom1Depressed, RC.custom2Depressed, RC.custom3Depressed, RC.custom4Depressed, BATTERY.chargeLevel, BATTERY.currentPV [V], BATTERY.currentCapacity [mAh], BATTERY.fullCapacity [mAh], BATTERY.voltage [V], BATTERY.isCellVoltageEstimated, BATTERY.cellVoltage1 [V], BATTERY.cellVoltage2 [V], BATTERY.cellVoltage3 [V], BATTERY.maxCellVoltageDeviation, BATTERY.isCellVoltageDeviationHigh, BATTERY.isVoltageLow, BATTERY.current [A], BATTERY.temperature [F], BATTERY.minTemperature [F], BATTERY.maxTemperature [F], BATTERY.usefulTime [s], BATTERY.goHomeTime [s], BATTERY.landTime [s], BATTERY.goHomeBattery, BATTERY.landBattery, BATTERY.safeFlyRadius, BATTERY.volumeConsume, BATTERY.status, BATTERY.goHomeStatus, BATTERY.goHomeCountdown, BATTERY.lowWarning, BATTERY.lowWarningGoHome, BATTERY.seriousLowWarning, BATTERY.seriousLowWarningLanding, BATTERY.timesCharged, MC.failSafeAction, HOME.latitude, HOME.longitude, HOME.distance [ft], HOME.height [ft], HOME.heightLimit [ft], HOME.isHomeRecord, HOME.goHomeMode, HOME.aircraftHeadDirection, HOME.isDynamicHomePointEnabled, HOME.isReachedLimitDistance, HOME.isReachedLimitHeight, HOME.isCompassCeleing, HOME.compassCeleStatus, HOME.isMultipleFlightModeEnabled, HOME.isBeginnerMode, HOME.isIOCEnabled, HOME.iocMode, HOME.goHomeHeight [ft], HOME.courseLockAngle, HOME.forceLandingHeight [ft], HOME.wind, HOME.dataRecorderFileIndex, RECOVER.appType, RECOVER.appVersion, RECOVER.aircraftName, RECOVER.aircraftSerial, RECOVER.cameraSerial, RECOVER.rcSerial, RECOVER.batterySerial, DETAILS.totalTime [s], DETAILS.totalDistance [ft], DETAILS.maxHeight [ft], DETAILS.maxHorizontalSpeed [MPH], DETAILS.maxVerticalSpeed [MPH], DETAILS.photoNum, DETAILS.videoTime [s], DETAILS.aircraftName, DETAILS.aircraftSerial, DETAILS.cameraSerial, DETAILS.rcSerial, DETAILS.batterySerial, DETAILS.appName, DETAILS.appType, DETAILS.appVersion, APPGPS.latitude, APPGPS.longitude, APPGPS.accuracy, APP.message, APP.tip, APP.warning
8/29/2017,6:59:23.51 PM,13m 16.3s,796.3,39.96121717,-106.21639903,0,0,0.7,8128,0,0,0,0,0,0,0,0,2.5,1.3,56,56,Starting Motors,Other (34),Takeoff (App Auto),16,5,True,,Mavic Pro,True,False,,Smart,RC,True,True,False,,,True,,False,False,False,False,False,False,False,False,False,False,0,Follow Yaw,-0.1,0,56.2,56.2,False,False,False,False,False,False,,False,Normal,,,1024,1024,1024,1024,0,False,False,False,False,False,0,False,False,False,False,3,2918.4,26112,11007,,False,3.798,3.801,3.798,0.003,False,False,353.792,,11644.2,,,,,,,,,,Idle,,,True,,False,,Go Home,,,,,,False,,,False,False,False,False,0,False,False,False,,,,,Calm,,, ,,,,,,309.458,2416.9,357.9,23.6,6.9,1,12,DF021,08RDD9T00101D2,08TUDBT00151CD,,093AE5F032041Z,,Android, 4.1.5,,,,,,
8/29/2017,6:59:23.62 PM,13m 16.6s,796.6,39.96121723,-106.21639905,0,0,0.7,8128,0,0,0,0,0,0,0,0,2.5,1.3,55.9,55.9,Starting Motors,Other (34),Takeoff (App Auto),16,5,True,,Mavic Pro,True,False,,Smart,RC,True,True,False,,,True,,False,False,False,False,False,False,False,False,False,False,0,Follow Yaw,-0.1,0,56.2,56.2,False,False,False,False,False,False,,False,Normal,,,1024,1024,1024,1024,0,False,False,False,False,False,0,False,False,False,False,3,2918.4,26112,11007,,False,3.798,3.801,3.798,0.003,False,False,353.792,,11644.2,,,,,,,,,,Idle,,,True,,False,,Go Home,,,,,,False,,,False,False,False,False,0,False,False,False,,,,,Calm,,, ,,,,,,309.458,2416.9,357.9,23.6,6.9,1,12,DF021,08RDD9T00101D2,08TUDBT00151CD,,093AE5F032041Z,,Android, 4.1.5,,,,,,
8/29/2017,6:59:23.73 PM,13m 16.7s,796.7,39.96121725,-106.21639904,0,0,0.3,8128,0,0,0,0,0,0,0,0,2.4,1.3,55.9,55.9,Starting Motors,Other (34),Takeoff (App Auto),16,5,True,,Mavic Pro,True,False,,Smart,RC,True,True,False,,,True,,False,False,False,False,False,False,False,False,False,False,0,Follow Yaw,-0.1,0,56.2,56.2,False,False,False,False,False,False,,False,Normal,,,1024,1024,1024,1024,0,False,False,False,False,False,0,False,False,False,False,3,2918.4,26112,11007,,False,3.798,3.801,3.798,0.003,False,False,353.792,,11644.2,,,,,,,,,,Idle,,,True,,False,,Go Home,,,,,,False,,,False,False,False,False,0,False,False,False,,,,,Calm,,, ,,,,,,309.458,2416.9,357.9,23.6,6.9,1,12,DF021,08RDD9T00101D2,08TUDBT00151CD,,093AE5F032041Z,,Android, 4.1.5,,,,,,
8/29/2017,6:59:23.93 PM,13m 16.8s,796.8,39.96121725,-106.21639905,0,0,0.3,8128,0,0,0,0,0,0,0,0,2.5,1.3,55.9,55.9,Starting Motors,Other (34),Takeoff (App Auto),16,5,True,,Mavic Pro,True,False,,Smart,RC,True,True,False,,,True,,False,False,False,False,False,False,False,False,False,False,0,Follow Yaw,-0.1,0,56.2,56.2,False,False,False,False,False,False,,False,Normal,,,1024,1024,1024,1024,0,False,False,False,False,False,0,False,False,False,False,3,2918.4,26112,11007,,False,3.798,3.801,3.798,0.003,False,False,353.792,,11644.2,,,,,,,,,,Idle,,,True,,False,,Go Home,,,,,,False,,,False,False,False,False,0,False,False,False,,,,,Calm,,, ,,,,,,309.458,2416.9,357.9,23.6,6.9,1,12,DF021,08RDD9T00101D2,08TUDBT00151CD,,093AE5F032041Z,,Android, 4.1.5,,,,,,
8/29/2017,6:59:24.14 PM,13m 16.9s,796.9,39.96121726,-106.21639904,0,0,0.3,8128,0,0,0,0,0,0,0,0,2.6,1.2,55.8,55.8,Starting Motors,Other (34),Takeoff (App Auto),16,5,True,,Mavic Pro,True,False,,Smart,RC,True,True,False,,,True,,False,False,False,False,False,False,False,False,False,False,0,Follow Yaw,-0.1,0,56.2,56.2,False,False,False,False,False,False,,True,Normal,,,1024,1024,1024,1024,0,False,False,False,False,False,0,False,False,False,False,38,2918.4,26112,11007,11.367,False,3.798,3.801,3.798,0.003,False,False,353.792,,11644.2,,0,0,1,15,10,2067.0,1389.93,,Idle,0,30,False,10,True,,Go Home,39.9612303,-106.2163956,4.8,8051.8,1640.4,True,1,1,False,False,False,False,0,False,False,False,Course Lock,98.4,307.8,16.4,Calm,5,Android, 4.1.5,DF021,08RDD9T00101D2,08TUDBT00151CD,,093AE5F032041Z,309.458,2416.9,357.9,23.6,6.9,1,12,DF021,08RDD9T00101D2,08TUDBT00151CD,,093AE5F032041Z,,Android, 4.1.5,,,,Data Recorder File Index is 5.,Taking off.,
8/29/2017,6:59:24.25 PM,13m 17.0s,797.0,39.96121726,-106.21639902,0,0,0.3,8128,0,0,0,0,0,0,0,0,2.6,1.2,55.8,55.8,Auto Takeoff,Other (34),Takeoff (App Auto),16,5,True,,Mavic Pro,True,False,,Smart,RC,True,True,False,,,True,,False,False,False,False,False,False,False,False,False,False,0,Follow Yaw,-0.1,0,56.2,56.2,False,False,False,False,False,False,,True,Normal,,,1024,1024,1024,1024,0,False,False,False,False,False,0,False,False,False,False,38,2918.4,26112,11007,11.367,False,3.798,3.801,3.798,0.003,False,False,353.792,,11644.2,,0,0,1,15,10,2067.0,1389.93,,Idle,0,30,False,10,True,,Go Home,39.9612303,-106.2163956,4.8,8051.8,1640.4,True,1,1,False,False,False,False,0,False,False,False,Course Lock,98.4,307.8,16.4,Calm,5,Android, 4.1.5,DF021,08RDD9T00101D2,08TUDBT00151CD,,093AE5F032041Z,309.458,2416.9,357.9,23.6,6.9,1,12,DF021,08RDD9T00101D2,08TUDBT00151CD,,093AE5F032041Z,,Android, 4.1.5,,,,,,
8/29/2017,6:59:24.35 PM,13m 17.1s,797.1,39.96121727,-106.21639898,0,0,0.3,8128,1.1,1.1,0,0,0,0,0,0,2.6,1.2,55.8,55.8,Auto Takeoff,Other (34),Takeoff (App Auto),16,5,True,,Mavic Pro,True,False,,Smart,RC,True,True,False,,,True,,False,False,False,False,False,False,False,False,False,False,0,Follow Yaw,-0.1,0,56.2,56.2,False,False,False,False,False,False,,True,Normal,,,1024,1024,1024,1024,0,False,False,False,False,False,0,False,False,False,False,38,2918.4,26112,11007,11.367,False,3.798,3.801,3.798,0.003,False,False,353.792,,11644.2,,0,0,1,15,10,2067.0,1389.93,,Idle,0,30,False,10,True,,Go Home,39.9612303,-106.2163956,4.8,8051.8,1640.4,True,1,1,False,False,False,False,0,False,False,False,Course Lock,98.4,307.8,16.4,Calm,5,Android, 4.1.5,DF021,08RDD9T00101D2,08TUDBT00151CD,,093AE5F032041Z,309.458,2416.9,357.9,23.6,6.9,1,12,DF021,08RDD9T00101D2,08TUDBT00151CD,,093AE5F032041Z,,Android, 4.1.5,,,,,,
8/29/2017,6:59:24.56 PM,13m 17.2s,797.2,39.96121725,-106.21639896,0,0,0.3,8128,0,1.1,0,0,0,0,0,0,2.5,1.3,55.8,55.8,Auto Takeoff,Other (34),Takeoff (App Auto),16,5,True,,Mavic Pro,True,False,,Smart,RC,True,True,False,,,True,,False,False,False,False,False,False,False,False,False,False,0,Follow Yaw,-0.1,0,56.2,56.2,False,False,False,False,False,False,,True,Normal,,,1024,1024,1024,1024,0,False,False,False,False,False,0,False,False,False,False,38,2918.4,26112,11007,11.367,False,3.798,3.801,3.798,0.003,False,False,353.792,,11644.2,,0,0,1,15,10,2067.0,1389.93,,Idle,0,30,False,10,True,,Go Home,39.9612303,-106.2163956,4.8,8051.8,1640.4,True,1,1,False,False,False,False,0,False,False,False,Course Lock,98.4,307.8,16.4,Calm,5,Android, 4.1.5,DF021,08RDD9T00101D2,08TUDBT00151CD,,093AE5F032041Z,309.458,2416.9,357.9,23.6,6.9,1,12,DF021,08RDD9T00101D2,08TUDBT00151CD,,093AE5F032041Z,,Android, 4.1.5,,,,,,
8/29/2017,6:59:24.77 PM,13m 17.3s,797.3,39.96121726,-106.21639893,0,0,0.3,8128,1.1,1.1,0,0,0,0,0,0,2.4,1.3,55.7,55.7,Auto Takeoff,Other (34),Takeoff (App Auto),16,5,True,,Mavic Pro,True,False,,Smart,RC,True,True,False,,,True,,False,False,False,False,False,False,False,False,False,False,0,Follow Yaw,-0.1,0,56.2,56.2,False,False,False,False,False,False,,True,Normal,,,1024,1024,1024,1024,0,False,False,False,False,False,0,False,False,False,False,38,2918.4,26112,11007,11.367,False,3.798,3.801,3.798,0.003,False,False,353.792,,11644.2,,0,0,1,15,10,2067.0,1389.93,,Idle,0,30,False,10,True,,Go Home,39.9612303,-106.2163956,4.8,8051.8,1640.4,True,1,1,False,False,False,False,0,False,False,False,Course Lock,98.4,307.8,16.4,Calm,5,Android, 4.1.5,DF021,08RDD9T00101D2,08TUDBT00151CD,,093AE5F032041Z,309.458,2416.9,357.9,23.6,6.9,1,12,DF021,08RDD9T00101D2,08TUDBT00151CD,,093AE5F032041Z,,Android, 4.1.5,,,,,,
8/29/2017,6:59:24.87 PM,13m 17.4s,797.4,39.96121725,-106.21639892,0,0,0.3,8128,0,1.1,0,0,0,0,0,0,2.3,1.4,55.6,55.6,Auto Takeoff,Other (34),Takeoff (App Auto),16,5,True,,Mavic Pro,True,False,,Smart,RC,True,True,False,,,True,,False,False,False,False,False,False,False,False,False,False,0,Follow Yaw,-0.1,0,56.2,56.2,False,False,False,False,False,False,,True,Normal,,,1024,1024,1024,1024,0,False,False,False,False,False,0,False,False,False,False,3,2924.032,26112,11007,11.367,False,3.798,3.801,3.798,0.003,False,False,711.68,,11644.2,,0,0,1,15,10,2067.0,1389.93,,Idle,0,30,False,10,True,,Go Home,39.9612303,-106.2163956,4.8,8051.8,1640.4,True,1,1,False,False,False,False,0,False,False,False,Course Lock,98.4,307.8,16.4,Calm,5,Android, 4.1.5,DF021,08RDD9T00101D2,08TUDBT00151CD,,093AE5F032041Z,309.458,2416.9,357.9,23.6,6.9,1,12,DF021,08RDD9T00101D2,08TUDBT00151CD,,093AE5F032041Z,,Android, 4.1.5,,,,,,
8/29/2017,6:59:24.97 PM,13m 17.5s,797.5,39.96121725,-106.2163989,0,0,0.3,8128,0,1.1,0,0,0,0,0,0,2,1.4,55.5,55.5,Auto Takeoff,Other (34),Takeoff (App Auto),16,5,True,,Mavic Pro,True,False,,Smart,RC,True,True,False,,,True,,False,False,False,False,False,False,False,False,False,False,0,Follow Yaw,-0.1,0,56.2,56.2,False,False,False,False,False,False,,True,Normal,,,1024,1024,1024,1024,0,False,False,False,False,False,0,False,False,False,False,3,2924.032,26112,11007,11.367,False,3.798,3.801,3.798,0.003,False,False,711.68,,11644.2,,0,0,1,15,10,2067.0,1389.93,,Idle,0,30,False,10,True,,Go Home,39.9612303,-106.2163956,4.8,8051.8,1640.4,True,1,1,False,False,False,False,0,False,False,False,Course Lock,98.4,307.8,16.4,Calm,5,Android, 4.1.5,DF021,08RDD9T00101D2,08TUDBT00151CD,,093AE5F032041Z,309.458,2416.9,357.9,23.6,6.9,1,12,DF021,08RDD9T00101D2,08TUDBT00151CD,,093AE5F032041Z,,Android, 4.1.5,,,,,,
8/29/2017,6:59:25.18 PM,13m 17.7s,797.7,39.96121731,-106.21639885,0,0,0.7,8128,0,1.1,0,0,0,0,-0.2,0,-4.1,1,55,55,Auto Takeoff,Other (34),Takeoff (App Auto),16,5,True,,Mavic Pro,True,False,,Smart,RC,True,True,False,,,True,,False,False,False,False,False,False,False,False,False,False,0,Follow Yaw,-0.1,0,56.1,56.1,False,False,False,False,False,False,,True,Normal,,,1024,1024,1024,1024,0,False,False,False,False,False,0,False,False,False,False,3,2924.032,26112,11007,11.367,False,3.798,3.801,3.798,0.003,False,False,711.68,,11644.2,,0,0,1,15,10,2067.0,1389.93,,Idle,0,30,False,10,True,,Go Home,39.9612303,-106.2163956,4.8,8051.8,1640.4,True,1,1,False,False,False,False,0,False,False,False,Course Lock,98.4,307.8,16.4,Calm,5,Android, 4.1.5,DF021,08RDD9T00101D2,08TUDBT00151CD,,093AE5F032041Z,309.458,2416.9,357.9,23.6,6.9,1,12,DF021,08RDD9T00101D2,08TUDBT00151CD,,093AE5F032041Z,,Android, 4.1.5,,,,,,
8/29/2017,6:59:25.28 PM,13m 17.8s,797.8,39.96121735,-106.21639875,0,0,0.7,8128,0,1.1,0,0,0.2,0.2,-0.5,0,-7.3,0,55.2,55.2,Auto Takeoff,Other (34),Takeoff (App Auto),16,5,True,,Mavic Pro,True,False,,Smart,RC,False,True,False,,,True,,False,False,False,False,False,False,False,False,False,False,0,Follow Yaw,-0.1,0,56.1,56.1,False,False,False,False,False,False,,True,Normal,,,1024,1024,1024,1024,0,False,False,False,False,False,0,False,False,False,False,3,2929.408,26112,11007,11.367,False,3.798,3.801,3.798,0.003,False,False,711.68,,11644.2,,0,0,1,15,10,2067.0,1389.93,,Idle,0,30,False,10,True,,Go Home,39.9612303,-106.2163956,4.8,8051.8,1640.4,True,1,1,False,False,False,False,0,False,False,False,Course Lock,98.4,307.8,16.4,Calm,5,Android, 4.1.5,DF021,08RDD9T00101D2,08TUDBT00151CD,,093AE5F032041Z,309.458,2416.9,357.9,23.6,6.9,1,12,DF021,08RDD9T00101D2,08TUDBT00151CD,,093AE5F032041Z,,Android, 4.1.5,,,,,,
8/29/2017,6:59:25.39 PM,13m 17.9s,797.9,39.96121745,-106.21639851,0,0,0.7,8128,0,1.1,0,0,0.5,0.5,-0.7,0,-4.1,-0.3,55.3,55.3,Auto Takeoff,Other (34),Takeoff (App Auto),16,5,True,,Mavic Pro,True,False,,Smart,RC,False,True,False,,,True,,False,False,False,False,False,False,False,False,False,False,0,Follow Yaw,-0.1,0,56.1,56.1,False,False,False,False,False,False,,True,Normal,,,1024,1024,1024,1024,0,False,False,False,False,False,0,False,False,False,False,38,2929.408,26112,11007,11.379,False,3.795,3.797,3.793,0.004,False,False,711.68,,11644.2,,0,0,1,15,10,2067.0,1390.94,,Idle,0,30,False,10,True,,Go Home,39.9612303,-106.2163956,4.8,8051.8,1640.4,True,1,1,False,False,False,False,0,False,False,False,Course Lock,98.4,307.8,16.4,Calm,5,Android, 4.1.5,DF021,08RDD9T00101D2,08TUDBT00151CD,,093AE5F032041Z,309.458,2416.9,357.9,23.6,6.9,1,12,DF021,08RDD9T00101D2,08TUDBT00151CD,,093AE5F032041Z,,Android, 4.1.5,,,,,,
8/29/2017,6:59:25.50 PM,13m 18.0s,798.0,39.9612176,-106.21639818,0,0,0.7,8128,0,1.1,0.2,0.2,0.7,0.7,-0.7,0,0,-0.5,55.4,55.4,Auto Takeoff,Other (34),Takeoff (App Auto),16,5,True,,Mavic Pro,True,False,,Smart,RC,False,True,False,,,True,,False,False,False,False,False,False,False,False,False,False,0,Follow Yaw,-0.1,0,56.1,56.1,False,False,False,False,False,False,,True,Normal,,,1024,1024,1024,1024,0,False,False,False,False,False,0,False,False,False,False,38,2929.408,26112,11007,11.379,False,3.795,3.797,3.793,0.004,False,False,711.68,,11644.2,,0,0,1,15,10,2067.0,1390.94,,Idle,0,30,False,10,True,,Go Home,39.9612303,-106.2163956,4.7,8051.8,1640.4,True,1,1,False,False,False,False,0,False,False,False,Course Lock,98.4,307.8,16.4,Calm,5,Android, 4.1.5,DF021,08RDD9T00101D2,08TUDBT00151CD,,093AE5F032041Z,309.458,2416.9,357.9,23.6,6.9,1,12,DF021,08RDD9T00101D2,08TUDBT00151CD,,093AE5F032041Z,,Android, 4.1.5,,,,,,
8/29/2017,6:59:25.60 PM,13m 18.1s,798.1,39.96121778,-106.21639783,0.3,0.3,0.7,8129,1.1,1.1,0.2,0.2,0.7,0.7,-0.5,0,3.6,-0.5,55.3,55.3,Auto Takeoff,Other (34),Takeoff (App Auto),16,5,True,,Mavic Pro,True,False,,Smart,RC,False,True,False,,,True,,False,False,False,False,False,False,False,False,False,False,0,Follow Yaw,-0.1,0,56.1,56.1,False,False,False,False,False,False,,True,Normal,,,1024,1024,1024,1024,0,False,False,False,False,False,0,False,False,False,False,38,2929.408,26112,11007,11.379,False,3.795,3.797,3.793,0.004,False,False,711.68,,11644.2,,0,0,1,15,10,2067.0,1390.94,,Idle,0,30,False,10,True,,Go Home,39.9612303,-106.2163956,4.6,8051.8,1640.4,True,1,1,False,False,False,False,0,False,False,False,Course Lock,98.4,307.8,16.4,Calm,5,Android, 4.1.5,DF021,08RDD9T00101D2,08TUDBT00151CD,,093AE5F032041Z,309.458,2416.9,357.9,23.6,6.9,1,12,DF021,08RDD9T00101D2,08TUDBT00151CD,,093AE5F032041Z,,Android, 4.1.5,,,,,,
8/29/2017,6:59:25.80 PM,13m 18.2s,798.2,39.96121787,-106.21639751,0.3,0.3,0.7,8129,1.5,1.5,0.2,0.2,0.7,0.7,-0.2,0,4.5,-0.3,55.4,55.4,Auto Takeoff,Other (34),Takeoff (App Auto),16,5,True,,Mavic Pro,True,False,,Smart,RC,False,True,False,,,True,,False,False,False,False,False,False,False,False,False,False,0,Follow Yaw,-0.1,0,56,56,False,False,False,False,False,False,,True,Normal,,,1024,1024,1024,1024,0,False,False,False,False,False,0,False,False,False,False,38,2929.408,26112,11007,11.379,False,3.795,3.797,3.793,0.004,False,False,711.68,,11644.2,,0,0,1,15,10,2067.0,1390.94,,Idle,0,30,False,10,True,,Go Home,39.9612303,-106.2163956,4.6,8051.8,1640.4,True,1,1,False,False,False,False,0,False,False,False,Course Lock,98.4,307.8,16.4,Calm,5,Android, 4.1.5,DF021,08RDD9T00101D2,08TUDBT00151CD,,093AE5F032041Z,309.458,2416.9,357.9,23.6,6.9,1,12,DF021,08RDD9T00101D2,08TUDBT00151CD,,093AE5F032041Z,,Android, 4.1.5,,,,,"Home Point Recorded, Return-to-Home Altitude:98FT.",
8/29/2017,6:59:25.90 PM,13m 18.3s,798.3,39.96121792,-106.21639725,0.3,0.3,0.7,8129,0,1.5,0,0.2,0.5,0.7,-0.2,0,3.8,-0.2,55.5,55.5,Auto Takeoff,Other (34),Takeoff (App Auto),16,5,True,,Mavic Pro,True,False,,Smart,RC,False,True,False,,,True,,False,False,False,False,False,False,False,False,False,False,0,Follow Yaw,-0.1,0,56,56,False,False,False,False,False,False,,True,Normal,,,1024,1024,1024,1024,0,False,False,False,False,False,0,False,False,False,False,38,2929.408,26112,11007,11.379,False,3.795,3.797,3.793,0.004,False,False,711.68,,11644.2,,0,0,1,15,10,2067.0,1390.94,,Idle,0,30,False,10,True,,Go Home,39.9612303,-106.2163956,4.5,8051.8,1640.4,True,1,1,False,False,False,False,0,False,False,False,Course Lock,98.4,307.8,16.4,Calm,5,Android, 4.1.5,DF021,08RDD9T00101D2,08TUDBT00151CD,,093AE5F032041Z,309.458,2416.9,357.9,23.6,6.9,1,12,DF021,08RDD9T00101D2,08TUDBT00151CD,,093AE5F032041Z,,Android, 4.1.5,,,,,,
8/29/2017,6:59:26.00 PM,13m 18.5s,798.5,39.96121799,-106.21639685,0.3,0.3,1.0,8129,1.0,1.5,0,0.2,0,0.7,-0.5,0,1.6,-0.4,55.4,55.4,Auto Takeoff,Other (34),Takeoff (App Auto),16,5,True,,Mavic Pro,True,False,,Smart,RC,False,True,False,,,True,,False,False,False,False,False,False,False,False,False,False,0,Follow Yaw,-0.1,0,56,56,False,False,False,False,False,False,,True,Normal,,,1024,1024,1024,1024,0,False,False,False,False,False,0,False,False,False,False,38,2929.408,26112,11007,11.379,False,3.795,3.797,3.793,0.004,False,False,711.68,,11644.2,,0,0,1,15,10,2067.0,1390.94,,Idle,0,30,False,10,True,,Go Home,39.9612303,-106.2163956,4.5,8051.8,1640.4,True,1,1,False,False,False,False,0,False,False,False,Course Lock,98.4,307.8,16.4,Calm,5,Android, 4.1.5,DF021,08RDD9T00101D2,08TUDBT00151CD,,093AE5F032041Z,309.458,2416.9,357.9,23.6,6.9,1,12,DF021,08RDD9T00101D2,08TUDBT00151CD,,093AE5F032041Z,,Android, 4.1.5,,,,,,
8/29/2017,6:59:26.11 PM,13m 18.7s,798.7,39.96121791,-106.21639663,0.7,0.7,1.0,8129,0,1.5,0,0.2,0,0.7,-1.1,0,1.1,-0.6,55.3,55.3,Auto Takeoff,Other (34),Takeoff (App Auto),16,5,True,,Mavic Pro,True,False,,Smart,RC,False,True,False,,,True,,False,False,False,False,False,False,False,False,False,False,0,Follow Yaw,-0.1,0,56,56,False,False,False,False,False,False,,True,Normal,,,1024,1024,1024,1024,0,False,False,False,False,False,0,False,False,False,False,3,2868.736,25600,11007,11.379,False,3.795,3.797,3.793,0.004,False,False,2457.6,,11644.2,,0,0,1,15,10,2067.0,1390.94,,Idle,0,30,False,10,True,,Go Home,39.9612303,-106.2163956,4.5,8051.8,1640.4,True,1,1,False,False,False,False,0,False,False,False,Course Lock,98.4,307.8,16.4,Calm,5,Android, 4.1.5,DF021,08RDD9T00101D2,08TUDBT00151CD,,093AE5F032041Z,309.458,2416.9,357.9,23.6,6.9,1,12,DF021,08RDD9T00101D2,08TUDBT00151CD,,093AE5F032041Z,,Android, 4.1.5,,,,,,
8/29/2017,6:59:26.21 PM,13m 18.9s,798.9,39.9612177,-106.21639651,1.0,1.0,1.3,8129,0,1.5,0,0.2,0,0.7,-1.1,0,1.4,-0.8,55.3,55.3,Auto Takeoff,Other (34),Takeoff (App Auto),16,5,True,,Mavic Pro,True,False,,Smart,RC,False,True,False,,,True,,False,False,False,False,False,False,False,False,False,False,0,Follow Yaw,-0.1,0,56,56,False,False,False,False,False,False,,True,Normal,,,1024,1024,1024,1024,0,False,False,False,False,False,0,False,False,False,False,3,2868.736,25600,11007,11.379,False,3.764,3.765,3.761,0.004,False,False,2457.6,,11644.2,,0,0,1,15,10,2067.0,1390.94,,Idle,0,30,False,10,True,,Go Home,39.9612303,-106.2163956,4.6,8051.8,1640.4,True,1,1,False,False,False,False,0,False,False,False,Course Lock,98.4,307.8,16.4,Calm,5,Android, 4.1.5,DF021,08RDD9T00101D2,08TUDBT00151CD,,093AE5F032041Z,309.458,2416.9,357.9,23.6,6.9,1,12,DF021,08RDD9T00101D2,08TUDBT00151CD,,093AE5F032041Z,,Android, 4.1.5,,,,,,
8/29/2017,6:59:26.31 PM,13m 19.1s,799.1,39.96121739,-106.21639643,1.3,1.3,1.6,8130,0,1.5,0,0.2,0,0.7,-1.3,0,0.8,-0.9,55.1,55.1,Auto Takeoff,Other (34),Takeoff (App Auto),16,5,True,,Mavic Pro,True,False,,Smart,RC,False,True,False,,,True,,False,False,False,False,False,False,False,False,False,False,0,Follow Yaw,-0.1,0,56,56,False,False,False,False,False,False,,True,Normal,,,1024,1024,1024,1024,0,False,False,False,False,False,0,False,False,False,False,3,2868.736,25600,11007,11.379,False,3.764,3.765,3.761,0.004,False,False,2457.6,,11644.2,,0,0,1,15,10,2067.0,1390.94,,Idle,0,30,False,10,True,,Go Home,39.9612303,-106.2163956,4.7,8051.8,1640.4,True,1,1,False,False,False,False,0,False,False,False,Course Lock,98.4,307.8,16.4,Calm,5,Android, 4.1.5,DF021,08RDD9T00101D2,08TUDBT00151CD,,093AE5F032041Z,309.458,2416.9,357.9,23.6,6.9,1,12,DF021,08RDD9T00101D2,08TUDBT00151CD,,093AE5F032041Z,,Android, 4.1.5,,,,,,
8/29/2017,6:59:26.62 PM,13m 19.3s,799.3,39.9612172,-106.21639627,2.0,2.0,2.0,8130,0,1.5,0,0.2,0,0.7,-1.3,0,1,-2.6,55.6,55.6,Auto Takeoff,Other (34),Takeoff (App Auto),16,5,True,,Mavic Pro,True,False,,Smart,RC,False,True,False,,,True,,False,False,False,False,False,False,False,False,False,False,0,Follow Yaw,-0.1,0,55.9,55.9,False,False,False,False,False,False,,True,Normal,,,1024,1024,1024,1024,0,False,False,False,False,False,0,False,False,False,False,38,2868.736,25600,11007,11.305,False,3.764,3.765,3.761,0.004,False,False,2457.6,,11644.2,,0,0,1,15,10,2067.0,1655.76,,Idle,0,30,False,10,True,,Go Home,39.96121734,-106.21639878,0.8,8051.8,1640.4,True,1,1,False,False,False,False,0,False,False,False,Course Lock,98.4,307.8,16.4,Calm,5,Android, 4.1.5,DF021,08RDD9T00101D2,08TUDBT00151CD,,093AE5F032041Z,309.458,2416.9,357.9,23.6,6.9,1,12,DF021,08RDD9T00101D2,08TUDBT00151CD,,093AE5F032041Z,,Android, 4.1.5,,,,Home Point Updated.,,
8/29/2017,6:59:26.72 PM,13m 19.4s,799.4,39.96121714,-106.21639619,2.0,2.0,2.3,8130,0,1.5,0,0.2,0,0.7,-1.1,0,1.5,-2.7,55.6,55.6,Auto Takeoff,Other (34),Takeoff (App Auto),16,5,True,,Mavic Pro,True,False,,Smart,RC,False,True,False,,,True,,False,False,False,False,False,False,False,False,False,False,0,Follow Yaw,-0.1,0,55.9,55.9,False,False,False,False,False,False,,True,Normal,,,1024,1024,1024,1024,0,False,False,False,False,False,0,False,False,False,False,38,2868.736,25600,11007,11.305,False,3.764,3.765,3.761,0.004,False,False,2457.6,,11644.2,,0,0,1,15,10,2067.0,1655.76,,Idle,0,30,False,10,True,,Go Home,39.96121734,-106.21639878,0.6,8051.8,1640.4,True,1,1,False,False,False,False,0,False,False,False,Course Lock,98.4,307.8,16.4,Calm,5,Android, 4.1.5,DF021,08RDD9T00101D2,08TUDBT00151CD,,093AE5F032041Z,309.458,2416.9,357.9,23.6,6.9,1,12,DF021,08RDD9T00101D2,08TUDBT00151CD,,093AE5F032041Z,,Android, 4.1.5,,,,,,
8/29/2017,6:59:26.83 PM,13m 19.5s,799.5,39.96121713,-106.2163961,2.3,2.3,2.3,8131,0,1.5,0,0.2,0,0.7,-1.1,0,1.9,-2.4,55.5,55.5,Auto Takeoff,Other (34),Takeoff (App Auto),16,5,True,,Mavic Pro,True,False,,Smart,RC,False,True,False,,,True,,False,False,False,False,False,False,False,False,False,False,0,Follow Yaw,-0.1,0,55.9,55.9,False,False,False,False,False,False,,True,Normal,,,1024,1024,1024,1024,0,False,False,False,False,False,0,False,False,False,False,38,2868.736,25600,11007,11.305,False,3.764,3.765,3.761,0.004,False,False,2457.6,,11644.2,,0,0,1,15,10,2067.0,1655.76,,Idle,0,30,False,10,True,,Go Home,39.96121734,-106.21639878,0.8,8051.8,1640.4,True,1,1,False,False,False,False,0,False,False,False,Course Lock,98.4,307.8,16.4,Calm,5,Android, 4.1.5,DF021,08RDD9T00101D2,08TUDBT00151CD,,093AE5F032041Z,309.458,2416.9,357.9,23.6,6.9,1,12,DF021,08RDD9T00101D2,08TUDBT00151CD,,093AE5F032041Z,,Android, 4.1.5,,,,,,
8/29/2017,6:59:26.93 PM,13m 19.7s,799.7,39.96121703,-106.21639597,2.6,2.6,2.6,8131,0,1.5,0,0.2,0,0.7,-1.1,0,2,-2,55.4,55.4,Auto Takeoff,Other (34),Takeoff (App Auto),16,5,True,,Mavic Pro,True,False,,Smart,RC,False,True,False,,,True,,False,False,False,False,False,False,False,False,False,False,0,Follow Yaw,-0.1,0,55.9,55.9,False,False,False,False,False,False,,True,Normal,,,1024,1024,1024,1024,0,False,False,False,False,False,0,False,False,False,False,38,2868.736,25600,11007,11.305,False,3.764,3.765,3.761,0.004,False,False,2457.6,,11644.2,,0,0,1,15,10,2067.0,1655.76,,Idle,0,30,False,10,True,,Go Home,39.96121734,-106.21639878,0.8,8051.8,1640.4,True,1,1,False,False,False,False,0,False,False,False,Course Lock,98.4,307.8,16.4,Calm,5,Android, 4.1.5,DF021,08RDD9T00101D2,08TUDBT00151CD,,093AE5F032041Z,309.458,2416.9,357.9,23.6,6.9,1,12,DF021,08RDD9T00101D2,08TUDBT00151CD,,093AE5F032041Z,,Android, 4.1.5,,,,,,
8/29/2017,6:59:27.13 PM,13m 19.8s,799.8,39.96121699,-106.21639596,2.6,2.6,3.0,8131,2.1,2.1,0,0.2,0,0.7,-1.1,0,2.3,-1.6,55.4,55.4,Auto Takeoff,Other (34),Takeoff (App Auto),16,5,True,,Mavic Pro,True,False,,Smart,RC,False,True,False,,,True,,False,False,False,False,False,False,False,False,False,False,0,Follow Yaw,-0.1,0,55.9,55.9,False,False,False,False,False,False,,True,Normal,,,1024,1024,1024,1024,0,False,False,False,False,False,0,False,False,False,False,3,2973.696,25600,11007,11.305,False,3.764,3.765,3.761,0.004,False,False,2457.6,,11644.2,,0,0,1,15,10,2067.0,1655.76,,Idle,0,30,False,10,True,,Go Home,39.96121734,-106.21639878,0.9,8051.8,1640.4,True,1,1,False,False,False,False,0,False,False,False,Course Lock,98.4,307.8,16.4,Calm,5,Android, 4.1.5,DF021,08RDD9T00101D2,08TUDBT00151CD,,093AE5F032041Z,309.458,2416.9,357.9,23.6,6.9,1,12,DF021,08RDD9T00101D2,08TUDBT00151CD,,093AE5F032041Z,,Android, 4.1.5,,,,,,
8/29/2017,6:59:27.23 PM,13m 19.9s,799.9,39.96121696,-106.21639596,3.0,3.0,3.0,8131,0,2.1,0,0.2,0,0.7,-1.1,0,0.8,-1.7,55.4,55.4,Auto Takeoff,Other (34),Takeoff (App Auto),16,5,True,,Mavic Pro,True,False,,Smart,RC,False,True,False,,,True,,False,False,False,False,False,False,False,False,False,False,0,Follow Yaw,-0.1,0,55.9,55.9,False,False,False,False,False,False,,True,Normal,,,1024,1024,1024,1024,0,False,False,False,False,False,0,False,False,False,False,3,2973.696,25600,11007,11.305,False,3.764,3.765,3.761,0.004,False,False,2457.6,,11644.2,,0,0,1,15,10,2067.0,1655.76,,Idle,0,30,False,10,True,,Go Home,39.96121734,-106.21639878,0.8,8051.8,1640.4,True,1,1,False,False,False,False,0,False,False,False,Course Lock,98.4,307.8,16.4,Calm,5,Android, 4.1.5,DF021,08RDD9T00101D2,08TUDBT00151CD,,093AE5F032041Z,309.458,2416.9,357.9,23.6,6.9,1,12,DF021,08RDD9T00101D2,08TUDBT00151CD,,093AE5F032041Z,,Android, 4.1.5,,,,,,
8/29/2017,6:59:27.34 PM,13m 20.0s,800.0,39.96121694,-106.21639597,3.3,3.3,3.3,8132,1.1,2.1,0,0.2,0,0.7,-1.1,0,0.8,-1.8,55.5,55.5,Auto Takeoff,Other (34),Takeoff (App Auto),16,5,True,,Mavic Pro,True,False,,Smart,RC,False,True,False,,,True,,False,False,False,False,False,False,False,False,False,False,0,Follow Yaw,-0.1,0,55.9,55.9,False,False,False,False,False,False,,True,Normal,,,1024,1024,1024,1024,0,False,False,False,False,False,0,False,False,False,False,3,2973.696,25600,11007,11.305,False,3.764,3.765,3.761,0.004,False,False,2457.6,,11644.2,,0,0,1,15,10,2067.0,1655.76,,Idle,0,30,False,10,True,,Go Home,39.96121734,-106.21639878,0.8,8051.8,1640.4,True,1,1,False,False,False,False,0,False,False,False,Course Lock,98.4,307.8,16.4,Calm,5,Android, 4.1.5,DF021,08RDD9T00101D2,08TUDBT00151CD,,093AE5F032041Z,309.458,2416.9,357.9,23.6,6.9,1,12,DF021,08RDD9T00101D2,08TUDBT00151CD,,093AE5F032041Z,,Android, 4.1.5,,,,,,
8/29/2017,6:59:27.44 PM,13m 20.1s,800.1,39.96121695,-106.21639597,3.3,3.3,3.6,8132,0,2.1,0,0.2,0,0.7,-1.1,0,1,-2.2,55.4,55.4,Auto Takeoff,Other (34),Takeoff (App Auto),16,5,True,,Mavic Pro,True,False,,Smart,RC,False,True,False,,,True,,False,False,False,False,False,False,False,False,False,False,0,Follow Yaw,-0.1,0,55.9,55.9,False,False,False,False,False,False,,True,Normal,,,1024,1024,1024,1024,0,False,False,False,False,False,0,False,False,False,False,3,2973.696,25600,11007,11.305,False,3.764,3.765,3.761,0.004,False,False,2457.6,,11644.2,,0,0,1,15,10,2067.0,1655.76,,Idle,0,30,False,10,True,,Go Home,39.96121734,-106.21639878,0.8,8051.8,1640.4,True,1,1,False,False,False,False,0,False,False,False,Course Lock,98.4,307.8,16.4,Calm,5,Android, 4.1.5,DF021,08RDD9T00101D2,08TUDBT00151CD,,093AE5F032041Z,309.458,2416.9,357.9,23.6,6.9,1,12,DF021,08RDD9T00101D2,08TUDBT00151CD,,093AE5F032041Z,,Android, 4.1.5,,,,,,
8/29/2017,6:59:27.54 PM,13m 20.3s,800.3,39.96121697,-106.21639591,3.6,3.6,3.9,8132,0,2.1,0,0.2,0,0.7,-1.1,0,2.2,0.5,55.3,55.3,Auto Takeoff,Other (34),Takeoff (App Auto),16,5,True,,Mavic Pro,True,False,,Smart,RC,False,True,False,,,True,,False,False,False,False,False,False,False,False,False,False,0,Follow Yaw,-0.1,0,55.9,55.9,False,False,False,False,False,False,,True,Normal,,,1024,1024,1024,1024,0,False,False,False,False,False,0,False,False,False,False,3,2973.696,25600,11007,11.305,False,3.764,3.765,3.761,0.004,False,False,2457.6,,11644.2,,0,0,1,15,10,2067.0,1655.76,,Idle,0,30,False,10,True,,Go Home,39.96121734,-106.21639878,0.8,8051.8,1640.4,True,1,1,False,False,False,False,0,False,False,False,Course Lock,98.4,307.8,16.4,Calm,5,Android, 4.1.5,DF021,08RDD9T00101D2,08TUDBT00151CD,,093AE5F032041Z,309.458,2416.9,357.9,23.6,6.9,1,12,DF021,08RDD9T00101D2,08TUDBT00151CD,,093AE5F032041Z,,Android, 4.1.5,,,,,,
8/29/2017,6:59:27.74 PM,13m 20.4s,800.4,39.96121695,-106.21639582,3.9,3.9,3.9,8132,0.7,2.1,0,0.2,0,0.7,-0.9,0,1.6,0,55.5,55.5,Auto Takeoff,Other (34),Takeoff (App Auto),16,5,True,,Mavic Pro,True,False,,Smart,RC,False,True,False,,,True,,False,False,False,False,False,False,False,False,False,False,0,Follow Yaw,-0.1,0,55.9,55.9,False,False,False,False,False,False,,True,Normal,,,1024,1024,1024,1024,0,False,False,False,False,False,0,False,False,False,False,38,2973.696,25600,11007,11.387,False,3.764,3.765,3.761,0.004,False,False,2457.6,,11644.2,,0,0,1,15,10,2067.0,2308.60,,Idle,0,30,False,10,True,,Go Home,39.96121734,-106.21639878,0.9,8051.8,1640.4,True,1,1,False,False,False,False,0,False,False,False,Course Lock,98.4,307.8,16.4,Calm,5,Android, 4.1.5,DF021,08RDD9T00101D2,08TUDBT00151CD,,093AE5F032041Z,309.458,2416.9,357.9,23.6,6.9,1,12,DF021,08RDD9T00101D2,08TUDBT00151CD,,093AE5F032041Z,,Android, 4.1.5,,,,,,
8/29/2017,6:59:27.95 PM,13m 20.6s,800.6,39.96121682,-106.21639554,4.3,4.3,4.3,8133,0,2.1,0,0.2,0,0.7,-0.9,0,1.9,-1.8,55.7,55.7,Auto Takeoff,Other (34),Takeoff (App Auto),16,5,True,,Mavic Pro,True,False,,Smart,RC,False,True,False,,,True,,False,False,False,False,False,False,False,False,False,False,0,Follow Yaw,-0.1,0,55.9,55.9,False,False,False,False,False,False,,True,Normal,,,1024,1024,1024,1024,0,False,False,False,False,False,0,False,False,False,False,38,2973.696,25600,11007,11.387,False,3.764,3.765,3.761,0.004,False,False,2457.6,,11644.2,,0,0,1,15,10,2067.0,2308.60,,Idle,0,30,False,10,True,,Go Home,39.96121734,-106.21639878,0.9,8051.8,1640.4,True,1,1,False,False,False,False,0,False,False,False,Course Lock,98.4,307.8,16.4,Calm,5,Android, 4.1.5,DF021,08RDD9T00101D2,08TUDBT00151CD,,093AE5F032041Z,309.458,2416.9,357.9,23.6,6.9,1,12,DF021,08RDD9T00101D2,08TUDBT00151CD,,093AE5F032041Z,,Android, 4.1.5,,,,,,
8/29/2017,6:59:28.05 PM,13m 20.7s,800.7,39.96121675,-106.21639538,4.3,4.3,4.6,8133,0,2.1,0,0.2,0,0.7,-0.9,0,1.7,-2.3,55.6,55.6,Auto Takeoff,Other (34),Takeoff (App Auto),16,5,True,,Mavic Pro,True,False,,Smart,RC,False,True,False,,,True,,False,False,False,False,False,False,False,False,False,False,0,Follow Yaw,-0.1,0,55.9,55.9,False,False,False,False,False,False,,True,Normal,,,1024,1024,1024,1024,0,False,False,False,False,False,0,False,False,False,False,3,2874.112,24064,11007,11.387,False,3.764,3.765,3.761,0.004,False,False,2510.336,,11644.2,,0,0,1,15,10,2067.0,2308.60,,Idle,0,30,False,10,True,,Go Home,39.96121734,-106.21639878,1.0,8051.8,1640.4,True,1,1,False,False,False,False,0,False,False,False,Course Lock,98.4,307.8,16.4,Calm,5,Android, 4.1.5,DF021,08RDD9T00101D2,08TUDBT00151CD,,093AE5F032041Z,309.458,2416.9,357.9,23.6,6.9,1,12,DF021,08RDD9T00101D2,08TUDBT00151CD,,093AE5F032041Z,,Android, 4.1.5,,,,,,
8/29/2017,6:59:28.16 PM,13m 20.8s,800.8,39.96121664,-106.21639523,4.3,4.3,4.6,8133,1.1,2.1,0,0.2,0,0.7,-1.1,0,2,-2.3,55.7,55.7,Auto Takeoff,Other (34),Takeoff (App Auto),16,5,True,,Mavic Pro,True,False,,Smart,RC,False,True,False,,,True,,False,False,False,False,False,False,False,False,False,False,0,Follow Yaw,-0.1,0,55.9,55.9,False,False,False,False,False,False,,True,Normal,,,1024,1024,1024,1024,0,False,False,False,False,False,0,False,False,False,False,3,2874.112,24064,11007,11.387,False,3.764,3.765,3.761,0.004,False,False,2510.336,,11644.2,,0,0,1,15,10,2067.0,2308.60,,Idle,0,30,False,10,True,,Go Home,39.96121734,-106.21639878,1.0,8051.8,1640.4,True,1,1,False,False,False,False,0,False,False,False,Course Lock,98.4,307.8,16.4,Calm,5,Android, 4.1.5,DF021,08RDD9T00101D2,08TUDBT00151CD,,093AE5F032041Z,309.458,2416.9,357.9,23.6,6.9,1,12,DF021,08RDD9T00101D2,08TUDBT00151CD,,093AE5F032041Z,,Android, 4.1.5,,,,,,
8/29/2017,6:59:28.26 PM,13m 20.9s,800.9,39.96121657,-106.21639506,4.6,4.6,4.9,8133,0,2.1,0,0.2,0.2,0.7,-1.1,0,3.3,-2.1,55.5,55.5,Auto Takeoff,Other (34),Takeoff (App Auto),16,5,True,,Mavic Pro,True,False,,Smart,RC,False,True,False,,,True,,False,False,False,False,False,False,False,False,False,False,0,Follow Yaw,-0.1,0,55.9,55.9,False,False,False,False,False,False,,True,Normal,,,1024,1024,1024,1024,0,False,False,False,False,False,0,False,False,False,False,3,2874.112,24064,11007,11.387,False,3.759,3.761,3.757,0.004,False,False,2510.336,,11644.2,,0,0,1,15,10,2067.0,2308.60,,Idle,0,30,False,10,True,,Go Home,39.96121734,-106.21639878,1.1,8051.8,1640.4,True,1,1,False,False,False,False,0,False,False,False,Course Lock,98.4,307.8,16.4,Calm,5,Android, 4.1.5,DF021,08RDD9T00101D2,08TUDBT00151CD,,093AE5F032041Z,309.458,2416.9,357.9,23.6,6.9,1,12,DF021,08RDD9T00101D2,08TUDBT00151CD,,093AE5F032041Z,,Android, 4.1.5,,,,,,
8/29/2017,6:59:28.36 PM,13m 21.0s,801.0,39.96121651,-106.21639489,4.6,4.6,4.9,8133,0,2.1,0,0.2,0,0.7,-0.9,0,3.5,-2,55.4,55.4,Auto Takeoff,Other (34),Takeoff (App Auto),16,5,True,,Mavic Pro,True,False,,Smart,RC,False,True,False,,,True,,False,False,False,False,False,False,False,False,False,False,0,Follow Yaw,-0.1,0,55.9,55.9,False,False,False,False,False,False,,True,Normal,,,1024,1024,1024,1024,0,False,False,False,False,False,0,False,False,False,False,3,2874.112,24064,11007,11.387,False,3.759,3.761,3.757,0.004,False,False,2510.336,,11644.2,,0,0,1,15,10,2067.0,2308.60,,Idle,0,30,False,10,True,,Go Home,39.96121734,-106.21639878,1.1,8051.8,1640.4,True,1,1,False,False,False,False,0,False,False,False,Course Lock,98.4,307.8,16.4,Calm,5,Android, 4.1.5,DF021,08RDD9T00101D2,08TUDBT00151CD,,093AE5F032041Z,309.458,2416.9,357.9,23.6,6.9,1,12,DF021,08RDD9T00101D2,08TUDBT00151CD,,093AE5F032041Z,,Android, 4.1.5,,,,,,
8/29/2017,6:59:28.47 PM,13m 21.1s,801.1,39.96121648,-106.21639472,4.9,4.9,5.2,8133,0,2.1,0,0.2,0,0.7,-1.1,0,3.6,-2,55.5,55.5,Auto Takeoff,Other (34),Takeoff (App Auto),16,5,True,,Mavic Pro,True,False,,Smart,RC,False,True,False,,,True,,False,False,False,False,False,False,False,False,False,False,0,Follow Yaw,-0.1,0,55.9,55.9,False,False,False,False,False,False,,True,Normal,,,1024,1024,1024,1024,0,False,False,False,False,False,0,False,False,False,False,3,2874.112,24064,11007,11.387,False,3.759,3.761,3.757,0.004,False,False,2510.336,,11644.2,,0,0,1,15,10,2067.0,2308.60,,Idle,0,30,False,10,True,,Go Home,39.96121734,-106.21639878,1.2,8051.8,1640.4,True,1,1,False,False,False,False,0,False,False,False,Course Lock,98.4,307.8,16.4,Calm,5,Android, 4.1.5,DF021,08RDD9T00101D2,08TUDBT00151CD,,093AE5F032041Z,309.458,2416.9,357.9,23.6,6.9,1,12,DF021,08RDD9T00101D2,08TUDBT00151CD,,093AE5F032041Z,,Android, 4.1.5,,,,,,
8/29/2017,6:59:28.57 PM,13m 21.2s,801.2,39.96121641,-106.2163946,4.9,4.9,5.2,8133,0,2.1,0,0.2,0,0.7,-1.1,0,3.2,-2.2,55.5,55.5,Auto Takeoff,Other (34),Takeoff (App Auto),16,5,True,,Mavic Pro,True,False,,Smart,RC,False,True,False,,,True,,False,False,False,False,False,False,False,False,False,False,0,Follow Yaw,-0.1,0,55.9,55.9,False,False,False,False,False,False,,True,Normal,,,1024,1024,1024,1024,0,False,False,False,False,False,0,False,False,False,False,3,2874.112,24064,11007,11.387,False,3.759,3.761,3.757,0.004,False,False,2510.336,,11644.2,,0,0,1,15,10,2067.0,2308.60,,Idle,0,30,False,10,True,,Go Home,39.96121734,-106.21639878,1.2,8051.8,1640.4,True,1,1,False,False,False,False,0,False,False,False,Course Lock,98.4,307.8,16.4,Calm,5,Android, 4.1.5,DF021,08RDD9T00101D2,08TUDBT00151CD,,093AE5F032041Z,309.458,2416.9,357.9,23.6,6.9,1,12,DF021,08RDD9T00101D2,08TUDBT00151CD,,093AE5F032041Z,,Android, 4.1.5,,,,,,
8/29/2017,6:59:28.67 PM,13m 21.3s,801.3,39.96121634,-106.21639448,5.2,5.2,5.6,8134,0,2.1,0,0.2,0,0.7,-1.1,0,2.9,-2,55.6,55.6,Auto Takeoff,Other (34),Takeoff (App Auto),16,5,True,,Mavic Pro,True,False,,Smart,RC,False,True,False,,,True,,False,False,False,False,False,False,False,False,False,False,0,Follow Yaw,-0.1,0,55.9,55.9,False,False,False,False,False,False,,True,Normal,,,1024,1024,1024,1024,0,False,False,False,False,False,0,False,False,False,False,3,2874.112,24064,11007,11.387,False,3.759,3.761,3.757,0.004,False,False,2510.336,,11644.2,,0,0,1,15,10,2067.0,2308.60,,Idle,0,30,False,10,True,,Go Home,39.96121734,-106.21639878,1.3,8051.8,1640.4,True,1,1,False,False,False,False,0,False,False,False,Course Lock,98.4,307.8,16.4,Calm,5,Android, 4.1.5,DF021,08RDD9T00101D2,08TUDBT00151CD,,093AE5F032041Z,309.458,2416.9,357.9,23.6,6.9,1,12,DF021,08RDD9T00101D2,08TUDBT00151CD,,093AE5F032041Z,,Android, 4.1.5,,,,,,
8/29/2017,6:59:28.87 PM,13m 21.4s,801.4,39.96121625,-106.21639437,5.2,5.2,5.6,8134,0,2.1,0,0.2,0,0.7,-1.1,0,2.2,-2.4,55.6,55.6,Auto Takeoff,Other (34),Takeoff (App Auto),16,5,True,,Mavic Pro,True,False,,Smart,RC,False,True,False,,,True,,False,False,False,False,False,False,False,False,False,False,0,Follow Yaw,-0.1,0,55.9,55.9,False,False,False,False,False,False,,True,Normal,,,1024,1024,1024,1024,0,False,False,False,False,False,0,False,False,False,False,3,2874.112,24064,11007,11.387,False,3.759,3.761,3.757,0.004,False,False,2510.336,,11644.2,,0,0,1,15,10,2067.0,2308.60,,Idle,0,30,False,10,True,,Go Home,39.96121734,-106.21639878,1.3,8051.8,1640.4,True,1,1,False,False,False,False,0,False,False,False,Course Lock,98.4,307.8,16.4,Calm,5,Android, 4.1.5,DF021,08RDD9T00101D2,08TUDBT00151CD,,093AE5F032041Z,309.458,2416.9,357.9,23.6,6.9,1,12,DF021,08RDD9T00101D2,08TUDBT00151CD,,093AE5F032041Z,,Android, 4.1.5,,,,,,
8/29/2017,6:59:28.98 PM,13m 21.6s,801.6,39.96121608,-106.21639414,5.9,5.9,5.9,8134,0,2.1,0,0.2,0,0.7,-1.1,0,3,-2.5,55.3,55.3,Auto Takeoff,Other (34),Takeoff (App Auto),16,5,True,,Mavic Pro,True,False,,Smart,RC,False,True,False,,,True,,False,False,False,False,False,False,False,False,False,False,0,Follow Yaw,-0.1,0,55.9,55.9,False,False,False,False,False,False,,True,Normal,,,1024,1024,1024,1024,0,False,False,False,False,False,0,False,False,False,False,38,2874.112,24064,11007,11.384,False,3.759,3.761,3.757,0.004,False,False,2510.336,,11644.2,,0,0,1,15,10,2067.0,3317.19,,Idle,0,30,False,10,True,,Go Home,39.96121734,-106.21639878,1.4,8051.8,1640.4,True,1,1,False,False,False,False,0,False,False,False,Course Lock,98.4,307.8,16.4,Calm,5,Android, 4.1.5,DF021,08RDD9T00101D2,08TUDBT00151CD,,093AE5F032041Z,309.458,2416.9,357.9,23.6,6.9,1,12,DF021,08RDD9T00101D2,08TUDBT00151CD,,093AE5F032041Z,,Android, 4.1.5,,,,,,
8/29/2017,6:59:29.08 PM,13m 21.7s,801.7,39.96121599,-106.21639403,5.9,5.9,6.2,8134,0,2.1,0,0.2,0,0.7,-0.9,0,3,-2.9,55.4,55.4,Auto Takeoff,Other (34),Takeoff (App Auto),16,5,True,,Mavic Pro,True,False,,Smart,RC,False,True,False,,,True,,False,False,False,False,False,False,False,False,False,False,0,Follow Yaw,-0.1,0,55.9,55.9,False,False,False,False,False,False,,True,Normal,,,1024,1024,1024,1024,0,False,False,False,False,False,0,False,False,False,False,38,2874.112,24064,11007,11.384,False,3.759,3.761,3.757,0.004,False,False,2510.336,,11644.2,,0,0,1,15,10,2067.0,3317.19,,Idle,0,30,False,10,True,,Go Home,39.96121734,-106.21639878,1.4,8051.8,1640.4,True,1,1,False,False,False,False,0,False,False,False,Course Lock,98.4,307.8,16.4,Calm,5,Android, 4.1.5,DF021,08RDD9T00101D2,08TUDBT00151CD,,093AE5F032041Z,309.458,2416.9,357.9,23.6,6.9,1,12,DF021,08RDD9T00101D2,08TUDBT00151CD,,093AE5F032041Z,,Android, 4.1.5,,,,,,
8/29/2017,6:59:29.18 PM,13m 21.8s,801.8,39.96121588,-106.21639399,5.9,5.9,6.2,8134,0,2.1,0,0.2,0,0.7,-1.1,0,2.4,-3.5,55.5,55.5,Auto Takeoff,Other (34),Takeoff (App Auto),16,5,True,,Mavic Pro,True,False,,Smart,RC,False,True,False,,,True,,False,False,False,False,False,False,False,False,False,False,0,Follow Yaw,-0.1,0,55.9,55.9,False,False,False,False,False,False,,True,Normal,,,1024,1024,1024,1024,0,False,False,False,False,False,0,False,False,False,False,3,2951.68,23552,11007,11.384,False,3.759,3.761,3.757,0.004,False,False,2531.84,,11644.2,,0,0,1,15,10,2067.0,3317.19,,Idle,0,30,False,10,True,,Go Home,39.96121734,-106.21639878,1.4,8051.8,1640.4,True,1,1,False,False,False,False,0,False,False,False,Course Lock,98.4,307.8,16.4,Calm,5,Android, 4.1.5,DF021,08RDD9T00101D2,08TUDBT00151CD,,093AE5F032041Z,309.458,2416.9,357.9,23.6,6.9,1,12,DF021,08RDD9T00101D2,08TUDBT00151CD,,093AE5F032041Z,,Android, 4.1.5,,,,,,
8/29/2017,6:59:29.29 PM,13m 21.9s,801.9,39.96121579,-106.21639396,6.2,6.2,6.6,8135,0,2.1,0,0.2,0,0.7,-1.1,0,3,-3.9,55.5,55.5,Auto Takeoff,Other (34),Takeoff (App Auto),16,5,True,,Mavic Pro,True,False,,Smart,RC,False,True,False,,,True,,False,False,False,False,False,False,False,False,False,False,0,Follow Yaw,-0.1,0,55.9,55.9,False,False,False,False,False,False,,True,Normal,,,1024,1024,1024,1024,0,False,False,False,False,False,0,False,False,False,False,3,2890.752,23552,11007,11.384,False,3.754,3.756,3.752,0.004,False,False,2531.84,,11644.2,,0,0,1,15,10,2067.0,3317.19,,Idle,0,30,False,10,True,,Go Home,39.96121734,-106.21639878,1.5,8051.8,1640.4,True,1,1,False,False,False,False,0,False,False,False,Course Lock,98.4,307.8,16.4,Calm,5,Android, 4.1.5,DF021,08RDD9T00101D2,08TUDBT00151CD,,093AE5F032041Z,309.458,2416.9,357.9,23.6,6.9,1,12,DF021,08RDD9T00101D2,08TUDBT00151CD,,093AE5F032041Z,,Android, 4.1.5,,,,,,
8/29/2017,6:59:29.39 PM,13m 22.0s,802.0,39.96121572,-106.21639397,6.2,6.2,6.6,8135,0,2.1,0,0.2,0,0.7,-1.1,0,2.7,-2.9,55.5,55.5,Auto Takeoff,Other (34),Takeoff (App Auto),16,5,True,,Mavic Pro,True,False,,Smart,RC,False,True,False,,,True,,False,False,False,False,False,False,False,False,False,False,0,Follow Yaw,-0.1,0,55.9,55.9,False,False,False,False,False,False,,True,Normal,,,1024,1024,1024,1024,0,False,False,False,False,False,0,False,False,False,False,3,2890.752,23552,11007,11.384,False,3.754,3.756,3.752,0.004,False,False,2531.84,,11644.2,,0,0,1,15,10,2067.0,3317.19,,Idle,0,30,False,10,True,,Go Home,39.96121734,-106.21639878,1.5,8051.8,1640.4,True,1,1,False,False,False,False,0,False,False,False,Course Lock,98.4,307.8,16.4,Calm,5,Android, 4.1.5,DF021,08RDD9T00101D2,08TUDBT00151CD,,093AE5F032041Z,309.458,2416.9,357.9,23.6,6.9,1,12,DF021,08RDD9T00101D2,08TUDBT00151CD,,093AE5F032041Z,,Android, 4.1.5,,,,,,
8/29/2017,6:59:29.49 PM,13m 22.2s,802.2,39.96121563,-106.21639398,6.6,6.6,6.9,8135,0,2.1,0,0.2,0,0.7,-1.1,0,2.7,-2.4,55.4,55.4,Auto Takeoff,Other (34),Takeoff (App Auto),16,5,True,,Mavic Pro,True,False,,Smart,RC,False,True,False,,,True,,False,False,False,False,False,False,False,False,False,False,0,Follow Yaw,-0.1,0,55.9,55.9,False,False,False,False,False,False,,True,Normal,,,1024,1024,1024,1024,0,False,False,False,False,False,0,False,False,False,False,3,2890.752,23552,11007,11.384,False,3.754,3.756,3.752,0.004,False,False,2531.84,,11644.2,,0,0,1,15,10,2067.0,3317.19,,Idle,0,30,False,10,True,,Go Home,39.96121734,-106.21639878,1.5,8051.8,1640.4,True,1,1,False,False,False,False,0,False,False,False,Course Lock,98.4,307.8,16.4,Calm,5,Android, 4.1.5,DF021,08RDD9T00101D2,08TUDBT00151CD,,093AE5F032041Z,309.458,2416.9,357.9,23.6,6.9,1,12,DF021,08RDD9T00101D2,08TUDBT00151CD,,093AE5F032041Z,,Android, 4.1.5,,,,,,
8/29/2017,6:59:29.59 PM,13m 22.3s,802.3,39.9612156,-106.21639396,6.9,6.9,7.2,8135,0,2.1,0,0.2,0,0.7,-1.1,0,2.8,-3,55.3,55.3,Auto Takeoff,Other (34),Takeoff (App Auto),16,5,True,,Mavic Pro,True,False,,Smart,RC,False,True,False,,,True,,False,False,False,False,False,False,False,False,False,False,0,Follow Yaw,-0.1,0,55.8,55.8,False,False,False,False,False,False,,True,Normal,,,1024,1024,1024,1024,0,False,False,False,False,False,0,False,False,False,False,3,2890.752,23552,11007,11.384,False,3.754,3.756,3.752,0.004,False,False,2531.84,,11644.2,,0,0,1,15,10,2067.0,3317.19,,Idle,0,30,False,10,True,,Go Home,39.96121734,-106.21639878,1.5,8051.8,1640.4,True,1,1,False,False,False,False,0,False,False,False,Course Lock,98.4,307.8,16.4,Calm,5,Android, 4.1.5,DF021,08RDD9T00101D2,08TUDBT00151CD,,093AE5F032041Z,309.458,2416.9,357.9,23.6,6.9,1,12,DF021,08RDD9T00101D2,08TUDBT00151CD,,093AE5F032041Z,,Android, 4.1.5,,,,,,
8/29/2017,6:59:29.69 PM,13m 22.4s,802.4,39.96121554,-106.21639402,7.2,7.2,7.2,8136,0,2.1,0,0.2,0,0.7,-0.9,0,2.5,-3.7,55.3,55.3,Auto Takeoff,Other (34),Takeoff (App Auto),16,5,True,,Mavic Pro,True,False,,Smart,RC,False,True,False,,,True,,False,False,False,False,False,False,False,False,False,False,0,Follow Yaw,-0.1,0,55.8,55.8,False,False,False,False,False,False,,True,Normal,,,1024,1024,1024,1024,0,False,False,False,False,False,0,False,False,False,False,3,2890.752,23552,11007,11.384,False,3.754,3.756,3.752,0.004,False,False,2531.84,,11644.2,,0,0,1,15,10,2067.0,3317.19,,Idle,0,30,False,10,True,,Go Home,39.96121734,-106.21639878,1.5,8051.8,1640.4,True,1,1,False,False,False,False,0,False,False,False,Course Lock,98.4,307.8,16.4,Calm,5,Android, 4.1.5,DF021,08RDD9T00101D2,08TUDBT00151CD,,093AE5F032041Z,309.458,2416.9,357.9,23.6,6.9,1,12,DF021,08RDD9T00101D2,08TUDBT00151CD,,093AE5F032041Z,,Android, 4.1.5,,,,,,
8/29/2017,6:59:29.90 PM,13m 22.6s,802.6,39.96121548,-106.21639408,7.5,7.5,7.5,8136,0,2.1,0,0.2,0,0.7,-0.9,0,2.8,-3.4,55.4,55.4,Auto Takeoff,Other (34),Takeoff (App Auto),16,5,True,,Mavic Pro,True,False,,Smart,RC,False,True,False,,,True,,False,False,False,False,False,False,False,False,False,False,0,Follow Yaw,-0.1,0,55.8,55.8,False,False,False,False,False,False,,True,Normal,,,1024,1024,1024,1024,0,False,False,False,False,False,0,False,False,False,False,3,2890.752,23552,11007,11.384,False,3.754,3.756,3.752,0.004,False,False,2531.84,,11644.2,,0,0,1,15,10,2067.0,3317.19,,Idle,0,30,False,10,True,,Go Home,39.96121734,-106.21639878,1.5,8051.8,1640.4,True,1,1,False,False,False,False,0,False,False,False,Course Lock,98.4,307.8,16.4,Calm,5,Android, 4.1.5,DF021,08RDD9T00101D2,08TUDBT00151CD,,093AE5F032041Z,309.458,2416.9,357.9,23.6,6.9,1,12,DF021,08RDD9T00101D2,08TUDBT00151CD,,093AE5F032041Z,,Android, 4.1.5,,,,,,
8/29/2017,6:59:30.01 PM,13m 22.7s,802.7,39.96121546,-106.21639405,7.5,7.5,7.9,8136,0,2.1,0,0.2,0,0.7,-0.9,0,3,-3.3,55.4,55.4,Auto Takeoff,Other (34),Takeoff (App Auto),16,5,True,,Mavic Pro,True,False,,Smart,RC,False,True,False,,,True,,False,False,False,False,False,False,False,False,False,False,0,Follow Yaw,-0.1,0,55.8,55.8,False,False,False,False,False,False,,True,Normal,,,1024,1024,1024,1024,0,False,False,False,False,False,0,False,False,False,False,3,2890.752,23552,11007,11.384,False,3.754,3.756,3.752,0.004,False,False,2531.84,,11644.2,,0,0,1,15,10,2067.0,3317.19,,Idle,0,30,False,10,True,,Go Home,39.96121734,-106.21639878,1.5,8051.8,1640.4,True,1,1,False,False,False,False,0,False,False,False,Course Lock,98.4,307.8,16.4,Calm,5,Android, 4.1.5,DF021,08RDD9T00101D2,08TUDBT00151CD,,093AE5F032041Z,309.458,2416.9,357.9,23.6,6.9,1,12,DF021,08RDD9T00101D2,08TUDBT00151CD,,093AE5F032041Z,,Android, 4.1.5,,,,,,
8/29/2017,6:59:30.22 PM,13m 22.8s,802.8,39.96121547,-106.21639401,7.5,7.5,7.9,8136,0,2.1,0,0.2,0,0.7,-0.9,0,2.5,-3.6,55.3,55.3,Auto Takeoff,Other (34),Takeoff (App Auto),16,5,True,,Mavic Pro,True,False,,Smart,RC,False,True,False,,,True,,False,False,False,False,False,False,False,False,False,False,0,Follow Yaw,-0.1,0,55.8,55.8,False,False,False,False,False,False,,True,Normal,,,1024,1024,1024,1024,0,False,False,False,False,False,0,False,False,False,False,38,2890.752,23552,11007,11.389,False,3.754,3.756,3.752,0.004,False,False,2531.84,,11644.2,,0,0,1,15,10,2067.0,4482.86,,Idle,0,30,False,10,True,,Go Home,39.96121734,-106.21639878,1.5,8051.8,1640.4,True,1,1,False,False,False,False,0,False,False,False,Course Lock,98.4,307.8,16.4,Calm,5,Android, 4.1.5,DF021,08RDD9T00101D2,08TUDBT00151CD,,093AE5F032041Z,309.458,2416.9,357.9,23.6,6.9,1,12,DF021,08RDD9T00101D2,08TUDBT00151CD,,093AE5F032041Z,,Android, 4.1.5,,,,,,
8/29/2017,6:59:30.33 PM,13m 22.9s,802.9,39.9612155,-106.21639396,7.9,7.9,8.2,8136,0,2.1,0,0.2,0,0.7,-1.1,0,2.8,-3.9,55.3,55.3,Auto Takeoff,Other (34),Takeoff (App Auto),16,5,True,,Mavic Pro,True,False,,Smart,RC,False,True,False,,,True,,False,False,False,False,False,False,False,False,False,False,0,Follow Yaw,-0.1,0,55.8,55.8,False,False,False,False,False,False,,True,Normal,,,1024,1024,1024,1024,0,False,False,False,False,False,0,False,False,False,False,3,2857.728,22528,11007,11.389,False,3.754,3.756,3.752,0.004,False,False,2536.448,,11644.2,,0,0,1,15,10,2067.0,4482.86,,Idle,0,30,False,10,True,,Go Home,39.96121734,-106.21639878,1.5,8051.8,1640.4,True,1,1,False,False,False,False,0,False,False,False,Course Lock,98.4,307.8,16.4,Calm,5,Android, 4.1.5,DF021,08RDD9T00101D2,08TUDBT00151CD,,093AE5F032041Z,309.458,2416.9,357.9,23.6,6.9,1,12,DF021,08RDD9T00101D2,08TUDBT00151CD,,093AE5F032041Z,,Android, 4.1.5,,,,,,
8/29/2017,6:59:30.43 PM,13m 23.0s,803.0,39.96121552,-106.2163939,7.9,7.9,8.2,8136,0,2.1,0,0.2,0,0.7,-1.1,0,3.4,-3.3,55.3,55.3,Auto Takeoff,Other (34),Takeoff (App Auto),16,5,True,,Mavic Pro,True,False,,Smart,RC,False,True,False,,,True,,False,False,False,False,False,False,False,False,False,False,0,Follow Yaw,-0.1,0,55.8,55.8,False,False,False,False,False,False,,True,Normal,,,1024,1024,1024,1024,0,False,False,False,False,False,0,False,False,False,False,3,2852.096,22528,11007,11.389,False,3.754,3.756,3.752,0.004,False,False,2536.448,,11644.2,,0,0,1,15,10,2067.0,4482.86,,Idle,0,30,False,10,True,,Go Home,39.96121734,-106.21639878,1.5,8051.8,1640.4,True,1,1,False,False,False,False,0,False,False,False,Course Lock,98.4,307.8,16.4,Calm,5,Android, 4.1.5,DF021,08RDD9T00101D2,08TUDBT00151CD,,093AE5F032041Z,309.458,2416.9,357.9,23.6,6.9,1,12,DF021,08RDD9T00101D2,08TUDBT00151CD,,093AE5F032041Z,,Android, 4.1.5,,,,,,
8/29/2017,6:59:30.53 PM,13m 23.1s,803.1,39.96121555,-106.21639385,8.2,8.2,8.5,8137,0,2.1,0,0.2,0,0.7,-1.1,0,3.7,-3.4,55.3,55.3,Auto Takeoff,Other (34),Takeoff (App Auto),16,5,True,,Mavic Pro,True,False,,Smart,RC,False,True,False,,,True,,False,False,False,False,False,False,False,False,False,False,0,Follow Yaw,-0.1,0,55.8,55.8,False,False,False,False,False,False,,True,Normal,,,1024,1024,1024,1024,0,False,False,False,False,False,0,False,False,False,False,3,2852.096,22528,11007,11.389,False,3.754,3.756,3.752,0.004,False,False,2536.448,,11644.2,,0,0,1,15,10,2067.0,4482.86,,Idle,0,30,False,10,True,,Go Home,39.96121734,-106.21639878,1.5,8051.8,1640.4,True,1,1,False,False,False,False,0,False,False,False,Course Lock,98.4,307.8,16.4,Calm,5,Android, 4.1.5,DF021,08RDD9T00101D2,08TUDBT00151CD,,093AE5F032041Z,309.458,2416.9,357.9,23.6,6.9,1,12,DF021,08RDD9T00101D2,08TUDBT00151CD,,093AE5F032041Z,,Android, 4.1.5,,,,,,
8/29/2017,6:59:30.64 PM,13m 23.2s,803.2,39.96121558,-106.2163938,8.2,8.2,8.5,8137,1.1,2.1,0,0.2,0,0.7,-1.1,0,3.7,-3.3,55.3,55.3,Auto Takeoff,Other (34),Takeoff (App Auto),16,5,True,,Mavic Pro,True,False,,Smart,RC,False,True,False,,,True,,False,False,False,False,False,False,False,False,False,False,0,Follow Yaw,-0.1,0,55.8,55.8,False,False,False,False,False,False,,True,Normal,,,1024,1024,1024,1024,0,False,False,False,False,False,0,False,False,False,False,3,2852.096,22528,11007,11.389,False,3.751,3.753,3.75,0.004,False,False,2536.448,,11644.2,,0,0,1,15,10,2067.0,4482.86,,Idle,0,30,False,10,True,,Go Home,39.96121734,-106.21639878,1.6,8051.8,1640.4,True,1,1,False,False,False,False,0,False,False,False,Course Lock,98.4,307.8,16.4,Calm,5,Android, 4.1.5,DF021,08RDD9T00101D2,08TUDBT00151CD,,093AE5F032041Z,309.458,2416.9,357.9,23.6,6.9,1,12,DF021,08RDD9T00101D2,08TUDBT00151CD,,093AE5F032041Z,,Android, 4.1.5,,,,,,
8/29/2017,6:59:30.74 PM,13m 23.3s,803.3,39.96121563,-106.21639376,8.5,8.5,8.5,8137,0,2.1,0,0.2,0,0.7,-0.9,0,3.4,-3,55.3,55.3,Auto Takeoff,Other (34),Takeoff (App Auto),16,5,True,,Mavic Pro,True,False,,Smart,RC,False,True,False,,,True,,False,False,False,False,False,False,False,False,False,False,0,Follow Yaw,-0.1,0,55.8,55.8,False,False,False,False,False,False,,True,Normal,,,1024,1024,1024,1024,0,False,False,False,False,False,0,False,False,False,False,3,2852.096,22528,11007,11.389,False,3.751,3.753,3.75,0.004,False,False,2536.448,,11644.2,,0,0,1,15,10,2067.0,4482.86,,Idle,0,30,False,10,True,,Go Home,39.96121734,-106.21639878,1.6,8051.8,1640.4,True,1,1,False,False,False,False,0,False,False,False,Course Lock,98.4,307.8,16.4,Calm,5,Android, 4.1.5,DF021,08RDD9T00101D2,08TUDBT00151CD,,093AE5F032041Z,309.458,2416.9,357.9,23.6,6.9,1,12,DF021,08RDD9T00101D2,08TUDBT00151CD,,093AE5F032041Z,,Android, 4.1.5,,,,,,
8/29/2017,6:59:30.84 PM,13m 23.4s,803.4,39.96121569,-106.21639372,8.5,8.5,8.9,8137,0,2.1,0,0.2,0,0.7,-1.1,0,3.5,-3.1,55.3,55.3,Auto Takeoff,Other (34),Takeoff (App Auto),16,5,True,,Mavic Pro,True,False,,Smart,RC,False,True,False,,,True,,False,False,False,False,False,False,False,False,False,False,0,Follow Yaw,-0.1,0,55.8,55.8,False,False,False,False,False,False,,True,Normal,,,1024,1024,1024,1024,0,False,False,False,False,False,0,False,False,False,False,3,2852.096,22528,11007,11.389,False,3.751,3.753,3.75,0.004,False,False,2536.448,,11644.2,,0,0,1,15,10,2067.0,4482.86,,Idle,0,30,False,10,True,,Go Home,39.96121734,-106.21639878,1.6,8051.8,1640.4,True,1,1,False,False,False,False,0,False,False,False,Course Lock,98.4,307.8,16.4,Calm,5,Android, 4.1.5,DF021,08RDD9T00101D2,08TUDBT00151CD,,093AE5F032041Z,309.458,2416.9,357.9,23.6,6.9,1,12,DF021,08RDD9T00101D2,08TUDBT00151CD,,093AE5F032041Z,,Android, 4.1.5,,,,,,
8/29/2017,6:59:31.04 PM,13m 23.5s,803.5,39.96121574,-106.21639369,8.9,8.9,8.9,8137,0,2.1,0,0.2,0,0.7,-1.1,0,3.4,-3.1,55.2,55.2,Auto Takeoff,Other (34),Takeoff (App Auto),16,5,True,,Mavic Pro,True,False,,Smart,RC,False,True,False,,,True,,False,False,False,False,False,False,False,False,False,False,0,Follow Yaw,-0.1,0,55.8,55.8,False,False,False,False,False,False,,True,Normal,,,1024,1024,1024,1024,0,False,False,False,False,False,0,False,False,False,False,3,2852.096,22528,11007,11.389,False,3.751,3.753,3.75,0.004,False,False,2536.448,,11644.2,,0,0,1,15,10,2067.0,4482.86,,Idle,0,30,False,10,True,,Go Home,39.96121734,-106.21639878,1.6,8051.8,1640.4,True,1,1,False,False,False,False,0,False,False,False,Course Lock,98.4,307.8,16.4,Calm,5,Android, 4.1.5,DF021,08RDD9T00101D2,08TUDBT00151CD,,093AE5F032041Z,309.458,2416.9,357.9,23.6,6.9,1,12,DF021,08RDD9T00101D2,08TUDBT00151CD,,093AE5F032041Z,,Android, 4.1.5,,,,,,
8/29/2017,6:59:31.15 PM,13m 23.6s,803.6,39.96121578,-106.21639369,9.2,9.2,9.2,8138,0,2.1,0,0.2,0,0.7,-1.1,0,3.4,-3.2,55.2,55.2,Auto Takeoff,Other (34),Takeoff (App Auto),16,5,True,,Mavic Pro,True,False,,Smart,RC,False,True,False,,,True,,False,False,False,False,False,False,False,False,False,False,0,Follow Yaw,-0.1,0,55.8,55.8,False,False,False,False,False,False,,True,Normal,,,1024,1024,1024,1024,0,False,False,False,False,False,0,False,False,False,False,3,2852.096,22528,11007,11.389,False,3.751,3.753,3.75,0.004,False,False,2536.448,,11644.2,,0,0,1,15,10,2067.0,4482.86,,Idle,0,30,False,10,True,,Go Home,39.96121734,-106.21639878,1.5,8051.8,1640.4,True,1,1,False,False,False,False,0,False,False,False,Course Lock,98.4,307.8,16.4,Calm,5,Android, 4.1.5,DF021,08RDD9T00101D2,08TUDBT00151CD,,093AE5F032041Z,309.458,2416.9,357.9,23.6,6.9,1,12,DF021,08RDD9T00101D2,08TUDBT00151CD,,093AE5F032041Z,,Android, 4.1.5,,,,,,
8/29/2017,6:59:31.25 PM,13m 23.7s,803.7,39.96121581,-106.2163937,9.2,9.2,9.2,8138,0,2.1,0,0.2,0,0.7,-1.1,0,3.5,-3,55.2,55.2,Auto Takeoff,Other (34),Takeoff (App Auto),16,5,True,,Mavic Pro,True,False,,Smart,RC,False,True,False,,,True,,False,False,False,False,False,False,False,False,False,False,0,Follow Yaw,-0.1,0,55.8,55.8,False,False,False,False,False,False,,True,Normal,,,1024,1024,1024,1024,0,False,False,False,False,False,0,False,False,False,False,3,2852.096,22528,11007,11.389,False,3.751,3.753,3.75,0.004,False,False,2536.448,,11644.2,,0,0,1,15,10,2067.0,4482.86,,Idle,0,30,False,10,True,,Go Home,39.96121734,-106.21639878,1.5,8051.8,1640.4,True,1,1,False,False,False,False,0,False,False,False,Course Lock,98.4,307.8,16.4,Calm,5,Android, 4.1.5,DF021,08RDD9T00101D2,08TUDBT00151CD,,093AE5F032041Z,309.458,2416.9,357.9,23.6,6.9,1,12,DF021,08RDD9T00101D2,08TUDBT00151CD,,093AE5F032041Z,,Android, 4.1.5,,,,,,
8/29/2017,6:59:31.36 PM,13m 23.8s,803.8,39.96121582,-106.21639372,9.5,9.5,9.2,8138,0,2.1,0,0.2,0,0.7,-1.1,0,3.2,-3.1,55.3,55.3,Auto Takeoff,Other (34),Takeoff (App Auto),16,5,True,,Mavic Pro,True,False,,Smart,RC,False,True,False,,,True,,False,False,False,False,False,False,False,False,False,False,0,Follow Yaw,-0.1,0,55.8,55.8,False,False,False,False,False,False,,True,Normal,,,1024,1024,1024,1024,0,False,False,False,False,False,0,False,False,False,False,38,2852.096,22528,11007,11.341,False,3.751,3.753,3.75,0.004,False,False,2536.448,,11644.2,,0,0,1,15,10,2067.0,5663.16,,Idle,0,30,False,10,True,,Go Home,39.96121734,-106.21639878,1.5,8051.8,1640.4,True,1,1,False,False,False,False,0,False,False,False,Course Lock,98.4,307.8,16.4,Calm,5,Android, 4.1.5,DF021,08RDD9T00101D2,08TUDBT00151CD,,093AE5F032041Z,309.458,2416.9,357.9,23.6,6.9,1,12,DF021,08RDD9T00101D2,08TUDBT00151CD,,093AE5F032041Z,,Android, 4.1.5,,,,,,
