sep=,
CUSTOM.date [local], CUSTOM.updateTime [local], OSD.flyTime, OSD.flyTime [s], OSD.latitude, OSD.longitude, OSD.height [ft], OSD.heightMax [ft], OSD.vpsHeight [ft], OSD.altitude [ft], OSD.hSpeed [MPH], OSD.hSpeedMax [MPH], OSD.xSpeed [MPH], OSD.xSpeedMax [MPH], OSD.ySpeed [MPH], OSD.ySpeedMax [MPH], OSD.zSpeed [MPH], OSD.zSpeedMax [MPH], OSD.pitch, OSD.roll, OSD.yaw, OSD.yaw [360], OSD.flycState, OSD.flycCommand, OSD.flightAction, OSD.gpsNum, OSD.gpsLevel, OSD.isGPSUsed, OSD.nonGPSCause, OSD.droneType, OSD.isSwaveWork, OSD.waveError, OSD.goHomeStatus, OSD.batteryType, OSD.ctrlDevice, OSD.isOnGround, OSD.isMotorOn, OSD.isMotorBlocked, OSD.motorStartFailedCause, OSD.motorFailReason, OSD.isImuPreheated, OSD.imuInitFailReason, OSD.isAcceletorOverRange, OSD.isBarometerDeadInAir, OSD.isCompassError, OSD.isGoHomeHeightModified, OSD.canIOCWork, OSD.isNotEnoughForce, OSD.isOutOfLimit, OSD.isPropellerCatapult, OSD.isVibrating, OSD.isVisionUsed, OSD.voltageWarning, GIMBAL.mode, GIMBAL.pitch, GIMBAL.roll, GIMBAL.yaw, GIMBAL.yaw [360], GIMBAL.isPitchAtLimit, GIMBAL.isRollAtLimit, GIMBAL.isYawAtLimit, GIMBAL.isStuck, CAMERA.isPhoto, CAMERA.isVideo, CAMERA.filename, CAMERA.sdCardIsInserted, CAMERA.sdCardState, RC.downlinkSignal, RC.uplinkSignal, RC.aileron, RC.elevator, RC.throttle, RC.rudder, RC.mode, RC.goHomeDepressed, RC.recordDepressed, RC.shutterDepressed, RC.playbackDepressed, RC.wheelDepressed, RC.wheelOffset, RC.custom1Depressed, RC.custom2Depressed, RC.custom3Depressed, RC.custom4Depressed, BATTERY.chargeLevel, BATTERY.currentPV [V], BATTERY.currentCapacity [mAh], BATTERY.fullCapacity [mAh], BATTERY.voltage [V], BATTERY.isCellVoltageEstimated, BATTERY.cellVoltage1 [V], BATTERY.cellVoltage2 [V], BATTERY.cellVoltage3 [V], BATTERY.cellVoltage4 [V], BATTERY.cellVoltage5 [V], BATTERY.cellVoltage6 [V], BATTERY.maxCellVoltageDeviation, BATTERY.isCellVoltageDeviationHigh, BATTERY.isVoltageLow, BATTERY.current [A], BATTERY.temperature [F], BATTERY.minTemperature [F], BATTERY.maxTemperature [F], BATTERY.usefulTime [s], BATTERY.goHomeTime [s], BATTERY.landTime [s], BATTERY.goHomeBattery, BATTERY.landBattery, BATTERY.safeFlyRadius, BATTERY.volumeConsume, BATTERY.status, BATTERY.goHomeStatus, BATTERY.goHomeCountdown, BATTERY.lowWarning, BATTERY.lowWarningGoHome, BATTERY.seriousLowWarning, BATTERY.seriousLowWarningLanding, BATTERY.timesCharged, MC.failSafeAction, HOME.latitude, HOME.longitude, HOME.distance [ft], HOME.height [ft], HOME.heightLimit [ft], HOME.isHomeRecord, HOME.goHomeMode, HOME.aircraftHeadDirection, HOME.isDynamicHomePointEnabled, HOME.isReachedLimitDistance, HOME.isReachedLimitHeight, HOME.isCompassCeleing, HOME.compassCeleStatus, HOME.isMultipleFlightModeEnabled, HOME.isBeginnerMode, HOME.isIOCEnabled, HOME.iocMode, HOME.goHomeHeight [ft], HOME.courseLockAngle, HOME.forceLandingHeight [ft], HOME.wind, HOME.dataRecorderFileIndex, RECOVER.appType, RECOVER.appVersion, RECOVER.aircraftName, RECOVER.aircraftSerial, RECOVER.cameraSerial, RECOVER.rcSerial, RECOVER.batterySerial, DETAILS.totalTime [s], DETAILS.totalDistance [ft], DETAILS.maxHeight [ft], DETAILS.maxHorizontalSpeed [MPH], DETAILS.maxVerticalSpeed [MPH], DETAILS.photoNum, DETAILS.videoTime [s], DETAILS.aircraftName, DETAILS.aircraftSerial, DETAILS.cameraSerial, DETAILS.rcSerial, DETAILS.batterySerial, DETAILS.appName, DETAILS.appType, DETAILS.appVersion, APPGPS.latitude, APPGPS.longitude, APPGPS.accuracy, APP.message, APP.tip, APP.warning
6/20/2018,4:11:45.34 PM,0m 0.9s,0.9,39.96120796,-106.21646259,0,0,,8128,0,0,0,0,0,0,0,0,2.5,-5.7,-121.6,238.4,Starting Motors,Auto Fly,Takeoff (App Auto),17,5,True,,M600,False,False,,Smart,RC,True,True,False,,,True,,False,False,False,False,True,False,False,False,False,False,0,Follow Yaw,0,0,-123.4,236.6,False,False,False,False,False,False,,True,Normal,,,1024,1024,1024,1024,1,False,False,False,False,False,0,False,False,False,False,96,,,,51.164,True,,,,,,,,False,False,,,,,0,0,0,0,0,0.0,859.26,,Idle,0,30,False,10,True,,Go Home,39.9612078,-106.21646547,0.8,8190.2,393.7,True,1,1,False,False,False,False,0,False,False,False,Course Lock,65.6,,9.8,Calm,65,Android, 3.1.38,,0670136230,,03LLCA0B4B,M61AE76011,316.436,8803.1,264.1,44.0,7.2,0,0,,0670136230,,03LLCA0B4B,M61AE7601101EB,,Android, 3.1.38,,,,Data Recorder File Index is 65.,,
6/20/2018,4:11:45.44 PM,0m 1.0s,1.0,39.96120799,-106.21646256,0,0,,8128,0,0,0,0,0,0,0,0,2.5,-5.7,-121.6,238.4,Starting Motors,Auto Fly,Takeoff (App Auto),17,5,True,,M600,False,False,,Smart,RC,True,True,False,,,True,,False,False,False,False,True,False,False,False,False,False,0,Follow Yaw,0,0,-123.4,236.6,False,False,False,False,False,False,,True,Normal,,,1024,1024,1024,1024,1,False,False,False,False,False,0,False,False,False,False,96,,,,51.164,True,,,,,,,,False,False,,,,,0,0,0,0,0,0.0,859.26,,Idle,0,30,False,10,True,,Go Home,39.9612078,-106.21646547,0.8,8190.2,393.7,True,1,1,False,False,False,False,0,False,False,False,Course Lock,65.6,,9.8,Calm,65,Android, 3.1.38,,0670136230,,03LLCA0B4B,M61AE76011,316.436,8803.1,264.1,44.0,7.2,0,0,,0670136230,,03LLCA0B4B,M61AE7601101EB,,Android, 3.1.38,,,,,,
6/20/2018,4:11:45.54 PM,0m 1.1s,1.1,39.961208,-106.21646254,0,0,,8128,0,0,0,0,0,0,0,0,2.5,-5.7,-121.5,238.5,Starting Motors,Auto Fly,Takeoff (App Auto),17,5,True,,M600,False,False,,Smart,RC,True,True,False,,,True,,False,False,False,False,True,False,False,False,False,False,0,Follow Yaw,0,0,-123.3,236.7,False,False,False,False,False,False,,True,Normal,,,1024,1024,1024,1024,1,False,False,False,False,False,0,False,False,False,False,96,,,,51.164,True,,,,,,,,False,False,,,,,0,0,0,0,0,0.0,859.26,,Idle,0,30,False,10,True,,Go Home,39.9612078,-106.21646547,0.8,8190.2,393.7,True,1,1,False,False,False,False,0,False,False,False,Course Lock,65.6,,9.8,Calm,65,Android, 3.1.38,,0670136230,,03LLCA0B4B,M61AE76011,316.436,8803.1,264.1,44.0,7.2,0,0,,0670136230,,03LLCA0B4B,M61AE7601101EB,,Android, 3.1.38,,,,,,
6/20/2018,4:11:45.65 PM,0m 1.2s,1.2,39.96120799,-106.21646252,0,0,,8128,0,0,0,0,0,0,0,0,2.5,-5.7,-121.5,238.5,Starting Motors,Auto Fly,Takeoff (App Auto),17,5,True,,M600,False,False,,Smart,RC,True,True,False,,,True,,False,False,False,False,True,False,False,False,False,False,0,Follow Yaw,0,0,-123.3,236.7,False,False,False,False,False,False,,True,Normal,,,1024,1024,1024,1024,1,False,False,False,False,False,0,False,False,False,False,96,,,,51.164,True,,,,,,,,False,False,,,,,0,0,0,0,0,0.0,859.26,,Idle,0,30,False,10,True,,Go Home,39.9612078,-106.21646547,0.8,8190.2,393.7,True,1,1,False,False,False,False,0,False,False,False,Course Lock,65.6,,9.8,Calm,65,Android, 3.1.38,,0670136230,,03LLCA0B4B,M61AE76011,316.436,8803.1,264.1,44.0,7.2,0,0,,0670136230,,03LLCA0B4B,M61AE7601101EB,,Android, 3.1.38,,,,,,
6/20/2018,4:11:45.75 PM,0m 1.3s,1.3,39.96120797,-106.21646251,0,0,,8128,0,0,0,0,0,0,0,0,2.5,-5.8,-121.4,238.6,Starting Motors,Auto Fly,Takeoff (App Auto),17,5,True,,M600,False,False,,Smart,RC,True,True,False,,,True,,False,False,False,False,True,False,False,False,False,False,0,Follow Yaw,0,0,-123.3,236.7,False,False,False,False,False,False,,True,Normal,,,1024,1024,1024,1024,1,False,False,False,False,False,0,False,False,False,False,96,,,,51.164,True,,,,,,,,False,False,,,,,0,0,0,0,0,0.0,859.26,,Idle,0,30,False,10,True,,Go Home,39.9612078,-106.21646547,0.9,8190.2,393.7,True,1,1,False,False,False,False,0,False,False,False,Course Lock,65.6,,9.8,Calm,65,Android, 3.1.38,,0670136230,,03LLCA0B4B,M61AE76011,316.436,8803.1,264.1,44.0,7.2,0,0,,0670136230,,03LLCA0B4B,M61AE7601101EB,,Android, 3.1.38,,,,,,
6/20/2018,4:11:45.85 PM,0m 1.4s,1.4,39.96120796,-106.21646249,0,0,,8128,0,0,0,0,0,0,0,0,2.5,-5.8,-121.5,238.5,Starting Motors,Auto Fly,Takeoff (App Auto),17,5,True,,M600,False,False,,Smart,RC,True,True,False,,,True,,False,False,False,False,True,False,False,False,False,False,0,Follow Yaw,0,0,-123.2,236.8,False,False,False,False,False,False,,True,Normal,,,1024,1024,1024,1024,1,False,False,False,False,False,0,False,False,False,False,96,,,,51.164,True,,,,,,,,False,False,,,,,0,0,0,0,0,0.0,859.26,,Idle,0,30,False,10,True,,Go Home,39.9612078,-106.21646547,0.9,8190.2,393.7,True,1,1,False,False,False,False,0,False,False,False,Course Lock,65.6,,9.8,Calm,65,Android, 3.1.38,,0670136230,,03LLCA0B4B,M61AE76011,316.436,8803.1,264.1,44.0,7.2,0,0,,0670136230,,03LLCA0B4B,M61AE7601101EB,,Android, 3.1.38,,,,,,
6/20/2018,4:11:45.95 PM,0m 1.5s,1.5,39.96120795,-106.21646247,0,0,,8128,0,0,0,0,0,0,0,0,2.5,-5.8,-121.4,238.6,Starting Motors,Auto Fly,Takeoff (App Auto),17,5,True,,M600,False,False,,Smart,RC,True,True,False,,,True,,False,False,False,False,True,False,False,False,False,False,0,Follow Yaw,0,0,-123.2,236.8,False,False,False,False,False,False,,True,Normal,,,1024,1024,1024,1024,1,False,False,False,False,False,0,False,False,False,False,96,,,,51.164,True,,,,,,,,False,False,,,,,0,0,0,0,0,0.0,859.26,,Idle,0,30,False,10,True,,Go Home,39.9612078,-106.21646547,0.9,8190.2,393.7,True,1,1,False,False,False,False,0,False,False,False,Course Lock,65.6,,9.8,Calm,65,Android, 3.1.38,,0670136230,,03LLCA0B4B,M61AE76011,316.436,8803.1,264.1,44.0,7.2,0,0,,0670136230,,03LLCA0B4B,M61AE7601101EB,,Android, 3.1.38,,,,,,
6/20/2018,4:11:46.05 PM,0m 1.6s,1.6,39.96120795,-106.21646246,0,0,,8128,0,0,0,0,0,0,0,0,2.5,-5.8,-121.4,238.6,Starting Motors,Auto Fly,Takeoff (App Auto),17,5,True,,M600,False,False,,Smart,RC,True,True,False,,,True,,False,False,False,False,True,False,False,False,False,False,0,Follow Yaw,0,0,-123.1,236.9,False,False,False,False,False,False,,True,Normal,,,1024,1024,1024,1024,1,False,False,False,False,False,0,False,False,False,False,96,,,,51.164,True,,,,,,,,False,False,,,,,0,0,0,0,0,0.0,859.26,,Idle,0,30,False,10,True,,Go Home,39.9612078,-106.21646547,0.9,8190.2,393.7,True,1,1,False,False,False,False,0,False,False,False,Course Lock,65.6,,9.8,Calm,65,Android, 3.1.38,,0670136230,,03LLCA0B4B,M61AE76011,316.436,8803.1,264.1,44.0,7.2,0,0,,0670136230,,03LLCA0B4B,M61AE7601101EB,,Android, 3.1.38,,,,,,
6/20/2018,4:11:46.16 PM,0m 1.7s,1.7,39.96120794,-106.21646245,0,0,,8128,1.1,1.1,0,0,0,0,0,0,2.5,-5.7,-121.4,238.6,Starting Motors,Auto Fly,Takeoff (App Auto),17,5,True,,M600,False,False,,Smart,RC,True,True,False,,,True,,False,False,False,False,True,False,False,False,False,False,0,Follow Yaw,0,0,-123.1,236.9,False,False,False,False,False,False,,True,Normal,,,1024,1024,1024,1024,1,False,False,False,False,False,0,False,False,False,False,96,,,,51.164,True,,,,,,,,False,False,,,,,0,0,0,0,0,0.0,859.26,,Idle,0,30,False,10,True,,Go Home,39.9612078,-106.21646547,0.9,8190.2,393.7,True,1,1,False,False,False,False,0,False,False,False,Course Lock,65.6,,9.8,Calm,65,Android, 3.1.38,,0670136230,,03LLCA0B4B,M61AE76011,316.436,8803.1,264.1,44.0,7.2,0,0,,0670136230,,03LLCA0B4B,M61AE7601101EB,,Android, 3.1.38,,,,,,
6/20/2018,4:11:46.26 PM,0m 1.8s,1.8,39.96120794,-106.21646241,0,0,,8128,1.1,1.1,0,0,0,0,0,0,2.5,-5.7,-121.4,238.6,Starting Motors,Auto Fly,Takeoff (App Auto),17,5,True,,M600,False,False,,Smart,RC,True,True,False,,,True,,False,False,False,False,True,False,False,False,False,False,0,Follow Yaw,0,0,-123,237,False,False,False,False,False,False,,True,Normal,,,1024,1024,1024,1024,1,False,False,False,False,False,0,False,False,False,False,96,,,,51.164,True,,,,,,,,False,False,,,,,0,0,0,0,0,0.0,859.26,,Idle,0,30,False,10,True,,Go Home,39.9612078,-106.21646547,0.9,8190.2,393.7,True,1,1,False,False,False,False,0,False,False,False,Course Lock,65.6,,9.8,Calm,65,Android, 3.1.38,,0670136230,,03LLCA0B4B,M61AE76011,316.436,8803.1,264.1,44.0,7.2,0,0,,0670136230,,03LLCA0B4B,M61AE7601101EB,,Android, 3.1.38,,,,,,
6/20/2018,4:11:46.36 PM,0m 1.9s,1.9,39.96120793,-106.21646238,0,0,,8128,0,1.1,0,0,0,0,0,0,2.5,-5.7,-121.4,238.6,Starting Motors,Auto Fly,Takeoff (App Auto),17,5,True,,M600,False,False,,Smart,RC,True,True,False,,,True,,False,False,False,False,True,False,False,False,False,False,0,Follow Yaw,0,0,-123,237,False,False,False,False,False,False,,True,Normal,,,1024,1024,1024,1024,1,False,False,False,False,False,0,False,False,False,False,96,,,,51.157,True,,,,,,,,False,False,,,,,0,0,0,0,0,0.0,858.02,,Idle,0,30,False,10,True,,Go Home,39.9612078,-106.21646547,0.9,8190.2,393.7,True,1,1,False,False,False,False,0,False,False,False,Course Lock,65.6,,9.8,Calm,65,Android, 3.1.38,,0670136230,,03LLCA0B4B,M61AE76011,316.436,8803.1,264.1,44.0,7.2,0,0,,0670136230,,03LLCA0B4B,M61AE7601101EB,,Android, 3.1.38,,,,,Taking off.,
6/20/2018,4:11:46.47 PM,0m 2.0s,2.0,39.96120789,-106.21646235,0,0,,8128,0,1.1,0,0,0,0,0,0,2.4,-5.7,-121.4,238.6,Auto Takeoff,Auto Fly,Takeoff (App Auto),17,5,True,,M600,False,False,,Smart,RC,True,True,False,,,True,,False,False,False,False,True,False,False,False,False,False,0,Follow Yaw,0,0,-123,237,False,False,False,False,False,False,,True,Normal,,,1024,1024,1024,1024,1,False,False,False,False,False,0,False,False,False,False,96,,,,51.157,True,,,,,,,,False,False,,,,,0,0,0,0,0,0.0,858.02,,Idle,0,30,False,10,True,,Go Home,39.9612078,-106.21646547,0.9,8190.2,393.7,True,1,1,False,False,False,False,0,False,False,False,Course Lock,65.6,,9.8,Calm,65,Android, 3.1.38,,0670136230,,03LLCA0B4B,M61AE76011,316.436,8803.1,264.1,44.0,7.2,0,0,,0670136230,,03LLCA0B4B,M61AE7601101EB,,Android, 3.1.38,,,,,,
6/20/2018,4:11:46.57 PM,0m 2.1s,2.1,39.96120785,-106.21646233,0,0,,8128,0,1.1,0,0,0,0,0,0,2.5,-5.7,-121.4,238.6,Auto Takeoff,Auto Fly,Takeoff (App Auto),17,5,True,,M600,False,False,,Smart,RC,True,True,False,,,True,,False,False,False,False,True,False,False,False,False,False,0,Follow Yaw,0,0,-122.9,237.1,False,False,False,False,False,False,,True,Normal,,,1024,1024,1024,1024,1,False,False,False,False,False,0,False,False,False,False,96,,,,51.157,True,,,,,,,,False,False,,,,,0,0,0,0,0,0.0,858.02,,Idle,0,30,False,10,True,,Go Home,39.9612078,-106.21646547,0.9,8190.2,393.7,True,1,1,False,False,False,False,0,False,False,False,Course Lock,65.6,,9.8,Calm,65,Android, 3.1.38,,0670136230,,03LLCA0B4B,M61AE76011,316.436,8803.1,264.1,44.0,7.2,0,0,,0670136230,,03LLCA0B4B,M61AE7601101EB,,Android, 3.1.38,,,,RTH Altitude: 65FT.,,
6/20/2018,4:11:46.67 PM,0m 2.2s,2.2,39.96120782,-106.21646233,0,0,,8128,0,1.1,0,0,0,0,0,0,2.5,-5.7,-121.4,238.6,Auto Takeoff,Auto Fly,Takeoff (App Auto),17,5,True,,M600,False,False,,Smart,RC,True,True,False,,,True,,False,False,False,False,True,False,False,False,False,False,0,Follow Yaw,0,0,-122.9,237.1,False,False,False,False,False,False,,True,Normal,,,1024,1024,1024,1024,1,False,False,False,False,False,0,False,False,False,False,96,,,,51.157,True,,,,,,,,False,False,,,,,0,0,0,0,0,0.0,858.02,,Idle,0,30,False,10,True,,Go Home,39.9612078,-106.21646547,0.9,8190.2,393.7,True,1,1,False,False,False,False,0,False,False,False,Course Lock,65.6,,9.8,Calm,65,Android, 3.1.38,,0670136230,,03LLCA0B4B,M61AE76011,316.436,8803.1,264.1,44.0,7.2,0,0,,0670136230,,03LLCA0B4B,M61AE7601101EB,,Android, 3.1.38,,,,,,
6/20/2018,4:11:46.77 PM,0m 2.3s,2.3,39.9612078,-106.21646232,0,0,,8128,0,1.1,0,0,0,0,0,0,2.5,-5.7,-121.5,238.5,Auto Takeoff,Auto Fly,Takeoff (App Auto),17,5,True,,M600,False,False,,Smart,RC,True,True,False,,,True,,False,False,False,False,True,False,False,False,False,False,0,Follow Yaw,0,0,-122.9,237.1,False,False,False,False,False,False,,True,Normal,,,1024,1024,1024,1024,1,False,False,False,False,False,0,False,False,False,False,96,,,,51.157,True,,,,,,,,False,False,,,,,0,0,0,0,0,0.0,858.02,,Idle,0,30,False,10,True,,Go Home,39.9612078,-106.21646547,0.9,8190.2,393.7,True,1,1,False,False,False,False,0,False,False,False,Course Lock,65.6,,9.8,Calm,65,Android, 3.1.38,,0670136230,,03LLCA0B4B,M61AE76011,316.436,8803.1,264.1,44.0,7.2,0,0,,0670136230,,03LLCA0B4B,M61AE7601101EB,,Android, 3.1.38,,,,,,
6/20/2018,4:11:46.87 PM,0m 2.4s,2.4,39.96120781,-106.21646228,0,0,,8128,0,1.1,0,0,0,0,0,0,2.3,-5.6,-121.2,238.8,Auto Takeoff,Auto Fly,Takeoff (App Auto),17,5,True,,M600,False,False,,Smart,RC,True,True,False,,,True,,False,False,False,False,True,False,False,False,False,False,0,Follow Yaw,0,0,-122.8,237.2,False,False,False,False,False,False,,True,Normal,,,1024,1024,1024,1024,1,False,False,False,False,False,0,False,False,False,False,96,,,,51.157,True,,,,,,,,False,False,,,,,0,0,0,0,0,0.0,858.02,,Idle,0,30,False,10,True,,Go Home,39.9612078,-106.21646547,0.9,8190.2,393.7,True,1,1,False,False,False,False,0,False,False,False,Course Lock,65.6,,9.8,Calm,65,Android, 3.1.38,,0670136230,,03LLCA0B4B,M61AE76011,316.436,8803.1,264.1,44.0,7.2,0,0,,0670136230,,03LLCA0B4B,M61AE7601101EB,,Android, 3.1.38,,,,,,
6/20/2018,4:11:46.97 PM,0m 2.5s,2.5,39.96120781,-106.21646226,0,0,,8128,1.1,1.1,0,0,0,0,0,0,2,-5.5,-121.2,238.8,Auto Takeoff,Auto Fly,Takeoff (App Auto),17,5,True,,M600,False,False,,Smart,RC,True,True,False,,,True,,False,False,False,False,True,False,False,False,False,False,0,Follow Yaw,0,0,-122.8,237.2,False,False,False,False,False,False,,True,Normal,,,1024,1024,1024,1024,1,False,False,False,False,False,0,False,False,False,False,96,,,,51.157,True,,,,,,,,False,False,,,,,0,0,0,0,0,0.0,858.02,,Idle,0,30,False,10,True,,Go Home,39.9612078,-106.21646547,0.9,8190.2,393.7,True,1,1,False,False,False,False,0,False,False,False,Course Lock,65.6,,9.8,Calm,65,Android, 3.1.38,,0670136230,,03LLCA0B4B,M61AE76011,316.436,8803.1,264.1,44.0,7.2,0,0,,0670136230,,03LLCA0B4B,M61AE7601101EB,,Android, 3.1.38,,,,,,
6/20/2018,4:11:47.07 PM,0m 2.6s,2.6,39.96120783,-106.21646226,0,0,,8128,0,1.1,0,0,0,0,0,0,1.6,-5.4,-121.1,238.9,Auto Takeoff,Auto Fly,Takeoff (App Auto),17,5,True,,M600,False,False,,Smart,RC,True,True,False,,,True,,False,False,False,False,True,False,False,False,False,False,0,Follow Yaw,0,0,-122.8,237.2,False,False,False,False,False,False,,True,Normal,,,1024,1024,1024,1024,1,False,False,False,False,False,0,False,False,False,False,96,,,,51.157,True,,,,,,,,False,False,,,,,0,0,0,0,0,0.0,858.02,,Idle,0,30,False,10,True,,Go Home,39.9612078,-106.21646547,0.9,8190.2,393.7,True,1,1,False,False,False,False,0,False,False,False,Course Lock,65.6,,9.8,Calm,65,Android, 3.1.38,,0670136230,,03LLCA0B4B,M61AE76011,316.436,8803.1,264.1,44.0,7.2,0,0,,0670136230,,03LLCA0B4B,M61AE7601101EB,,Android, 3.1.38,,,,,,
6/20/2018,4:11:47.18 PM,0m 2.7s,2.7,39.96120784,-106.21646226,0,0,,8128,0,1.1,0,0,0,0,0,0,1.2,-5.1,-120.8,239.2,Auto Takeoff,Auto Fly,Takeoff (App Auto),17,5,True,,M600,False,False,,Smart,RC,True,True,False,,,True,,False,False,False,False,True,False,False,False,False,False,0,Follow Yaw,0,0,-122.7,237.3,False,False,False,False,False,False,,True,Normal,,,1024,1024,1024,1024,1,False,False,False,False,False,0,False,False,False,False,96,,,,51.157,True,,,,,,,,False,False,,,,,0,0,0,0,0,0.0,858.02,,Idle,0,30,False,10,True,,Go Home,39.9612078,-106.21646547,0.9,8190.2,393.7,True,1,1,False,False,False,False,0,False,False,False,Course Lock,65.6,,9.8,Calm,65,Android, 3.1.38,,0670136230,,03LLCA0B4B,M61AE76011,316.436,8803.1,264.1,44.0,7.2,0,0,,0670136230,,03LLCA0B4B,M61AE7601101EB,,Android, 3.1.38,,,,,,
6/20/2018,4:11:47.28 PM,0m 2.8s,2.8,39.9612078,-106.21646231,0,0,,8128,0,1.1,0,0,0,0,0,0,0.6,-4.7,-120.5,239.5,Auto Takeoff,Auto Fly,Takeoff (App Auto),17,5,True,,M600,False,False,,Smart,RC,True,True,False,,,True,,False,False,False,False,True,False,False,False,False,False,0,Follow Yaw,0,0,-122.6,237.4,False,False,False,False,False,False,,True,Normal,,,1024,1024,1024,1024,1,False,False,False,False,False,0,False,False,False,False,96,,,,51.157,True,,,,,,,,False,False,,,,,0,0,0,0,0,0.0,858.02,,Idle,0,30,False,10,True,,Go Home,39.9612078,-106.21646547,0.9,8190.2,393.7,True,1,1,False,False,False,False,0,False,False,False,Course Lock,65.6,,9.8,Calm,65,Android, 3.1.38,,0670136230,,03LLCA0B4B,M61AE76011,316.436,8803.1,264.1,44.0,7.2,0,0,,0670136230,,03LLCA0B4B,M61AE7601101EB,,Android, 3.1.38,,,,,,
6/20/2018,4:11:47.38 PM,0m 2.9s,2.9,39.96120771,-106.21646234,0,0,,8128,0,1.1,-0.2,0,0,0,-0.2,0,-0.5,-3.8,-120.4,239.6,Auto Takeoff,Auto Fly,Takeoff (App Auto),17,5,True,,M600,False,False,,Smart,RC,False,True,False,,,True,,False,False,False,False,True,False,False,False,False,False,0,Follow Yaw,0,0,-122.6,237.4,False,False,False,False,False,False,,True,Normal,,,1024,1024,1024,1024,1,False,False,False,False,False,0,False,False,False,False,96,,,,50.297,True,,,,,,,,False,False,,,,,0,0,0,0,0,0.0,857.71,,Idle,0,30,False,10,True,,Go Home,39.9612078,-106.21646547,0.9,8190.2,393.7,True,1,1,False,False,False,False,0,False,False,False,Course Lock,65.6,,9.8,Calm,65,Android, 3.1.38,,0670136230,,03LLCA0B4B,M61AE76011,316.436,8803.1,264.1,44.0,7.2,0,0,,0670136230,,03LLCA0B4B,M61AE7601101EB,,Android, 3.1.38,,,,,,
6/20/2018,4:11:47.49 PM,0m 3.0s,3.0,39.96120759,-106.21646237,0,0,,8128,0,1.1,-0.2,0,0,0,-0.5,0,-1.5,-2.3,-120.2,239.8,Auto Takeoff,Auto Fly,Takeoff (App Auto),17,5,True,,M600,False,False,,Smart,RC,False,True,False,,,True,,False,False,False,False,True,False,False,False,False,False,0,Follow Yaw,0,0,-122.5,237.5,False,False,False,False,False,False,,True,Normal,,,1024,1024,1024,1024,1,False,False,False,False,False,0,False,False,False,False,96,,,,50.297,True,,,,,,,,False,False,,,,,0,0,0,0,0,0.0,857.71,,Idle,0,30,False,10,True,,Go Home,39.9612078,-106.21646547,0.9,8190.2,393.7,True,1,1,False,False,False,False,0,False,False,False,Course Lock,65.6,,9.8,Calm,65,Android, 3.1.38,,0670136230,,03LLCA0B4B,M61AE76011,316.436,8803.1,264.1,44.0,7.2,0,0,,0670136230,,03LLCA0B4B,M61AE7601101EB,,Android, 3.1.38,,,,,,
6/20/2018,4:11:47.59 PM,0m 3.1s,3.1,39.96120743,-106.21646241,0,0,,8128,0,1.1,-0.5,0,0,0,-0.9,0,-1.7,-0.9,-120.1,239.9,Auto Takeoff,Auto Fly,Takeoff (App Auto),17,5,True,,M600,False,False,,Smart,RC,False,True,False,,,True,,False,False,False,False,True,False,False,False,False,False,0,Follow Yaw,0,0,-122.5,237.5,False,False,False,False,False,False,,True,Normal,,,1024,1024,1024,1024,1,False,False,False,False,False,0,False,False,False,False,96,,,,50.297,True,,,,,,,,False,False,,,,,0,0,0,0,0,0.0,857.71,,Idle,0,30,False,10,True,,Go Home,39.9612078,-106.21646547,0.9,8190.2,393.7,True,1,1,False,False,False,False,0,False,False,False,Course Lock,65.6,,9.8,Calm,65,Android, 3.1.38,,0670136230,,03LLCA0B4B,M61AE76011,316.436,8803.1,264.1,44.0,7.2,0,0,,0670136230,,03LLCA0B4B,M61AE7601101EB,,Android, 3.1.38,,,,,,
6/20/2018,4:11:47.69 PM,0m 3.2s,3.2,39.96120714,-106.21646256,0.3,0.3,,8128,1.1,1.1,-0.5,0,0,0,-1.1,0,-1.4,0,-120.1,239.9,Auto Takeoff,Auto Fly,Takeoff (App Auto),17,5,True,,M600,False,False,,Smart,RC,False,True,False,,,True,,False,False,False,False,True,False,False,False,False,False,0,Follow Yaw,0,0,-122.4,237.6,False,False,False,False,False,False,,True,Normal,,,1024,1024,1024,1024,1,False,False,False,False,False,0,False,False,False,False,96,,,,50.297,True,,,,,,,,False,False,,,,,0,0,0,0,0,0.0,857.71,,Idle,0,30,False,10,True,,Go Home,39.9612078,-106.21646547,0.9,8190.2,393.7,True,1,1,False,False,False,False,0,False,False,False,Course Lock,65.6,,9.8,Calm,65,Android, 3.1.38,,0670136230,,03LLCA0B4B,M61AE76011,316.436,8803.1,264.1,44.0,7.2,0,0,,0670136230,,03LLCA0B4B,M61AE7601101EB,,Android, 3.1.38,,,,,,
6/20/2018,4:11:47.79 PM,0m 3.3s,3.3,39.96120686,-106.21646273,0.7,0.7,,8129,1.1,1.1,-0.5,0,-0.2,0,-1.3,0,-1.1,0.6,-120.1,239.9,Auto Takeoff,Auto Fly,Takeoff (App Auto),17,5,True,,M600,False,False,,Smart,RC,False,True,False,,,True,,False,False,False,False,True,False,False,False,False,False,0,Follow Yaw,0,0,-122.4,237.6,False,False,False,False,False,False,,True,Normal,,,1024,1024,1024,1024,1,False,False,False,False,False,0,False,False,False,False,96,,,,50.297,True,,,,,,,,False,False,,,,,0,0,0,0,0,0.0,857.71,,Idle,0,30,False,10,True,,Go Home,39.9612078,-106.21646547,0.9,8190.2,393.7,True,1,1,False,False,False,False,0,False,False,False,Course Lock,65.6,,9.8,Calm,65,Android, 3.1.38,,0670136230,,03LLCA0B4B,M61AE76011,316.436,8803.1,264.1,44.0,7.2,0,0,,0670136230,,03LLCA0B4B,M61AE7601101EB,,Android, 3.1.38,,,,,,
6/20/2018,4:11:47.90 PM,0m 3.4s,3.4,39.96120653,-106.21646304,0.7,0.7,,8129,0,1.1,-0.5,0,-0.2,0,-1.3,0,-0.4,0.9,-120.2,239.8,Auto Takeoff,Auto Fly,Takeoff (App Auto),17,5,True,,M600,False,False,,Smart,RC,False,True,False,,,True,,False,False,False,False,True,False,False,False,False,False,0,Follow Yaw,0,0,-122.4,237.6,False,False,False,False,False,False,,True,Normal,,,1024,1024,1024,1024,1,False,False,False,False,False,0,False,False,False,False,96,,,,50.297,True,,,,,,,,False,False,,,,,0,0,0,0,0,0.0,857.71,,Idle,0,30,False,10,True,,Go Home,39.9612078,-106.21646547,0.9,8190.2,393.7,True,1,1,False,False,False,False,0,False,False,False,Course Lock,65.6,,9.8,Calm,65,Android, 3.1.38,,0670136230,,03LLCA0B4B,M61AE76011,316.436,8803.1,264.1,44.0,7.2,0,0,,0670136230,,03LLCA0B4B,M61AE7601101EB,,Android, 3.1.38,,,,,,
6/20/2018,4:11:48.00 PM,0m 3.6s,3.6,39.96120597,-106.2164638,1.3,1.3,,8129,1.0,1.1,-0.5,0,-0.5,0,-1.6,0,0.9,1.1,-120.2,239.8,Auto Takeoff,Auto Fly,Takeoff (App Auto),17,5,True,,M600,False,False,,Smart,RC,False,True,False,,,True,,False,False,False,False,True,False,False,False,False,False,0,Follow Yaw,0,0,-122.3,237.7,False,False,False,False,False,False,,True,Normal,,,1024,1024,1024,1024,1,False,False,False,False,False,0,False,False,False,False,96,,,,50.297,True,,,,,,,,False,False,,,,,0,0,0,0,0,0.0,857.71,,Idle,0,30,False,10,True,,Go Home,39.9612078,-106.21646547,0.8,8190.2,393.7,True,1,1,False,False,False,False,0,False,False,False,Course Lock,65.6,,9.8,Calm,65,Android, 3.1.38,,0670136230,,03LLCA0B4B,M61AE76011,316.436,8803.1,264.1,44.0,7.2,0,0,,0670136230,,03LLCA0B4B,M61AE7601101EB,,Android, 3.1.38,,,,,,
6/20/2018,4:11:48.10 PM,0m 3.7s,3.7,39.96120574,-106.21646423,1.6,1.6,,8130,0.7,1.1,-0.2,0,-0.5,0,-1.6,0,1.5,0.9,-120.2,239.8,Auto Takeoff,Auto Fly,Takeoff (App Auto),17,5,True,,M600,False,False,,Smart,RC,False,True,False,,,True,,False,False,False,False,True,False,False,False,False,False,0,Follow Yaw,0,0,-122.3,237.7,False,False,False,False,False,False,,True,Normal,,,1024,1024,1024,1024,1,False,False,False,False,False,0,False,False,False,False,96,,,,50.297,True,,,,,,,,False,False,,,,,0,0,0,0,0,0.0,857.71,,Idle,0,30,False,10,True,,Go Home,39.9612078,-106.21646547,0.8,8190.2,393.7,True,1,1,False,False,False,False,0,False,False,False,Course Lock,65.6,,9.8,Calm,65,Android, 3.1.38,,0670136230,,03LLCA0B4B,M61AE76011,316.436,8803.1,264.1,44.0,7.2,0,0,,0670136230,,03LLCA0B4B,M61AE7601101EB,,Android, 3.1.38,,,,,,
6/20/2018,4:11:48.20 PM,0m 3.8s,3.8,39.96120559,-106.21646472,1.6,1.6,,8130,1.5,1.5,-0.2,0,-0.5,0,-1.3,0,1.6,0.5,-120.2,239.8,Auto Takeoff,Auto Fly,Takeoff (App Auto),17,5,True,,M600,False,False,,Smart,RC,False,True,False,,,True,,False,False,False,False,True,False,False,False,False,False,0,Follow Yaw,0,0,-122.2,237.8,False,False,False,False,False,False,,True,Normal,,,1024,1024,1024,1024,1,False,False,False,False,False,0,False,False,False,False,96,,,,50.297,True,,,,,,,,False,False,,,,,0,0,0,0,0,0.0,857.71,,Idle,0,30,False,10,True,,Go Home,39.9612078,-106.21646547,0.9,8190.2,393.7,True,1,1,False,False,False,False,0,False,False,False,Course Lock,65.6,,9.8,Calm,65,Android, 3.1.38,,0670136230,,03LLCA0B4B,M61AE76011,316.436,8803.1,264.1,44.0,7.2,0,0,,0670136230,,03LLCA0B4B,M61AE7601101EB,,Android, 3.1.38,,,,,,
6/20/2018,4:11:48.30 PM,0m 3.9s,3.9,39.96120545,-106.21646515,2.0,2.0,,8130,1.1,1.5,-0.2,0,-0.5,0,-1.1,0,1.5,-0.1,-120.2,239.8,Auto Takeoff,Auto Fly,Takeoff (App Auto),17,5,True,,M600,False,False,,Smart,RC,False,True,False,,,True,,False,False,False,False,True,False,False,False,False,False,0,Follow Yaw,0,0,-122.2,237.8,False,False,False,False,False,False,,True,Normal,,,1024,1024,1024,1024,1,False,False,False,False,False,0,False,False,False,False,96,,,,50.297,True,,,,,,,,False,False,,,,,0,0,0,0,0,0.0,857.71,,Idle,0,30,False,10,True,,Go Home,39.9612078,-106.21646547,0.9,8190.2,393.7,True,1,1,False,False,False,False,0,False,False,False,Course Lock,65.6,,9.8,Calm,65,Android, 3.1.38,,0670136230,,03LLCA0B4B,M61AE76011,316.436,8803.1,264.1,44.0,7.2,0,0,,0670136230,,03LLCA0B4B,M61AE7601101EB,,Android, 3.1.38,,,,,,
6/20/2018,4:11:48.41 PM,0m 4.0s,4.0,39.96120537,-106.21646571,2.0,2.0,,8130,1.1,1.5,-0.2,0,-0.5,0,-1.1,0,1.5,-0.7,-120.1,239.9,Auto Takeoff,Auto Fly,Takeoff (App Auto),16,5,True,,M600,False,False,,Smart,RC,False,True,False,,,True,,False,False,False,False,True,False,False,False,False,False,0,Follow Yaw,0,0,-122.2,237.8,False,False,False,False,False,False,,True,Normal,,,1024,1024,1024,1024,1,False,False,False,False,False,0,False,False,False,False,96,,,,50.662,True,,,,,,,,False,False,,,,,0,0,0,0,0,0.0,861.20,,Idle,0,30,False,10,True,,Go Home,39.96120771,-106.21646234,1.2,8190.2,393.7,True,1,1,False,False,False,False,0,False,False,False,Course Lock,65.6,,9.8,Calm,65,Android, 3.1.38,,0670136230,,03LLCA0B4B,M61AE76011,316.436,8803.1,264.1,44.0,7.2,0,0,,0670136230,,03LLCA0B4B,M61AE7601101EB,,Android, 3.1.38,,,,Home Point Updated.,,
6/20/2018,4:11:48.51 PM,0m 4.1s,4.1,39.96120526,-106.21646615,2.3,2.3,,8130,0,1.5,-0.2,0,-0.7,0,-0.9,0,1.8,-0.9,-120.1,239.9,Auto Takeoff,Auto Fly,Takeoff (App Auto),16,5,True,,M600,False,False,,Smart,RC,False,True,False,,,True,,False,False,False,False,True,False,False,False,False,False,0,Follow Yaw,0,0,-122.1,237.9,False,False,False,False,False,False,,True,Normal,,,1024,1024,1024,1024,1,False,False,False,False,False,0,False,False,False,False,96,,,,50.662,True,,,,,,,,False,False,,,,,0,0,0,0,0,0.0,861.20,,Idle,0,30,False,10,True,,Go Home,39.96120771,-106.21646234,1.4,8190.2,393.7,True,1,1,False,False,False,False,0,False,False,False,Course Lock,65.6,,9.8,Calm,65,Android, 3.1.38,,0670136230,,03LLCA0B4B,M61AE76011,316.436,8803.1,264.1,44.0,7.2,0,0,,0670136230,,03LLCA0B4B,M61AE7601101EB,,Android, 3.1.38,,,,,,
6/20/2018,4:11:48.61 PM,0m 4.2s,4.2,39.96120518,-106.21646663,2.3,2.3,,8130,1.1,1.5,-0.2,0,-0.5,0,-0.9,0,2.1,-0.9,-120.1,239.9,Auto Takeoff,Auto Fly,Takeoff (App Auto),16,5,True,,M600,False,False,,Smart,RC,False,True,False,,,True,,False,False,False,False,True,False,False,False,False,False,0,Follow Yaw,0,0,-122.1,237.9,False,False,False,False,False,False,,True,Normal,,,1024,1024,1024,1024,1,False,False,False,False,False,0,False,False,False,False,96,,,,50.662,True,,,,,,,,False,False,,,,,0,0,0,0,0,0.0,861.20,,Idle,0,30,False,10,True,,Go Home,39.96120771,-106.21646234,1.5,8190.2,393.7,True,1,1,False,False,False,False,0,False,False,False,Course Lock,65.6,,9.8,Calm,65,Android, 3.1.38,,0670136230,,03LLCA0B4B,M61AE76011,316.436,8803.1,264.1,44.0,7.2,0,0,,0670136230,,03LLCA0B4B,M61AE7601101EB,,Android, 3.1.38,,,,,,
6/20/2018,4:11:48.71 PM,0m 4.3s,4.3,39.96120506,-106.21646705,2.3,2.3,,8130,0,1.5,-0.2,0,-0.5,0,-0.9,0,2.5,-0.8,-120.1,239.9,Auto Takeoff,Auto Fly,Takeoff (App Auto),16,5,True,,M600,False,False,,Smart,RC,False,True,False,,,True,,False,False,False,False,True,False,False,False,False,False,0,Follow Yaw,0,0,-122.1,237.9,False,False,False,False,False,False,,True,Normal,,,1024,1024,1024,1024,1,False,False,False,False,False,0,False,False,False,False,96,,,,50.662,True,,,,,,,,False,False,,,,,0,0,0,0,0,0.0,861.20,,Idle,0,30,False,10,True,,Go Home,39.96120771,-106.21646234,1.6,8190.2,393.7,True,1,1,False,False,False,False,0,False,False,False,Course Lock,65.6,,9.8,Calm,65,Android, 3.1.38,,0670136230,,03LLCA0B4B,M61AE76011,316.436,8803.1,264.1,44.0,7.2,0,0,,0670136230,,03LLCA0B4B,M61AE7601101EB,,Android, 3.1.38,,,,,,
6/20/2018,4:11:48.82 PM,0m 4.4s,4.4,39.96120498,-106.21646741,2.6,2.6,,8131,1.5,1.5,-0.2,0,-0.5,0,-0.9,0,2.9,-0.8,-120.1,239.9,Auto Takeoff,Auto Fly,Takeoff (App Auto),17,5,True,,M600,False,False,,Smart,RC,False,True,False,,,True,,False,False,False,False,True,False,False,False,False,False,0,Follow Yaw,0,0,-122,238,False,False,False,False,False,False,,True,Normal,,,1024,1024,1024,1024,1,False,False,False,False,False,0,False,False,False,False,96,,,,50.662,True,,,,,,,,False,False,,,,,0,0,0,0,0,0.0,861.20,,Idle,0,30,False,10,True,,Go Home,39.96120771,-106.21646234,1.8,8190.2,393.7,True,1,1,False,False,False,False,0,False,False,False,Course Lock,65.6,,9.8,Calm,65,Android, 3.1.38,,0670136230,,03LLCA0B4B,M61AE76011,316.436,8803.1,264.1,44.0,7.2,0,0,,0670136230,,03LLCA0B4B,M61AE7601101EB,,Android, 3.1.38,,,,,,
6/20/2018,4:11:49.02 PM,0m 4.6s,4.6,39.96120477,-106.21646797,3.0,3.0,,8131,0.7,1.5,-0.2,0,-0.5,0,-0.7,0,2.6,-0.4,-120.2,239.8,Auto Takeoff,Auto Fly,Takeoff (App Auto),17,5,True,,M600,False,False,,Smart,RC,False,True,False,,,True,,False,False,False,False,True,False,False,False,False,False,0,Follow Yaw,0,0,-122,238,False,False,False,False,False,False,,True,Normal,,,1024,1024,1024,1024,1,False,False,False,False,False,0,False,False,False,False,96,,,,50.662,True,,,,,,,,False,False,,,,,0,0,0,0,0,0.0,861.20,,Idle,0,30,False,10,True,,Go Home,39.96120771,-106.21646234,1.9,8190.2,393.7,True,1,1,False,False,False,False,0,False,False,False,Course Lock,65.6,,9.8,Calm,65,Android, 3.1.38,,0670136230,,03LLCA0B4B,M61AE76011,316.436,8803.1,264.1,44.0,7.2,0,0,,0670136230,,03LLCA0B4B,M61AE7601101EB,,Android, 3.1.38,,,,,,
6/20/2018,4:11:49.12 PM,0m 4.7s,4.7,39.96120463,-106.2164682,3.0,3.0,,8131,1.0,1.5,-0.2,0,-0.2,0,-0.7,0,2.5,-0.2,-120.1,239.9,Auto Takeoff,Auto Fly,Takeoff (App Auto),17,5,True,,M600,False,False,,Smart,RC,False,True,False,,,True,,False,False,False,False,True,False,False,False,False,False,0,Follow Yaw,0,0,-121.9,238.1,False,False,False,False,False,False,,True,Normal,,,1024,1024,1024,1024,1,False,False,False,False,False,0,False,False,False,False,96,,,,50.662,True,,,,,,,,False,False,,,,,0,0,0,0,0,0.0,861.20,,Idle,0,30,False,10,True,,Go Home,39.96120771,-106.21646234,2.0,8190.2,393.7,True,1,1,False,False,False,False,0,False,False,False,Course Lock,65.6,,9.8,Calm,65,Android, 3.1.38,,0670136230,,03LLCA0B4B,M61AE76011,316.436,8803.1,264.1,44.0,7.2,0,0,,0670136230,,03LLCA0B4B,M61AE7601101EB,,Android, 3.1.38,,,,,,
6/20/2018,4:11:49.22 PM,0m 4.8s,4.8,39.9612045,-106.21646837,3.0,3.0,,8131,0,1.5,-0.2,0,-0.2,0,-0.9,0,2.3,0,-120.1,239.9,Auto Takeoff,Auto Fly,Takeoff (App Auto),17,5,True,,M600,False,False,,Smart,RC,False,True,False,,,True,,False,False,False,False,True,False,False,False,False,False,0,Follow Yaw,0,0,-121.9,238.1,False,False,False,False,False,False,,True,Normal,,,1024,1024,1024,1024,1,False,False,False,False,False,0,False,False,False,False,96,,,,50.662,True,,,,,,,,False,False,,,,,0,0,0,0,0,0.0,861.20,,Idle,0,30,False,10,True,,Go Home,39.96120771,-106.21646234,2.0,8190.2,393.7,True,1,1,False,False,False,False,0,False,False,False,Course Lock,65.6,,9.8,Calm,65,Android, 3.1.38,,0670136230,,03LLCA0B4B,M61AE76011,316.436,8803.1,264.1,44.0,7.2,0,0,,0670136230,,03LLCA0B4B,M61AE7601101EB,,Android, 3.1.38,,,,,,
6/20/2018,4:11:49.32 PM,0m 4.9s,4.9,39.96120437,-106.21646854,3.3,3.3,,8131,0,1.5,-0.2,0,-0.2,0,-0.9,0,2.4,0,-120.1,239.9,Auto Takeoff,Auto Fly,Takeoff (App Auto),17,5,True,,M600,False,False,,Smart,RC,False,True,False,,,True,,False,False,False,False,True,False,False,False,False,False,0,Follow Yaw,0,0,-121.9,238.1,False,False,False,False,False,False,,True,Normal,,,1024,1024,1024,1024,1,False,False,False,False,False,0,False,False,False,False,96,,,,50.662,True,,,,,,,,False,False,,,,,0,0,0,0,0,0.0,861.20,,Idle,0,30,False,10,True,,Go Home,39.96120771,-106.21646234,2.1,8190.2,393.7,True,1,1,False,False,False,False,0,False,False,False,Course Lock,65.6,,9.8,Calm,65,Android, 3.1.38,,0670136230,,03LLCA0B4B,M61AE76011,316.436,8803.1,264.1,44.0,7.2,0,0,,0670136230,,03LLCA0B4B,M61AE7601101EB,,Android, 3.1.38,,,,,,
6/20/2018,4:11:49.42 PM,0m 5.0s,5.0,39.9612042,-106.2164687,3.3,3.3,,8131,0,1.5,-0.2,0,-0.2,0,-0.9,0,2.4,0,-120.1,239.9,P-GPS,Auto Fly,,17,5,True,,M600,False,False,,Smart,RC,False,True,False,,,True,,False,False,False,False,True,False,False,False,False,False,0,Follow Yaw,0,0,-121.9,238.1,False,False,False,False,False,False,,True,Normal,,,1024,1024,1024,1024,1,False,False,False,False,False,0,False,False,False,False,96,,,,50.662,True,,,,,,,,False,False,,,,,0,0,0,0,0,0.0,861.20,,Idle,0,30,False,10,True,,Go Home,39.96120771,-106.21646234,2.2,8190.2,393.7,True,1,1,False,False,False,False,0,False,False,False,Course Lock,65.6,,9.8,Calm,65,Android, 3.1.38,,0670136230,,03LLCA0B4B,M61AE76011,316.436,8803.1,264.1,44.0,7.2,0,0,,0670136230,,03LLCA0B4B,M61AE7601101EB,,Android, 3.1.38,,,,,,
6/20/2018,4:11:49.53 PM,0m 5.1s,5.1,39.96120404,-106.21646886,3.6,3.6,,8132,0,1.5,-0.2,0,-0.2,0,-0.9,0,2.5,0.1,-120.2,239.8,P-GPS,Auto Fly,,17,5,True,,M600,False,False,,Smart,RC,False,True,False,,,True,,False,False,False,False,True,False,False,False,False,False,0,Follow Yaw,0,0,-121.9,238.1,False,False,False,False,False,False,,True,Normal,,,1024,1024,1024,1024,1,False,False,False,False,False,0,False,False,False,False,96,,,,50.867,True,,,,,,,,False,False,,,,,0,0,0,0,0,0.0,888.29,,Idle,0,30,False,10,True,,Go Home,39.96120771,-106.21646234,2.2,8190.2,393.7,True,1,1,False,False,False,False,0,False,False,False,Course Lock,65.6,,9.8,Calm,65,Android, 3.1.38,,0670136230,,03LLCA0B4B,M61AE76011,316.436,8803.1,264.1,44.0,7.2,0,0,,0670136230,,03LLCA0B4B,M61AE7601101EB,,Android, 3.1.38,,,,,,
6/20/2018,4:11:49.63 PM,0m 5.2s,5.2,39.96120393,-106.21646898,3.6,3.6,,8132,0,1.5,-0.2,0,-0.2,0,-0.5,0,2.7,0.3,-120.2,239.8,P-GPS,Auto Fly,,17,5,True,,M600,False,False,,Smart,RC,False,True,False,,,True,,False,False,False,False,True,False,False,False,False,False,0,Follow Yaw,0,0,-121.8,238.2,False,False,False,False,False,False,,True,Normal,,,1024,1024,1024,1024,1,False,False,False,False,False,0,False,False,False,False,96,,,,50.867,True,,,,,,,,False,False,,,,,0,0,0,0,0,0.0,888.29,,Idle,0,30,False,10,True,,Go Home,39.96120771,-106.21646234,2.3,8190.2,393.7,True,1,1,False,False,False,False,0,False,False,False,Course Lock,65.6,,9.8,Calm,65,Android, 3.1.38,,0670136230,,03LLCA0B4B,M61AE76011,316.436,8803.1,264.1,44.0,7.2,0,0,,0670136230,,03LLCA0B4B,M61AE7601101EB,,Android, 3.1.38,,,,,,
6/20/2018,4:11:49.73 PM,0m 5.3s,5.3,39.96120383,-106.21646908,3.6,3.6,,8132,0,1.5,-0.2,0,-0.2,0,-0.2,0,2.7,0.3,-120.2,239.8,P-GPS,Auto Fly,,17,5,True,,M600,False,False,,Smart,RC,False,True,False,,,True,,False,False,False,False,True,False,False,False,False,False,0,Follow Yaw,0,0,-121.8,238.2,False,False,False,False,False,False,,True,Normal,,,1024,1024,1024,1024,1,False,False,False,False,False,0,False,False,False,False,96,,,,50.867,True,,,,,,,,False,False,,,,,0,0,0,0,0,0.0,888.29,,Idle,0,30,False,10,True,,Go Home,39.96120771,-106.21646234,2.3,8190.2,393.7,True,1,1,False,False,False,False,0,False,False,False,Course Lock,65.6,,9.8,Calm,65,Android, 3.1.38,,0670136230,,03LLCA0B4B,M61AE76011,316.436,8803.1,264.1,44.0,7.2,0,0,,0670136230,,03LLCA0B4B,M61AE7601101EB,,Android, 3.1.38,,,,,,
6/20/2018,4:11:49.83 PM,0m 5.4s,5.4,39.96120374,-106.21646918,3.6,3.6,,8132,0,1.5,0,0,0,0,0,0,2.6,0.3,-120.2,239.8,P-GPS,Auto Fly,,17,5,True,,M600,False,False,,Smart,RC,False,True,False,,,True,,False,False,False,False,True,False,False,False,False,False,0,Follow Yaw,0,0,-121.8,238.2,False,False,False,False,False,False,,True,Normal,,,1024,1024,1024,1024,1,False,False,False,False,False,0,False,False,False,False,96,,,,50.867,True,,,,,,,,False,False,,,,,0,0,0,0,0,0.0,888.29,,Idle,0,30,False,10,True,,Go Home,39.96120771,-106.21646234,2.4,8190.2,393.7,True,1,1,False,False,False,False,0,False,False,False,Course Lock,65.6,,9.8,Calm,65,Android, 3.1.38,,0670136230,,03LLCA0B4B,M61AE76011,316.436,8803.1,264.1,44.0,7.2,0,0,,0670136230,,03LLCA0B4B,M61AE7601101EB,,Android, 3.1.38,,,,,,
6/20/2018,4:11:50.04 PM,0m 5.6s,5.6,39.96120362,-106.21646934,3.6,3.6,,8132,0,1.5,0,0,0,0,0,0,2.3,0,-120.2,239.8,P-GPS,Auto Fly,,17,5,True,,M600,False,False,,Smart,RC,False,True,False,,,True,,False,False,False,False,True,False,False,False,False,False,0,Follow Yaw,0,0,-121.7,238.3,False,False,False,False,False,False,,True,Normal,,,1024,1024,1024,1024,1,False,False,False,False,False,0,False,False,False,False,96,,,,50.867,True,,,,,,,,False,False,,,,,0,0,0,0,0,0.0,888.29,,Idle,0,30,False,10,True,,Go Home,39.96120771,-106.21646234,2.5,8190.2,393.7,True,1,1,False,False,False,False,0,False,False,False,Course Lock,65.6,,9.8,Calm,65,Android, 3.1.38,,0670136230,,03LLCA0B4B,M61AE76011,316.436,8803.1,264.1,44.0,7.2,0,0,,0670136230,,03LLCA0B4B,M61AE7601101EB,,Android, 3.1.38,,,,,,
6/20/2018,4:11:50.14 PM,0m 5.7s,5.7,39.96120357,-106.21646939,3.6,3.6,,8132,0,1.5,0,0,0,0,0,0,2.4,-0.2,-120.2,239.8,P-GPS,Auto Fly,,17,5,True,,M600,False,False,,Smart,RC,False,True,False,,,True,,False,False,False,False,True,False,False,False,False,False,0,Follow Yaw,0,0,-121.7,238.3,False,False,False,False,False,False,,True,Normal,,,1024,1024,1024,1024,1,False,False,False,False,False,0,False,False,False,False,96,,,,50.867,True,,,,,,,,False,False,,,,,0,0,0,0,0,0.0,888.29,,Idle,0,30,False,10,True,,Go Home,39.96120771,-106.21646234,2.5,8190.2,393.7,True,1,1,False,False,False,False,0,False,False,False,Course Lock,65.6,,9.8,Calm,65,Android, 3.1.38,,0670136230,,03LLCA0B4B,M61AE76011,316.436,8803.1,264.1,44.0,7.2,0,0,,0670136230,,03LLCA0B4B,M61AE7601101EB,,Android, 3.1.38,,,,,,
6/20/2018,4:11:50.24 PM,0m 5.8s,5.8,39.96120352,-106.21646947,3.6,3.6,,8132,0,1.5,0,0,0,0,0,0,2.1,-0.4,-120.2,239.8,P-GPS,Auto Fly,,17,5,True,,M600,False,False,,Smart,RC,False,True,False,,,True,,False,False,False,False,True,False,False,False,False,False,0,Follow Yaw,0,0,-121.7,238.3,False,False,False,False,False,False,,True,Normal,,,1024,1024,1024,1024,1,False,False,False,False,False,0,False,False,False,False,96,,,,50.867,True,,,,,,,,False,False,,,,,0,0,0,0,0,0.0,888.29,,Idle,0,30,False,10,True,,Go Home,39.96120771,-106.21646234,2.5,8190.2,393.7,True,1,1,False,False,False,False,0,False,False,False,Course Lock,65.6,,9.8,Calm,65,Android, 3.1.38,,0670136230,,03LLCA0B4B,M61AE76011,316.436,8803.1,264.1,44.0,7.2,0,0,,0670136230,,03LLCA0B4B,M61AE7601101EB,,Android, 3.1.38,,,,,,
6/20/2018,4:11:50.34 PM,0m 5.9s,5.9,39.96120347,-106.21646952,3.6,3.6,,8132,0,1.5,0,0,0,0,0,0,1.8,-0.4,-120.2,239.8,P-GPS,Auto Fly,,17,5,True,,M600,False,False,,Smart,RC,False,True,False,,,True,,False,False,False,False,True,False,False,False,False,False,0,Follow Yaw,0,0,-121.7,238.3,False,False,False,False,False,False,,True,Normal,,,1024,1024,1024,1024,1,False,False,False,False,False,0,False,False,False,False,96,,,,50.867,True,,,,,,,,False,False,,,,,0,0,0,0,0,0.0,888.29,,Idle,0,30,False,10,True,,Go Home,39.96120771,-106.21646234,2.5,8190.2,393.7,True,1,1,False,False,False,False,0,False,False,False,Course Lock,65.6,,9.8,Calm,65,Android, 3.1.38,,0670136230,,03LLCA0B4B,M61AE76011,316.436,8803.1,264.1,44.0,7.2,0,0,,0670136230,,03LLCA0B4B,M61AE7601101EB,,Android, 3.1.38,,,,,,
6/20/2018,4:11:50.44 PM,0m 6.0s,6.0,39.9612034,-106.21646958,3.6,3.6,,8132,0,1.5,0,0,0,0,0,0,1.7,-0.1,-120.2,239.8,P-GPS,Auto Fly,,17,5,True,,M600,False,False,,Smart,RC,False,True,False,,,True,,False,False,False,False,True,False,False,False,False,False,0,Follow Yaw,0,0,-121.7,238.3,False,False,False,False,False,False,,True,Normal,,,1024,1024,1024,1024,1,False,False,False,False,False,0,False,False,False,False,96,,,,50.867,True,,,,,,,,False,False,,,,,0,0,0,0,0,0.0,888.29,,Idle,0,30,False,10,True,,Go Home,39.96120771,-106.21646234,2.6,8190.2,393.7,True,1,1,False,False,False,False,0,False,False,False,Course Lock,65.6,,9.8,Calm,65,Android, 3.1.38,,0670136230,,03LLCA0B4B,M61AE76011,316.436,8803.1,264.1,44.0,7.2,0,0,,0670136230,,03LLCA0B4B,M61AE7601101EB,,Android, 3.1.38,,,,,,
6/20/2018,4:11:50.54 PM,0m 6.1s,6.1,39.96120332,-106.21646961,3.6,3.6,,8132,0,1.5,0,0,0,0,0,0,1.6,0,-120.2,239.8,P-GPS,Auto Fly,,17,5,True,,M600,False,False,,Smart,RC,False,True,False,,,True,,False,False,False,False,True,False,False,False,False,False,0,Follow Yaw,0,0,-121.7,238.3,False,False,False,False,False,False,,True,Normal,,,1024,1024,1024,1024,1,False,False,False,False,False,0,False,False,False,False,96,,,,50.867,True,,,,,,,,False,False,,,,,0,0,0,0,0,0.0,888.29,,Idle,0,30,False,10,True,,Go Home,39.96120771,-106.21646234,2.6,8190.2,393.7,True,1,1,False,False,False,False,0,False,False,False,Course Lock,65.6,,9.8,Calm,65,Android, 3.1.38,,0670136230,,03LLCA0B4B,M61AE76011,316.436,8803.1,264.1,44.0,7.2,0,0,,0670136230,,03LLCA0B4B,M61AE7601101EB,,Android, 3.1.38,,,,,,
6/20/2018,4:11:50.65 PM,0m 6.2s,6.2,39.96120321,-106.21646964,3.6,3.6,,8132,0,1.5,0,0,0,0,0,0,1.8,0.2,-120.2,239.8,P-GPS,Auto Fly,,17,5,True,,M600,False,False,,Smart,RC,False,True,False,,,True,,False,False,False,False,True,False,False,False,False,False,0,Follow Yaw,0,0,-121.6,238.4,False,False,False,False,False,False,,True,Normal,,,1024,1024,1024,1024,1,False,False,False,False,False,0,False,False,False,False,96,,,,51.092,True,,,,,,,,False,False,,,,,0,0,0,0,0,0.0,1119.71,,Idle,0,30,False,10,True,,Go Home,39.96120771,-106.21646234,2.6,8190.2,393.7,True,1,1,False,False,False,False,0,False,False,False,Course Lock,65.6,,9.8,Calm,65,Android, 3.1.38,,0670136230,,03LLCA0B4B,M61AE76011,316.436,8803.1,264.1,44.0,7.2,0,0,,0670136230,,03LLCA0B4B,M61AE7601101EB,,Android, 3.1.38,,,,,,
6/20/2018,4:11:50.75 PM,0m 6.3s,6.3,39.96120312,-106.21646964,3.6,3.6,,8132,0,1.5,0,0,0,0,0,0,1.9,0.4,-120.1,239.9,P-GPS,Auto Fly,,17,5,True,,M600,False,False,,Smart,RC,False,True,False,,,True,,False,False,False,False,True,False,False,False,False,False,0,Follow Yaw,0,0,-121.6,238.4,False,False,False,False,False,False,,True,Normal,,,1024,1024,1024,1024,1,False,False,False,False,False,0,False,False,False,False,96,,,,51.092,True,,,,,,,,False,False,,,,,0,0,0,0,0,0.0,1119.71,,Idle,0,30,False,10,True,,Go Home,39.96120771,-106.21646234,2.6,8190.2,393.7,True,1,1,False,False,False,False,0,False,False,False,Course Lock,65.6,,9.8,Calm,65,Android, 3.1.38,,0670136230,,03LLCA0B4B,M61AE76011,316.436,8803.1,264.1,44.0,7.2,0,0,,0670136230,,03LLCA0B4B,M61AE7601101EB,,Android, 3.1.38,,,,,,
6/20/2018,4:11:50.85 PM,0m 6.4s,6.4,39.96120303,-106.21646968,3.6,3.6,,8132,0,1.5,0,0,0,0,0,0,1.9,0.2,-120.1,239.9,P-GPS,Auto Fly,,17,5,True,,M600,False,False,,Smart,RC,False,True,False,,,True,,False,False,False,False,True,False,False,False,False,False,0,Follow Yaw,0,0,-121.6,238.4,False,False,False,False,False,False,,True,Normal,,,1024,1024,1024,1024,1,False,False,False,False,False,0,False,False,False,False,96,,,,51.092,True,,,,,,,,False,False,,,,,0,0,0,0,0,0.0,1119.71,,Idle,0,30,False,10,True,,Go Home,39.96120771,-106.21646234,2.7,8190.2,393.7,True,1,1,False,False,False,False,0,False,False,False,Course Lock,65.6,,9.8,Calm,65,Android, 3.1.38,,0670136230,,03LLCA0B4B,M61AE76011,316.436,8803.1,264.1,44.0,7.2,0,0,,0670136230,,03LLCA0B4B,M61AE7601101EB,,Android, 3.1.38,,,,,,
6/20/2018,4:11:51.05 PM,0m 6.6s,6.6,39.96120292,-106.21646975,3.6,3.6,,8132,0,1.5,0,0,0,0,0,0,2.4,0.1,-120.2,239.8,P-GPS,Auto Fly,,17,5,True,,M600,False,False,,Smart,RC,False,True,False,,,True,,False,False,False,False,True,False,False,False,False,False,0,Follow Yaw,0,0,-121.6,238.4,False,False,False,False,False,False,,True,Normal,,,1024,1024,1024,1024,1,False,False,False,False,False,0,False,False,False,False,96,,,,51.092,True,,,,,,,,False,False,,,,,0,0,0,0,0,0.0,1119.71,,Idle,0,30,False,10,True,,Go Home,39.96120771,-106.21646234,2.7,8190.2,393.7,True,1,1,False,False,False,False,0,False,False,False,Course Lock,65.6,,9.8,Calm,65,Android, 3.1.38,,0670136230,,03LLCA0B4B,M61AE76011,316.436,8803.1,264.1,44.0,7.2,0,0,,0670136230,,03LLCA0B4B,M61AE7601101EB,,Android, 3.1.38,,,,,,
6/20/2018,4:11:51.16 PM,0m 6.7s,6.7,39.96120288,-106.21646977,3.9,3.9,,8132,0,1.5,0,0,0,0,0,0,2.7,0.4,-120.2,239.8,P-GPS,Auto Fly,,17,5,True,,M600,False,False,,Smart,RC,False,True,False,,,True,,False,False,False,False,True,False,False,False,False,False,0,Follow Yaw,0,0,-121.6,238.4,False,False,False,False,False,False,,True,Normal,,,1024,1024,1024,1024,1,False,False,False,False,False,0,False,False,False,False,96,,,,51.092,True,,,,,,,,False,False,,,,,0,0,0,0,0,0.0,1119.71,,Idle,0,30,False,10,True,,Go Home,39.96120771,-106.21646234,2.8,8190.2,393.7,True,1,1,False,False,False,False,0,False,False,False,Course Lock,65.6,,9.8,Calm,65,Android, 3.1.38,,0670136230,,03LLCA0B4B,M61AE76011,316.436,8803.1,264.1,44.0,7.2,0,0,,0670136230,,03LLCA0B4B,M61AE7601101EB,,Android, 3.1.38,,,,,,
6/20/2018,4:11:51.26 PM,0m 6.8s,6.8,39.96120286,-106.21646979,3.9,3.9,,8132,0,1.5,0,0,0,0,0,0,2.7,0.9,-120.2,239.8,P-GPS,Auto Fly,,17,5,True,,M600,False,False,,Smart,RC,False,True,False,,,True,,False,False,False,False,True,False,False,False,False,False,0,Follow Yaw,0,0,-121.5,238.5,False,False,False,False,False,False,,True,Normal,,,1024,1024,1024,1024,1,False,False,False,False,False,0,False,False,False,False,96,,,,51.092,True,,,,,,,,False,False,,,,,0,0,0,0,0,0.0,1119.71,,Idle,0,30,False,10,True,,Go Home,39.96120771,-106.21646234,2.8,8190.2,393.7,True,1,1,False,False,False,False,0,False,False,False,Course Lock,65.6,,9.8,Calm,65,Android, 3.1.38,,0670136230,,03LLCA0B4B,M61AE76011,316.436,8803.1,264.1,44.0,7.2,0,0,,0670136230,,03LLCA0B4B,M61AE7601101EB,,Android, 3.1.38,,,,,,
6/20/2018,4:11:51.36 PM,0m 6.9s,6.9,39.96120286,-106.21646977,3.9,3.9,,8132,0,1.5,0,0,0,0,0,0,2.6,1.2,-120.3,239.7,P-GPS,Auto Fly,,17,5,True,,M600,False,False,,Smart,RC,False,True,False,,,True,,False,False,False,False,True,False,False,False,False,False,0,Follow Yaw,0,0,-121.5,238.5,False,False,False,False,False,False,,True,Normal,,,1024,1024,1024,1024,1,False,False,False,False,False,0,False,False,False,False,96,,,,51.092,True,,,,,,,,False,False,,,,,0,0,0,0,0,0.0,1119.71,,Idle,0,30,False,10,True,,Go Home,39.96120771,-106.21646234,2.8,8190.2,393.7,True,1,1,False,False,False,False,0,False,False,False,Course Lock,65.6,,9.8,Calm,65,Android, 3.1.38,,0670136230,,03LLCA0B4B,M61AE76011,316.436,8803.1,264.1,44.0,7.2,0,0,,0670136230,,03LLCA0B4B,M61AE7601101EB,,Android, 3.1.38,,,,,,
6/20/2018,4:11:51.46 PM,0m 7.0s,7.0,39.96120291,-106.21646975,3.9,3.9,,8132,0,1.5,0,0,0,0,0,0,2.3,0.9,-120.3,239.7,P-GPS,Auto Fly,,17,5,True,,M600,False,False,,Smart,RC,False,True,False,,,True,,False,False,False,False,True,False,False,False,False,False,0,Follow Yaw,0,0,-121.5,238.5,False,False,False,False,False,False,,True,Normal,,,1024,1024,1056,1024,1,False,False,False,False,False,0,False,False,False,False,96,,,,51.092,True,,,,,,,,False,False,,,,,0,0,0,0,0,0.0,1119.71,,Idle,0,30,False,10,True,,Go Home,39.96120771,-106.21646234,2.7,8190.2,393.7,True,1,1,False,False,False,False,0,False,False,False,Course Lock,65.6,,9.8,Calm,65,Android, 3.1.38,,0670136230,,03LLCA0B4B,M61AE76011,316.436,8803.1,264.1,44.0,7.2,0,0,,0670136230,,03LLCA0B4B,M61AE7601101EB,,Android, 3.1.38,,,,,,
6/20/2018,4:11:51.56 PM,0m 7.1s,7.1,39.96120297,-106.21646971,3.9,3.9,,8132,0,1.5,0,0,0,0,0,0,2,0.6,-120.3,239.7,P-GPS,Auto Fly,,17,5,True,,M600,False,False,,Smart,RC,False,True,False,,,True,,False,False,False,False,True,False,False,False,False,False,0,Follow Yaw,0,0,-121.5,238.5,False,False,False,False,False,False,,True,Normal,,,1024,1024,1110,1024,1,False,False,False,False,False,0,False,False,False,False,96,,,,51.092,True,,,,,,,,False,False,,,,,0,0,0,0,0,0.0,1119.71,,Idle,0,30,False,10,True,,Go Home,39.96120771,-106.21646234,2.7,8190.2,393.7,True,1,1,False,False,False,False,0,False,False,False,Course Lock,65.6,,9.8,Calm,65,Android, 3.1.38,,0670136230,,03LLCA0B4B,M61AE76011,316.436,8803.1,264.1,44.0,7.2,0,0,,0670136230,,03LLCA0B4B,M61AE7601101EB,,Android, 3.1.38,,,,,,
6/20/2018,4:11:51.66 PM,0m 7.2s,7.2,39.96120307,-106.21646963,3.9,3.9,,8132,0,1.5,0,0,0,0,0,0,1.7,0.1,-120.3,239.7,P-GPS,Auto Fly,,17,5,True,,M600,False,False,,Smart,RC,False,True,False,,,True,,False,False,False,False,True,False,False,False,False,False,0,Follow Yaw,0,0,-121.5,238.5,False,False,False,False,False,False,,True,Normal,,,1024,1024,1126,1024,1,False,False,False,False,False,0,False,False,False,False,96,,,,51.092,True,,,,,,,,False,False,,,,,0,0,0,0,0,0.0,1119.71,,Idle,0,30,False,10,True,,Go Home,39.96120771,-106.21646234,2.6,8190.2,393.7,True,1,1,False,False,False,False,0,False,False,False,Course Lock,65.6,,9.8,Calm,65,Android, 3.1.38,,0670136230,,03LLCA0B4B,M61AE76011,316.436,8803.1,264.1,44.0,7.2,0,0,,0670136230,,03LLCA0B4B,M61AE7601101EB,,Android, 3.1.38,,,,,,
6/20/2018,4:11:51.77 PM,0m 7.3s,7.3,39.96120315,-106.21646956,3.9,3.9,,8132,0,1.5,0,0,0,0,0,0,1.4,-0.4,-120.3,239.7,P-GPS,Auto Fly,,17,5,True,,M600,False,False,,Smart,RC,False,True,False,,,True,,False,False,False,False,True,False,False,False,False,False,0,Follow Yaw,0,0,-121.5,238.5,False,False,False,False,False,False,,True,Normal,,,1024,1024,1106,1024,1,False,False,False,False,False,0,False,False,False,False,96,,,,51.04,True,,,,,,,,False,False,,,,,0,0,0,0,0,0.0,1119.71,,Idle,0,30,False,10,True,,Go Home,39.96120771,-106.21646234,2.6,8190.2,393.7,True,1,1,False,False,False,False,0,False,False,False,Course Lock,65.6,,9.8,Calm,65,Android, 3.1.38,,0670136230,,03LLCA0B4B,M61AE76011,316.436,8803.1,264.1,44.0,7.2,0,0,,0670136230,,03LLCA0B4B,M61AE7601101EB,,Android, 3.1.38,,,,,,
6/20/2018,4:11:51.87 PM,0m 7.4s,7.4,39.96120326,-106.21646946,3.9,3.9,,8132,0,1.5,0,0,0,0,-0.2,0,1.2,-0.6,-120.3,239.7,P-GPS,Auto Fly,,17,5,True,,M600,False,False,,Smart,RC,False,True,False,,,True,,False,False,False,False,True,False,False,False,False,False,0,Follow Yaw,0,0,-121.5,238.5,False,False,False,False,False,False,,True,Normal,,,1024,1024,1098,1024,1,False,False,False,False,False,0,False,False,False,False,96,,,,51.04,True,,,,,,,,False,False,,,,,0,0,0,0,0,0.0,1119.71,,Idle,0,30,False,10,True,,Go Home,39.96120771,-106.21646234,2.6,8190.2,393.7,True,1,1,False,False,False,False,0,False,False,False,Course Lock,65.6,,9.8,Calm,65,Android, 3.1.38,,0670136230,,03LLCA0B4B,M61AE76011,316.436,8803.1,264.1,44.0,7.2,0,0,,0670136230,,03LLCA0B4B,M61AE7601101EB,,Android, 3.1.38,,,,,,
6/20/2018,4:11:52.07 PM,0m 7.6s,7.6,39.96120341,-106.21646928,3.9,3.9,,8132,0,1.5,0,0,0,0,-0.2,0,1.3,0.3,-120.3,239.7,P-GPS,Auto Fly,,17,5,True,,M600,False,False,,Smart,RC,False,True,False,,,True,,False,False,False,False,True,False,False,False,False,False,0,Follow Yaw,0,0,-121.4,238.6,False,False,False,False,False,False,,True,Normal,,,1024,1024,1105,1024,1,False,False,False,False,False,0,False,False,False,False,96,,,,51.04,True,,,,,,,,False,False,,,,,0,0,0,0,0,0.0,1119.71,,Idle,0,30,False,10,True,,Go Home,39.96120771,-106.21646234,2.5,8190.2,393.7,True,1,1,False,False,False,False,0,False,False,False,Course Lock,65.6,,9.8,Calm,65,Android, 3.1.38,,0670136230,,03LLCA0B4B,M61AE76011,316.436,8803.1,264.1,44.0,7.2,0,0,,0670136230,,03LLCA0B4B,M61AE7601101EB,,Android, 3.1.38,,,,,,
6/20/2018,4:11:52.17 PM,0m 7.7s,7.7,39.96120347,-106.21646922,3.9,3.9,,8132,0,1.5,0,0,0,0,-0.2,0,1.2,0.5,-120.3,239.7,P-GPS,Auto Fly,,17,5,True,,M600,False,False,,Smart,RC,False,True,False,,,True,,False,False,False,False,True,False,False,False,False,False,0,Follow Yaw,0,0,-121.4,238.6,False,False,False,False,False,False,,True,Normal,,,1024,1024,1122,1024,1,False,False,False,False,False,0,False,False,False,False,96,,,,51.04,True,,,,,,,,False,False,,,,,0,0,0,0,0,0.0,1119.71,,Idle,0,30,False,10,True,,Go Home,39.96120771,-106.21646234,2.5,8190.2,393.7,True,1,1,False,False,False,False,0,False,False,False,Course Lock,65.6,,9.8,Calm,65,Android, 3.1.38,,0670136230,,03LLCA0B4B,M61AE76011,316.436,8803.1,264.1,44.0,7.2,0,0,,0670136230,,03LLCA0B4B,M61AE7601101EB,,Android, 3.1.38,,,,,,
6/20/2018,4:11:52.28 PM,0m 7.8s,7.8,39.96120356,-106.21646914,4.3,4.3,,8132,0,1.5,0,0,0,0,-0.2,0,1.1,0.5,-120.3,239.7,P-GPS,Auto Fly,,17,5,True,,M600,False,False,,Smart,RC,False,True,False,,,True,,False,False,False,False,True,False,False,False,False,False,0,Follow Yaw,0,0,-121.4,238.6,False,False,False,False,False,False,,True,Normal,,,1024,1024,1125,1024,1,False,False,False,False,False,0,False,False,False,False,96,,,,51.04,True,,,,,,,,False,False,,,,,0,0,0,0,0,0.0,1119.71,,Idle,0,30,False,10,True,,Go Home,39.96120771,-106.21646234,2.4,8190.2,393.7,True,1,1,False,False,False,False,0,False,False,False,Course Lock,65.6,,9.8,Calm,65,Android, 3.1.38,,0670136230,,03LLCA0B4B,M61AE76011,316.436,8803.1,264.1,44.0,7.2,0,0,,0670136230,,03LLCA0B4B,M61AE7601101EB,,Android, 3.1.38,,,,,,
6/20/2018,4:11:52.38 PM,0m 7.9s,7.9,39.96120365,-106.21646908,4.3,4.3,,8132,0,1.5,0,0,0,0,-0.5,0,1.1,0.2,-120.3,239.7,P-GPS,Auto Fly,,17,5,True,,M600,False,False,,Smart,RC,False,True,False,,,True,,False,False,False,False,True,False,False,False,False,False,0,Follow Yaw,0,0,-121.4,238.6,False,False,False,False,False,False,,True,Normal,,,1024,1024,1129,1024,1,False,False,False,False,False,0,False,False,False,False,96,,,,51.04,True,,,,,,,,False,False,,,,,0,0,0,0,0,0.0,1119.71,,Idle,0,30,False,10,True,,Go Home,39.96120771,-106.21646234,2.4,8190.2,393.7,True,1,1,False,False,False,False,0,False,False,False,Course Lock,65.6,,9.8,Calm,65,Android, 3.1.38,,0670136230,,03LLCA0B4B,M61AE76011,316.436,8803.1,264.1,44.0,7.2,0,0,,0670136230,,03LLCA0B4B,M61AE7601101EB,,Android, 3.1.38,,,,,,
6/20/2018,4:11:52.48 PM,0m 8.0s,8.0,39.96120377,-106.21646905,4.3,4.3,,8132,0,1.5,0,0,0,0,-0.5,0,1,0,-120.3,239.7,P-GPS,Auto Fly,,17,5,True,,M600,False,False,,Smart,RC,False,True,False,,,True,,False,False,False,False,True,False,False,False,False,False,0,Follow Yaw,0,0,-121.4,238.6,False,False,False,False,False,False,,True,Normal,,,1024,1024,1129,1024,1,False,False,False,False,False,0,False,False,False,False,96,,,,51.04,True,,,,,,,,False,False,,,,,0,0,0,0,0,0.0,1119.71,,Idle,0,30,False,10,True,,Go Home,39.96120771,-106.21646234,2.4,8190.2,393.7,True,1,1,False,False,False,False,0,False,False,False,Course Lock,65.6,,9.8,Calm,65,Android, 3.1.38,,0670136230,,03LLCA0B4B,M61AE76011,316.436,8803.1,264.1,44.0,7.2,0,0,,0670136230,,03LLCA0B4B,M61AE7601101EB,,Android, 3.1.38,,,,,,
6/20/2018,4:11:52.58 PM,0m 8.1s,8.1,39.96120386,-106.21646904,4.3,4.3,,8132,0,1.5,0,0,0,0,-0.7,0,1,0,-120.3,239.7,P-GPS,Auto Fly,,17,5,True,,M600,False,False,,Smart,RC,False,True,False,,,True,,False,False,False,False,True,False,False,False,False,False,0,Follow Yaw,0,0,-121.4,238.6,False,False,False,False,False,False,,True,Normal,,,1024,1024,1132,1024,1,False,False,False,False,False,0,False,False,False,False,96,,,,51.04,True,,,,,,,,False,False,,,,,0,0,0,0,0,0.0,1119.71,,Idle,0,30,False,10,True,,Go Home,39.96120771,-106.21646234,2.3,8190.2,393.7,True,1,1,False,False,False,False,0,False,False,False,Course Lock,65.6,,9.8,Calm,65,Android, 3.1.38,,0670136230,,03LLCA0B4B,M61AE76011,316.436,8803.1,264.1,44.0,7.2,0,0,,0670136230,,03LLCA0B4B,M61AE7601101EB,,Android, 3.1.38,,,,,,
6/20/2018,4:11:52.68 PM,0m 8.2s,8.2,39.96120394,-106.21646892,4.6,4.6,,8133,1.1,1.5,0,0,0,0,-0.7,0,1,0,-120.2,239.8,P-GPS,Auto Fly,,17,5,True,,M600,False,False,,Smart,RC,False,True,False,,,True,,False,False,False,False,True,False,False,False,False,False,0,Follow Yaw,0,0,-121.4,238.6,False,False,False,False,False,False,,True,Normal,,,1024,1024,1138,1024,1,False,False,False,False,False,0,False,False,False,False,96,,,,51.04,True,,,,,,,,False,False,,,,,0,0,0,0,0,0.0,1119.71,,Idle,0,30,False,10,True,,Go Home,39.96120771,-106.21646234,2.3,8190.2,393.7,True,1,1,False,False,False,False,0,False,False,False,Course Lock,65.6,,9.8,Calm,65,Android, 3.1.38,,0670136230,,03LLCA0B4B,M61AE76011,316.436,8803.1,264.1,44.0,7.2,0,0,,0670136230,,03LLCA0B4B,M61AE7601101EB,,Android, 3.1.38,,,,,,
6/20/2018,4:11:52.78 PM,0m 8.3s,8.3,39.96120399,-106.21646885,4.6,4.6,,8133,0,1.5,0,0,0,0,-0.7,0,1,0,-120.3,239.7,P-GPS,Auto Fly,,17,5,True,,M600,False,False,,Smart,RC,False,True,False,,,True,,False,False,False,False,True,False,False,False,False,False,0,Follow Yaw,0,0,-121.4,238.6,False,False,False,False,False,False,,True,Normal,,,1024,1024,1135,1024,1,False,False,False,False,False,0,False,False,False,False,96,,,,50.733,True,,,,,,,,False,False,,,,,0,0,0,0,0,0.0,2058.46,,Idle,0,30,False,10,True,,Go Home,39.96120771,-106.21646234,2.3,8190.2,393.7,True,1,1,False,False,False,False,0,False,False,False,Course Lock,65.6,,9.8,Calm,65,Android, 3.1.38,,0670136230,,03LLCA0B4B,M61AE76011,316.436,8803.1,264.1,44.0,7.2,0,0,,0670136230,,03LLCA0B4B,M61AE7601101EB,,Android, 3.1.38,,,,,,
