#,CUSTOM.date [local], CUSTOM.updateTime [local], OSD.flyTime, OSD.flyTime [s], OSD.latitude, OSD.longitude, OSD.height [ft], OSD.heightMax [ft], OSD.vpsHeight [ft], OSD.altitude [ft], OSD.hSpeed [MPH], OSD.hSpeedMax [MPH], OSD.xSpeed [MPH], OSD.xSpeedMax [MPH], OSD.ySpeed [MPH], OSD.ySpeedMax [MPH], OSD.zSpeed [MPH], OSD.zSpeedMax [MPH], OSD.pitch, OSD.roll, OSD.yaw, OSD.yaw [360], OSD.flycState, OSD.flycCommand, OSD.flightAction, OSD.gpsNum, OSD.gpsLevel, OSD.isGPSUsed, OSD.nonGPSCause, OSD.droneType, OSD.isSwaveWork, OSD.waveError, OSD.goHomeStatus, OSD.batteryType, OSD.ctrlDevice, OSD.isOnGround, OSD.isMotorOn, OSD.isMotorBlocked, OSD.motorStartFailedCause, OSD.motorFailReason, OSD.isImuPreheated, OSD.imuInitFailReason, OSD.isAcceletorOverRange, OSD.isBarometerDeadInAir, OSD.isCompassError, OSD.isGoHomeHeightModified, OSD.canIOCWork, OSD.isNotEnoughForce, OSD.isOutOfLimit, OSD.isPropellerCatapult, OSD.isVibrating, OSD.isVisionUsed, OSD.voltageWarning, GIMBAL.mode, GIMBAL.pitch, GIMBAL.roll, GIMBAL.yaw, GIMBAL.yaw [360], GIMBAL.isPitchAtLimit, GIMBAL.isRollAtLimit, GIMBAL.isYawAtLimit, GIMBAL.isStuck, CAMERA.isPhoto, CAMERA.isVideo, CAMERA.filename, CAMERA.sdCardIsInserted, CAMERA.sdCardState, RC.downlinkSignal, RC.uplinkSignal, RC.aileron, RC.elevator, RC.throttle, RC.rudder, RC.mode, RC.goHomeDepressed, RC.recordDepressed, RC.shutterDepressed, RC.playbackDepressed, RC.wheelDepressed, RC.wheelOffset, RC.custom1Depressed, RC.custom2Depressed, RC.custom3Depressed, RC.custom4Depressed, BATTERY.chargeLevel, BATTERY.currentPV [V], BATTERY.currentCapacity [mAh], BATTERY.fullCapacity [mAh], BATTERY.voltage [V], BATTERY.isCellVoltageEstimated, BATTERY.cellVoltage1 [V], BATTERY.cellVoltage2 [V], BATTERY.cellVoltage3 [V], BATTERY.maxCellVoltageDeviation, BATTERY.isCellVoltageDeviationHigh, BATTERY.isVoltageLow, BATTERY.current [A], BATTERY.temperature [F], BATTERY.minTemperature [F], BATTERY.maxTemperature [F], BATTERY.usefulTime [s], BATTERY.goHomeTime [s], BATTERY.landTime [s], BATTERY.goHomeBattery, BATTERY.landBattery, BATTERY.safeFlyRadius, BATTERY.volumeConsume, BATTERY.status, BATTERY.goHomeStatus, BATTERY.goHomeCountdown, BATTERY.lowWarning, BATTERY.lowWarningGoHome, BATTERY.seriousLowWarning, BATTERY.seriousLowWarningLanding, BATTERY.timesCharged, MC.failSafeAction, HOME.latitude, HOME.longitude, HOME.distance [ft], HOME.height [ft], HOME.heightLimit [ft], HOME.isHomeRecord, HOME.goHomeMode, HOME.aircraftHeadDirection, HOME.isDynamicHomePointEnabled, HOME.isReachedLimitDistance, HOME.isReachedLimitHeight, HOME.isCompassCeleing, HOME.compassCeleStatus, HOME.isMultipleFlightModeEnabled, HOME.isBeginnerMode, HOME.isIOCEnabled, HOME.iocMode, HOME.goHomeHeight [ft], HOME.courseLockAngle, HOME.forceLandingHeight [ft], HOME.wind, HOME.dataRecorderFileIndex, RECOVER.appType, RECOVER.appVersion, RECOVER.aircraftName, RECOVER.aircraftSerial, RECOVER.cameraSerial, RECOVER.rcSerial, RECOVER.batterySerial, DETAILS.totalTime [s], DETAILS.totalDistance [ft], DETAILS.maxHeight [ft], DETAILS.maxHorizontalSpeed [MPH], DETAILS.maxVerticalSpeed [MPH], DETAILS.photoNum, DETAILS.videoTime [s], DETAILS.aircraftName, DETAILS.aircraftSerial, DETAILS.cameraSerial, DETAILS.rcSerial, DETAILS.batterySerial, DETAILS.appName, DETAILS.appType, DETAILS.appVersion, APPGPS.latitude, APPGPS.longitude, APPGPS.accuracy, APP.message, APP.tip, APP.warning
1,4/19/2018,05:29.6,0m 3.9s,3.9,39.9612655,-106.2165164,0,0,0.3,8128,0,0,0,0,0,0,0,0,7.2,1.4,-106.3,253.7,P-GPS,Other,Takeoff (RC Assisted),19,5,TRUE,,Mavic Air,TRUE,FALSE,,Smart,RC,TRUE,TRUE,FALSE,,,TRUE,,FALSE,FALSE,FALSE,FALSE,FALSE,FALSE,FALSE,FALSE,FALSE,FALSE,0,Follow Yaw,0,0,-106.5,253.5,FALSE,FALSE,FALSE,FALSE,FALSE,FALSE,,FALSE,Normal,,,1024,1024,1024,1024,1,FALSE,FALSE,FALSE,FALSE,FALSE,0,FALSE,FALSE,FALSE,FALSE,72,,,,12.114,TRUE,4.038,4.038,4.038,,FALSE,FALSE,,,,,0,23,0,17,10,5506.8,1412,,Idle,0,30,FALSE,10,TRUE,,Go Home,39.96130935,-106.2163982,36.7,7949.9,393.7,TRUE,1,1,FALSE,FALSE,FALSE,FALSE,2,TRUE,FALSE,FALSE,Course Lock,98.4,,16.4,Calm,15,, ,,,,,,471.3,9961.3,133.9,43.4,9.2,0,264,,0K1DF2P1BD,,,0K4AEBPA340178,,Android, 4.2.8,,,,Data Recorder File Index is 15.,,
2,4/19/2018,05:29.6,0m 4.0s,4,39.96126555,-106.2165164,0,0,0.3,8128,0,0,0,0,0,0,0,0,7.2,1.4,-106.3,253.7,Starting Motors,Other,Takeoff (RC Assisted),19,5,TRUE,,Mavic Air,TRUE,FALSE,,Smart,RC,TRUE,TRUE,FALSE,,,TRUE,,FALSE,FALSE,FALSE,FALSE,FALSE,FALSE,FALSE,FALSE,FALSE,FALSE,0,Follow Yaw,0,0,-106.5,253.5,FALSE,FALSE,FALSE,FALSE,FALSE,FALSE,,FALSE,Normal,,,1024,1024,1024,1024,1,FALSE,FALSE,FALSE,FALSE,FALSE,0,FALSE,FALSE,FALSE,FALSE,72,,,,12.114,TRUE,4.038,4.038,4.038,,FALSE,FALSE,,,,,0,23,0,17,10,5506.8,1412,,Idle,0,30,FALSE,10,TRUE,,Go Home,39.96130935,-106.2163982,36.7,7949.9,393.7,TRUE,1,1,FALSE,FALSE,FALSE,FALSE,2,TRUE,FALSE,FALSE,Course Lock,98.4,,16.4,Calm,15,, ,,,,,,471.3,9961.3,133.9,43.4,9.2,0,264,,0K1DF2P1BD,,,0K4AEBPA340178,,Android, 4.2.8,,,,,,
3,4/19/2018,05:29.8,0m 4.1s,4.1,39.96126562,-106.2165164,0,0,0.3,8128,0,0,0,0,0,0,0,0,7.2,1.4,-106.3,253.7,Starting Motors,Other,Takeoff (RC Assisted),19,5,TRUE,,Mavic Air,TRUE,FALSE,,Smart,RC,TRUE,TRUE,FALSE,,,TRUE,,FALSE,FALSE,FALSE,FALSE,FALSE,FALSE,FALSE,FALSE,FALSE,FALSE,0,Follow Yaw,0,0,-106.5,253.5,FALSE,FALSE,FALSE,FALSE,FALSE,FALSE,,FALSE,Normal,,,1024,1024,1024,1024,1,FALSE,FALSE,FALSE,FALSE,FALSE,0,FALSE,FALSE,FALSE,FALSE,72,,,,12.114,TRUE,4.038,4.038,4.038,,FALSE,FALSE,,,,,0,23,0,17,10,5506.8,1412,,Idle,0,30,FALSE,10,TRUE,,Go Home,39.96130935,-106.2163982,36.7,7949.9,393.7,TRUE,1,1,FALSE,FALSE,FALSE,FALSE,2,TRUE,FALSE,FALSE,Course Lock,98.4,,16.4,Calm,15,, ,,,,,,471.3,9961.3,133.9,43.4,9.2,0,264,,0K1DF2P1BD,,,0K4AEBPA340178,,Android, 4.2.8,,,,,,
4,4/19/2018,05:29.9,0m 4.2s,4.2,39.9612655,-106.2165163,0,0,0.3,8128,0,0,0,0,0,0,0,0,7.2,1.4,-106.4,253.6,Starting Motors,Other,Takeoff (RC Assisted),19,5,TRUE,,Mavic Air,TRUE,FALSE,,Smart,RC,TRUE,TRUE,FALSE,,,TRUE,,FALSE,FALSE,FALSE,FALSE,FALSE,FALSE,FALSE,FALSE,FALSE,FALSE,0,Follow Yaw,0,0,-106.5,253.5,FALSE,FALSE,FALSE,FALSE,FALSE,FALSE,,FALSE,Normal,,,1024,1024,1024,1024,1,FALSE,FALSE,FALSE,FALSE,FALSE,0,FALSE,FALSE,FALSE,FALSE,72,,,,12.114,TRUE,4.038,4.038,4.038,,FALSE,FALSE,,,,,0,23,0,17,10,5506.8,1412,,Idle,0,30,FALSE,10,TRUE,,Go Home,39.96130935,-106.2163982,36.7,7949.9,393.7,TRUE,1,1,FALSE,FALSE,FALSE,FALSE,2,TRUE,FALSE,FALSE,Course Lock,98.4,,16.4,Calm,15,, ,,,,,,471.3,9961.3,133.9,43.4,9.2,0,264,,0K1DF2P1BD,,,0K4AEBPA340178,,Android, 4.2.8,,,,,,
5,4/19/2018,05:30.0,0m 4.3s,4.3,39.96126555,-106.2165163,0,0,0.3,8128,0,0,0,0,0,0,0,0,7.2,1.4,-106.4,253.6,Starting Motors,Other,Takeoff (RC Assisted),19,5,TRUE,,Mavic Air,TRUE,FALSE,,Smart,RC,TRUE,TRUE,FALSE,,,TRUE,,FALSE,FALSE,FALSE,FALSE,FALSE,FALSE,FALSE,FALSE,FALSE,FALSE,0,Follow Yaw,0,0,-106.5,253.5,FALSE,FALSE,FALSE,FALSE,FALSE,FALSE,,FALSE,Normal,,,1024,1024,1024,1024,1,FALSE,FALSE,FALSE,FALSE,FALSE,0,FALSE,FALSE,FALSE,FALSE,72,,,,12.114,TRUE,4.038,4.038,4.038,,FALSE,FALSE,,,,,0,23,0,17,10,5506.8,1412,,Idle,0,30,FALSE,10,TRUE,,Go Home,39.96130935,-106.2163982,36.7,7949.9,393.7,TRUE,1,1,FALSE,FALSE,FALSE,FALSE,2,TRUE,FALSE,FALSE,Course Lock,98.4,,16.4,Calm,15,, ,,,,,,471.3,9961.3,133.9,43.4,9.2,0,264,,0K1DF2P1BD,,,0K4AEBPA340178,,Android, 4.2.8,,,,,,
6,4/19/2018,05:30.1,0m 4.4s,4.4,39.96126561,-106.2165162,0,0,0.3,8128,0,0,0,0,0,0,0,0,7.2,1.4,-106.4,253.6,Starting Motors,Other,Takeoff (RC Assisted),19,5,TRUE,,Mavic Air,TRUE,FALSE,,Smart,RC,TRUE,TRUE,FALSE,,,TRUE,,FALSE,FALSE,FALSE,FALSE,FALSE,FALSE,FALSE,FALSE,FALSE,FALSE,0,Follow Yaw,0,0,-106.5,253.5,FALSE,FALSE,FALSE,FALSE,FALSE,FALSE,,FALSE,Normal,,,1024,1024,1024,1024,1,FALSE,FALSE,FALSE,FALSE,FALSE,0,FALSE,FALSE,FALSE,FALSE,72,,,,12.048,FALSE,4.029,4.012,4.007,0.022,FALSE,FALSE,,,,,0,23,0,17,10,5506.8,1412,,Idle,0,30,FALSE,10,TRUE,,Go Home,39.96130935,-106.2163982,36.7,7949.9,393.7,TRUE,1,1,FALSE,FALSE,FALSE,FALSE,2,TRUE,FALSE,FALSE,Course Lock,98.4,,16.4,Calm,15,, ,,,,,,471.3,9961.3,133.9,43.4,9.2,0,264,,0K1DF2P1BD,,,0K4AEBPA340178,,Android, 4.2.8,,,,,,
7,4/19/2018,05:30.1,0m 4.5s,4.5,39.96126567,-106.2165163,0,0,0.3,8128,0,0,0,0,0,0,0,0,7.2,1.5,-106.4,253.6,Starting Motors,Other,Takeoff (RC Assisted),19,5,TRUE,,Mavic Air,TRUE,FALSE,,Smart,RC,TRUE,TRUE,FALSE,,,TRUE,,FALSE,FALSE,FALSE,FALSE,FALSE,FALSE,FALSE,FALSE,FALSE,FALSE,0,Follow Yaw,0,0,-106.5,253.5,FALSE,FALSE,FALSE,FALSE,FALSE,FALSE,,FALSE,Normal,,,1024,1024,1024,1024,1,FALSE,FALSE,FALSE,FALSE,FALSE,0,FALSE,FALSE,FALSE,FALSE,72,,,,12.048,FALSE,4.029,4.012,4.007,0.022,FALSE,FALSE,,,,,0,23,0,17,10,5506.8,1412,,Idle,0,30,FALSE,10,TRUE,,Go Home,39.96130935,-106.2163982,36.7,7949.9,393.7,TRUE,1,1,FALSE,FALSE,FALSE,FALSE,2,TRUE,FALSE,FALSE,Course Lock,98.4,,16.4,Calm,15,, ,,,,,,471.3,9961.3,133.9,43.4,9.2,0,264,,0K1DF2P1BD,,,0K4AEBPA340178,,Android, 4.2.8,,,,,,
8,4/19/2018,05:30.3,0m 4.6s,4.6,39.96126602,-106.216516,0,0,0.3,8128,0,0,0,0,0,0,0,0,7.2,1.5,-106.4,253.6,Starting Motors,Other,Takeoff (RC Assisted),19,5,TRUE,,Mavic Air,TRUE,FALSE,,Smart,RC,TRUE,TRUE,FALSE,,,TRUE,,FALSE,FALSE,FALSE,FALSE,FALSE,FALSE,FALSE,FALSE,FALSE,FALSE,0,Follow Yaw,0,0,-106.5,253.5,FALSE,FALSE,FALSE,FALSE,FALSE,FALSE,,FALSE,Normal,,,1024,1024,1024,1024,1,FALSE,FALSE,FALSE,FALSE,FALSE,0,FALSE,FALSE,FALSE,FALSE,72,,,,12.048,FALSE,4.029,4.012,4.007,0.022,FALSE,FALSE,,,,,0,23,0,17,10,5506.8,1412,,Idle,0,30,FALSE,10,TRUE,,Go Home,39.96130935,-106.2163982,36.6,7949.9,393.7,TRUE,1,1,FALSE,FALSE,FALSE,FALSE,2,TRUE,FALSE,FALSE,Course Lock,98.4,,16.4,Calm,15,, ,,,,,,471.3,9961.3,133.9,43.4,9.2,0,264,,0K1DF2P1BD,,,0K4AEBPA340178,,Android, 4.2.8,,,,,,
9,4/19/2018,05:30.3,0m 4.7s,4.7,39.96126611,-106.216516,0,0,0.3,8128,0,0,0,0,0,0,0,0,7.2,1.5,-106.4,253.6,Starting Motors,Other,Takeoff (RC Assisted),19,5,TRUE,,Mavic Air,TRUE,FALSE,,Smart,RC,TRUE,TRUE,FALSE,,,TRUE,,FALSE,FALSE,FALSE,FALSE,FALSE,FALSE,FALSE,FALSE,FALSE,FALSE,0,Follow Yaw,0,0,-106.5,253.5,FALSE,FALSE,FALSE,FALSE,FALSE,FALSE,,FALSE,Normal,,,1024,1024,1024,1024,1,FALSE,FALSE,FALSE,FALSE,FALSE,0,FALSE,FALSE,FALSE,FALSE,72,,,,12.048,FALSE,4.029,4.012,4.007,0.022,FALSE,FALSE,,,,,0,23,0,17,10,5506.8,1412,,Idle,0,30,FALSE,10,TRUE,,Go Home,39.96130935,-106.2163982,36.5,7949.9,393.7,TRUE,1,1,FALSE,FALSE,FALSE,FALSE,2,TRUE,FALSE,FALSE,Course Lock,98.4,,16.4,Calm,15,, ,,,,,,471.3,9961.3,133.9,43.4,9.2,0,264,,0K1DF2P1BD,,,0K4AEBPA340178,,Android, 4.2.8,,,,,,
10,4/19/2018,05:30.4,0m 4.8s,4.8,39.96126611,-106.2165162,0,0,0.3,8128,0,0,0,0,0,0,0,0,7.2,1.5,-106.4,253.6,Starting Motors,Other,Takeoff (RC Assisted),19,5,TRUE,,Mavic Air,TRUE,FALSE,,Smart,RC,TRUE,TRUE,FALSE,,,TRUE,,FALSE,FALSE,FALSE,FALSE,FALSE,FALSE,FALSE,FALSE,FALSE,FALSE,0,Follow Yaw,0,0,-106.5,253.5,FALSE,FALSE,FALSE,FALSE,FALSE,FALSE,,FALSE,Normal,,,1024,1024,1024,1024,1,FALSE,FALSE,FALSE,FALSE,FALSE,0,FALSE,FALSE,FALSE,FALSE,72,,,,12.048,FALSE,4.029,4.012,4.007,0.022,FALSE,FALSE,,,,,0,23,0,17,10,5506.8,1412,,Idle,0,30,FALSE,10,TRUE,,Go Home,39.96130935,-106.2163982,36.6,7949.9,393.7,TRUE,1,1,FALSE,FALSE,FALSE,FALSE,2,TRUE,FALSE,FALSE,Course Lock,98.4,,16.4,Calm,15,, ,,,,,,471.3,9961.3,133.9,43.4,9.2,0,264,,0K1DF2P1BD,,,0K4AEBPA340178,,Android, 4.2.8,,,,,,
11,4/19/2018,05:30.5,0m 4.9s,4.9,39.9612662,-106.2165162,0,0,0.3,8128,0,0,0,0,0,0,0,0,7.2,1.5,-106.4,253.6,Starting Motors,Other,Takeoff (RC Assisted),19,5,TRUE,,Mavic Air,TRUE,FALSE,,Smart,RC,TRUE,TRUE,FALSE,,,TRUE,,FALSE,FALSE,FALSE,FALSE,FALSE,FALSE,FALSE,FALSE,FALSE,FALSE,0,Follow Yaw,0,0,-106.5,253.5,FALSE,FALSE,FALSE,FALSE,FALSE,FALSE,,FALSE,Normal,,,1024,1024,1024,1024,1,FALSE,FALSE,FALSE,FALSE,FALSE,0,FALSE,FALSE,FALSE,FALSE,71,,,,12.043,FALSE,4.029,4.012,4.007,0.022,FALSE,FALSE,,,,,0,23,0,17,10,5382.2,1380.05,,Idle,0,30,FALSE,10,TRUE,,Go Home,39.96130935,-106.2163982,36.6,7949.9,393.7,TRUE,1,1,FALSE,FALSE,FALSE,FALSE,2,TRUE,FALSE,FALSE,Course Lock,98.4,,16.4,Calm,15,, ,,,,,,471.3,9961.3,133.9,43.4,9.2,0,264,,0K1DF2P1BD,,,0K4AEBPA340178,,Android, 4.2.8,,,,,,
12,4/19/2018,05:30.6,0m 5.0s,5,39.9612662,-106.2165163,0,0,0.3,8128,0,0,0,0,0,0,0,0,7.2,1.5,-106.4,253.6,Starting Motors,Other,Takeoff (RC Assisted),19,5,TRUE,,Mavic Air,TRUE,FALSE,,Smart,RC,TRUE,TRUE,FALSE,,,TRUE,,FALSE,FALSE,FALSE,FALSE,FALSE,FALSE,FALSE,FALSE,FALSE,FALSE,0,Follow Yaw,0,0,-106.5,253.5,FALSE,FALSE,FALSE,FALSE,FALSE,FALSE,,FALSE,Normal,,,1024,1024,1024,1024,1,FALSE,FALSE,FALSE,FALSE,FALSE,0,FALSE,FALSE,FALSE,FALSE,71,,,,12.043,FALSE,4.029,4.012,4.007,0.022,FALSE,FALSE,,,,,0,23,0,17,10,5382.2,1380.05,,Idle,0,30,FALSE,10,TRUE,,Go Home,39.96130935,-106.2163982,36.6,7949.9,393.7,TRUE,1,1,FALSE,FALSE,FALSE,FALSE,2,TRUE,FALSE,FALSE,Course Lock,98.4,,16.4,Calm,15,, ,,,,,,471.3,9961.3,133.9,43.4,9.2,0,264,,0K1DF2P1BD,,,0K4AEBPA340178,,Android, 4.2.8,,,,,,
13,4/19/2018,05:30.7,0m 5.1s,5.1,39.96126628,-106.2165163,0,0,0.3,8128,0,0,0,0,0,0,0,0,7.2,1.5,-106.4,253.6,Starting Motors,Other,Takeoff (RC Assisted),19,5,TRUE,,Mavic Air,TRUE,FALSE,,Smart,RC,TRUE,TRUE,FALSE,,,TRUE,,FALSE,FALSE,FALSE,FALSE,FALSE,FALSE,FALSE,FALSE,FALSE,FALSE,0,Follow Yaw,0,0,-106.5,253.5,FALSE,FALSE,FALSE,FALSE,FALSE,FALSE,,FALSE,Normal,,,1024,1024,1024,1024,1,FALSE,FALSE,FALSE,FALSE,FALSE,0,FALSE,FALSE,FALSE,FALSE,71,,,,12.043,FALSE,4.029,4.012,4.007,0.022,FALSE,FALSE,,,,,0,23,0,17,10,5382.2,1380.05,,Idle,0,30,FALSE,10,TRUE,,Go Home,39.96130935,-106.2163982,36.6,7949.9,393.7,TRUE,1,1,FALSE,FALSE,FALSE,FALSE,2,TRUE,FALSE,FALSE,Course Lock,98.4,,16.4,Calm,15,, ,,,,,,471.3,9961.3,133.9,43.4,9.2,0,264,,0K1DF2P1BD,,,0K4AEBPA340178,,Android, 4.2.8,,,,,,
14,4/19/2018,05:30.8,0m 5.2s,5.2,39.96126598,-106.2165163,0,0,0.3,8128,0,0,0,0,0,0,0,0,7.2,1.5,-106.4,253.6,Starting Motors,Other,Takeoff (RC Assisted),19,5,TRUE,,Mavic Air,TRUE,FALSE,,Smart,RC,TRUE,TRUE,FALSE,,,TRUE,,FALSE,FALSE,FALSE,FALSE,FALSE,FALSE,FALSE,FALSE,FALSE,FALSE,0,Follow Yaw,0,0,-106.5,253.5,FALSE,FALSE,FALSE,FALSE,FALSE,FALSE,,FALSE,Normal,,,1024,1024,1024,1024,1,FALSE,FALSE,FALSE,FALSE,FALSE,0,FALSE,FALSE,FALSE,FALSE,71,,,,12.043,FALSE,4.029,4.012,4.007,0.022,FALSE,FALSE,,,,,0,23,0,17,10,5382.2,1380.05,,Idle,0,30,FALSE,10,TRUE,,Go Home,39.96130935,-106.2163982,36.6,7949.9,393.7,TRUE,1,1,FALSE,FALSE,FALSE,FALSE,2,TRUE,FALSE,FALSE,Course Lock,98.4,,16.4,Calm,15,, ,,,,,,471.3,9961.3,133.9,43.4,9.2,0,264,,0K1DF2P1BD,,,0K4AEBPA340178,,Android, 4.2.8,,,,,,
15,4/19/2018,05:30.9,0m 5.3s,5.3,39.96126603,-106.2165163,0,0,0.3,8128,0,0,0,0,0,0,0,0,7.2,1.5,-106.4,253.6,Starting Motors,Other,Takeoff (RC Assisted),19,5,TRUE,,Mavic Air,TRUE,FALSE,,Smart,RC,TRUE,TRUE,FALSE,,,TRUE,,FALSE,FALSE,FALSE,FALSE,FALSE,FALSE,FALSE,FALSE,FALSE,FALSE,0,Follow Yaw,0,0,-106.5,253.5,FALSE,FALSE,FALSE,FALSE,FALSE,FALSE,,FALSE,Normal,,,1024,1024,1024,1024,1,FALSE,FALSE,FALSE,FALSE,FALSE,0,FALSE,FALSE,FALSE,FALSE,71,,,,12.034,FALSE,4.024,4.007,4.003,0.022,FALSE,FALSE,,,,,0,23,0,17,10,5382.2,1380.05,,Idle,0,30,FALSE,10,TRUE,,Go Home,39.96130935,-106.2163982,36.6,7949.9,393.7,TRUE,1,1,FALSE,FALSE,FALSE,FALSE,2,TRUE,FALSE,FALSE,Course Lock,98.4,,16.4,Calm,15,, ,,,,,,471.3,9961.3,133.9,43.4,9.2,0,264,,0K1DF2P1BD,,,0K4AEBPA340178,,Android, 4.2.8,,,,,,
16,4/19/2018,05:30.9,0m 5.4s,5.4,39.96126608,-106.2165164,0,0,0.3,8128,0,0,0,0,0,0,0,0,7.2,1.5,-106.4,253.6,Starting Motors,Other,Takeoff (RC Assisted),19,5,TRUE,,Mavic Air,TRUE,FALSE,,Smart,RC,TRUE,TRUE,FALSE,,,TRUE,,FALSE,FALSE,FALSE,FALSE,FALSE,FALSE,FALSE,FALSE,FALSE,FALSE,0,Follow Yaw,0,0,-106.5,253.5,FALSE,FALSE,FALSE,FALSE,FALSE,FALSE,,FALSE,Normal,,,1024,1024,1024,1024,1,FALSE,FALSE,FALSE,FALSE,FALSE,0,FALSE,FALSE,FALSE,FALSE,71,,,,12.034,FALSE,4.024,4.007,4.003,0.022,FALSE,FALSE,,,,,0,23,0,17,10,5382.2,1380.05,,Idle,0,30,FALSE,10,TRUE,,Go Home,39.96130935,-106.2163982,36.6,7949.9,393.7,TRUE,1,1,FALSE,FALSE,FALSE,FALSE,2,TRUE,FALSE,FALSE,Course Lock,98.4,,16.4,Calm,15,, ,,,,,,471.3,9961.3,133.9,43.4,9.2,0,264,,0K1DF2P1BD,,,0K4AEBPA340178,,Android, 4.2.8,,,,,,
17,4/19/2018,05:31.1,0m 5.5s,5.5,39.96126613,-106.2165164,0,0,0.3,8128,0,0,0,0,0,0,0,0,7.2,1.5,-106.4,253.6,Manual Takeoff,Other,Takeoff (RC Assisted),19,5,TRUE,,Mavic Air,TRUE,FALSE,,Smart,RC,TRUE,TRUE,FALSE,,,TRUE,,FALSE,FALSE,FALSE,FALSE,FALSE,FALSE,FALSE,FALSE,FALSE,FALSE,0,Follow Yaw,0,0,-106.5,253.5,FALSE,FALSE,FALSE,FALSE,FALSE,FALSE,,FALSE,Normal,,,1024,1024,1024,1024,1,FALSE,FALSE,FALSE,FALSE,FALSE,0,FALSE,FALSE,FALSE,FALSE,71,,,,12.034,FALSE,4.024,4.007,4.003,0.022,FALSE,FALSE,,,,,0,23,0,17,10,5382.2,1380.05,,Idle,0,30,FALSE,10,TRUE,,Go Home,39.96130935,-106.2163982,36.6,7949.9,393.7,TRUE,1,1,FALSE,FALSE,FALSE,FALSE,2,TRUE,FALSE,FALSE,Course Lock,98.4,,16.4,Calm,15,, ,,,,,,471.3,9961.3,133.9,43.4,9.2,0,264,,0K1DF2P1BD,,,0K4AEBPA340178,,Android, 4.2.8,,,,,Remote controller assisted takeoff initiated.,
18,4/19/2018,05:31.2,0m 5.6s,5.6,39.96126602,-106.2165165,0,0,0.3,8128,0,0,0,0,0,0,0,0,7.2,1.5,-106.4,253.6,Manual Takeoff,Other,Takeoff (RC Assisted),19,5,TRUE,,Mavic Air,TRUE,FALSE,,Smart,RC,TRUE,TRUE,FALSE,,,TRUE,,FALSE,FALSE,FALSE,FALSE,FALSE,FALSE,FALSE,FALSE,FALSE,FALSE,0,Follow Yaw,0,0,-106.5,253.5,FALSE,FALSE,FALSE,FALSE,FALSE,FALSE,,FALSE,Normal,,,1024,1024,1024,1024,1,FALSE,FALSE,FALSE,FALSE,FALSE,0,FALSE,FALSE,FALSE,FALSE,71,,,,12.034,FALSE,4.024,4.007,4.003,0.022,FALSE,FALSE,,,,,0,23,0,17,10,5382.2,1380.05,,Idle,0,30,FALSE,10,TRUE,,Go Home,39.96130935,-106.2163982,36.7,7949.9,393.7,TRUE,1,1,FALSE,FALSE,FALSE,FALSE,2,TRUE,FALSE,FALSE,Course Lock,98.4,,16.4,Calm,15,, ,,,,,,471.3,9961.3,133.9,43.4,9.2,0,264,,0K1DF2P1BD,,,0K4AEBPA340178,,Android, 4.2.8,,,,,,
19,4/19/2018,05:31.3,0m 5.7s,5.7,39.96126606,-106.2165165,0,0,0.3,8128,0,0,0,0,0,0,0,0,7.2,1.5,-106.4,253.6,Manual Takeoff,Other,Takeoff (RC Assisted),19,5,TRUE,,Mavic Air,TRUE,FALSE,,Smart,RC,TRUE,TRUE,FALSE,,,TRUE,,FALSE,FALSE,FALSE,FALSE,FALSE,FALSE,FALSE,FALSE,FALSE,FALSE,0,Follow Yaw,0,0,-106.5,253.5,FALSE,FALSE,FALSE,FALSE,FALSE,FALSE,,FALSE,Normal,,,1024,1024,1684,1024,1,FALSE,FALSE,FALSE,FALSE,FALSE,0,FALSE,FALSE,FALSE,FALSE,71,,,,12.034,FALSE,4.024,4.007,4.003,0.022,FALSE,FALSE,,,,,0,23,0,17,10,5382.2,1380.05,,Idle,0,30,FALSE,10,TRUE,,Go Home,39.96130935,-106.2163982,36.7,7949.9,393.7,TRUE,1,1,FALSE,FALSE,FALSE,FALSE,2,TRUE,FALSE,FALSE,Course Lock,98.4,,16.4,Calm,15,, ,,,,,,471.3,9961.3,133.9,43.4,9.2,0,264,,0K1DF2P1BD,,,0K4AEBPA340178,,Android, 4.2.8,,,,,,
20,4/19/2018,05:31.4,0m 5.8s,5.8,39.96126598,-106.2165165,0,0,0.3,8128,0,0,0,0,0,0,0,0,7.2,1.5,-106.4,253.6,Manual Takeoff,Other,Takeoff (RC Assisted),19,5,TRUE,,Mavic Air,TRUE,FALSE,,Smart,RC,TRUE,TRUE,FALSE,,,TRUE,,FALSE,FALSE,FALSE,FALSE,FALSE,FALSE,FALSE,FALSE,FALSE,FALSE,0,Follow Yaw,0,0,-106.5,253.5,FALSE,FALSE,FALSE,FALSE,FALSE,FALSE,,FALSE,Normal,,,1024,1024,1684,1024,1,FALSE,FALSE,FALSE,FALSE,FALSE,0,FALSE,FALSE,FALSE,FALSE,71,,,,12.034,FALSE,4.024,4.007,4.003,0.022,FALSE,FALSE,,,,,0,23,0,17,10,5382.2,1380.05,,Idle,0,30,FALSE,10,TRUE,,Go Home,39.96130935,-106.2163982,36.7,7949.9,393.7,TRUE,1,1,FALSE,FALSE,FALSE,FALSE,2,TRUE,FALSE,FALSE,Course Lock,98.4,,16.4,Calm,15,, ,,,,,,471.3,9961.3,133.9,43.4,9.2,0,264,,0K1DF2P1BD,,,0K4AEBPA340178,,Android, 4.2.8,,,,,,
21,4/19/2018,05:31.6,0m 5.9s,5.9,39.961266,-106.2165165,0,0,0.3,8128,0,0,0,0,0,0,0,0,7.2,1.5,-106.4,253.6,Manual Takeoff,Other,Takeoff (RC Assisted),19,5,TRUE,,Mavic Air,TRUE,FALSE,,Smart,RC,TRUE,TRUE,FALSE,,,TRUE,,FALSE,FALSE,FALSE,FALSE,FALSE,FALSE,FALSE,FALSE,FALSE,FALSE,0,Follow Yaw,0,0,-106.5,253.5,FALSE,FALSE,FALSE,FALSE,FALSE,FALSE,,FALSE,Normal,,,1024,1024,1684,1024,1,FALSE,FALSE,FALSE,FALSE,FALSE,0,FALSE,FALSE,FALSE,FALSE,71,,,,12.043,FALSE,4.024,4.007,4.003,0.022,FALSE,FALSE,,,,,0,23,0,17,10,5578.5,1430.39,,Idle,0,30,FALSE,10,TRUE,,Go Home,39.96130935,-106.2163982,36.7,7949.9,393.7,TRUE,1,1,FALSE,FALSE,FALSE,FALSE,2,TRUE,FALSE,FALSE,Course Lock,98.4,,16.4,Calm,15,, ,,,,,,471.3,9961.3,133.9,43.4,9.2,0,264,,0K1DF2P1BD,,,0K4AEBPA340178,,Android, 4.2.8,,,,,,
22,4/19/2018,05:31.6,0m 6.0s,6,39.96126579,-106.2165166,0,0,0.3,8128,0,0,0,0,0,0,0,0,7.2,1.5,-106.4,253.6,Manual Takeoff,Other,Takeoff (RC Assisted),19,5,TRUE,,Mavic Air,TRUE,FALSE,,Smart,RC,TRUE,TRUE,FALSE,,,TRUE,,FALSE,FALSE,FALSE,FALSE,FALSE,FALSE,FALSE,FALSE,FALSE,FALSE,0,Follow Yaw,0,0,-106.5,253.5,FALSE,FALSE,FALSE,FALSE,FALSE,FALSE,,FALSE,Normal,,,1024,1024,1684,1024,1,FALSE,FALSE,FALSE,FALSE,FALSE,0,FALSE,FALSE,FALSE,FALSE,71,,,,12.043,FALSE,4.024,4.007,4.003,0.022,FALSE,FALSE,,,,,0,23,0,17,10,5578.5,1430.39,,Idle,0,30,FALSE,10,TRUE,,Go Home,39.96130935,-106.2163982,36.7,7949.9,393.7,TRUE,1,1,FALSE,FALSE,FALSE,FALSE,2,TRUE,FALSE,FALSE,Course Lock,98.4,,16.4,Calm,15,, ,,,,,,471.3,9961.3,133.9,43.4,9.2,0,264,,0K1DF2P1BD,,,0K4AEBPA340178,,Android, 4.2.8,,,,,,
23,4/19/2018,05:31.7,0m 6.1s,6.1,39.96126579,-106.2165166,0,0,0.3,8128,1.1,1.1,0,0,0,0,0,0,7.2,1.5,-106.4,253.6,Manual Takeoff,Other,Takeoff (RC Assisted),19,5,TRUE,,Mavic Air,TRUE,FALSE,,Smart,RC,TRUE,TRUE,FALSE,,,TRUE,,FALSE,FALSE,FALSE,FALSE,FALSE,FALSE,FALSE,FALSE,FALSE,FALSE,0,Follow Yaw,0,0,-106.5,253.5,FALSE,FALSE,FALSE,FALSE,FALSE,FALSE,,FALSE,Normal,,,1024,1024,1684,1024,1,FALSE,FALSE,FALSE,FALSE,FALSE,0,FALSE,FALSE,FALSE,FALSE,71,,,,12.043,FALSE,4.024,4.007,4.003,0.022,FALSE,FALSE,,,,,0,23,0,17,10,5578.5,1430.39,,Idle,0,30,FALSE,10,TRUE,,Go Home,39.96130935,-106.2163982,36.7,7949.9,393.7,TRUE,1,1,FALSE,FALSE,FALSE,FALSE,2,TRUE,FALSE,FALSE,Course Lock,98.4,,16.4,Calm,15,, ,,,,,,471.3,9961.3,133.9,43.4,9.2,0,264,,0K1DF2P1BD,,,0K4AEBPA340178,,Android, 4.2.8,,,,,,
24,4/19/2018,05:31.8,0m 6.2s,6.2,39.96126546,-106.2165167,0,0,0.3,8128,0,1.1,0,0,0,0,0,0,7.2,1.5,-106.4,253.6,Manual Takeoff,Other,Takeoff (RC Assisted),19,5,TRUE,,Mavic Air,TRUE,FALSE,,Smart,RC,TRUE,TRUE,FALSE,,,TRUE,,FALSE,FALSE,FALSE,FALSE,FALSE,FALSE,FALSE,FALSE,FALSE,FALSE,0,Follow Yaw,0,0,-106.5,253.5,FALSE,FALSE,FALSE,FALSE,FALSE,FALSE,,FALSE,Normal,,,1024,1024,1684,1024,1,FALSE,FALSE,FALSE,FALSE,FALSE,0,FALSE,FALSE,FALSE,FALSE,71,,,,12.043,FALSE,4.024,4.007,4.003,0.022,FALSE,FALSE,,,,,0,23,0,17,10,5578.5,1430.39,,Idle,0,30,FALSE,10,TRUE,,Go Home,39.96130935,-106.2163982,36.8,7949.9,393.7,TRUE,1,1,FALSE,FALSE,FALSE,FALSE,2,TRUE,FALSE,FALSE,Course Lock,98.4,,16.4,Calm,15,, ,,,,,,471.3,9961.3,133.9,43.4,9.2,0,264,,0K1DF2P1BD,,,0K4AEBPA340178,,Android, 4.2.8,,,,,,
25,4/19/2018,05:31.9,0m 6.3s,6.3,39.96126542,-106.2165168,0,0,0.3,8128,1.1,1.1,0,0,0,0,0,0,7.3,1.5,-106.4,253.6,Manual Takeoff,Other,Takeoff (RC Assisted),19,5,TRUE,,Mavic Air,TRUE,FALSE,,Smart,RC,TRUE,TRUE,FALSE,,,TRUE,,FALSE,FALSE,FALSE,FALSE,FALSE,FALSE,FALSE,FALSE,FALSE,FALSE,0,Follow Yaw,0,0,-106.5,253.5,FALSE,FALSE,FALSE,FALSE,FALSE,FALSE,,FALSE,Normal,,,1024,1024,1684,1024,1,FALSE,FALSE,FALSE,FALSE,FALSE,0,FALSE,FALSE,FALSE,FALSE,71,,,,12.06,FALSE,4.032,4.017,4.011,0.022,FALSE,FALSE,,,,,0,23,0,17,10,5578.5,1430.39,,Idle,0,30,FALSE,10,TRUE,,Go Home,39.96130935,-106.2163982,36.8,7949.9,393.7,TRUE,1,1,FALSE,FALSE,FALSE,FALSE,2,TRUE,FALSE,FALSE,Course Lock,98.4,,16.4,Calm,15,, ,,,,,,471.3,9961.3,133.9,43.4,9.2,0,264,,0K1DF2P1BD,,,0K4AEBPA340178,,Android, 4.2.8,,,,,,
26,4/19/2018,05:32.0,0m 6.4s,6.4,39.96126562,-106.2165169,0,0,0.3,8128,0,1.1,0,0,0,0,0,0,7.3,1.6,-106.4,253.6,Manual Takeoff,Other,Takeoff (RC Assisted),19,5,TRUE,,Mavic Air,TRUE,FALSE,,Smart,RC,TRUE,TRUE,FALSE,,,TRUE,,FALSE,FALSE,FALSE,FALSE,FALSE,FALSE,FALSE,FALSE,FALSE,FALSE,0,Follow Yaw,0,0,-106.5,253.5,FALSE,FALSE,FALSE,FALSE,FALSE,FALSE,,FALSE,Normal,,,1024,1024,1684,1024,1,FALSE,FALSE,FALSE,FALSE,FALSE,0,FALSE,FALSE,FALSE,FALSE,71,,,,12.06,FALSE,4.032,4.017,4.011,0.022,FALSE,FALSE,,,,,0,23,0,17,10,5578.5,1430.39,,Idle,0,30,FALSE,10,TRUE,,Go Home,39.96130935,-106.2163982,36.8,7949.9,393.7,TRUE,1,1,FALSE,FALSE,FALSE,FALSE,2,TRUE,FALSE,FALSE,Course Lock,98.4,,16.4,Calm,15,, ,,,,,,471.3,9961.3,133.9,43.4,9.2,0,264,,0K1DF2P1BD,,,0K4AEBPA340178,,Android, 4.2.8,,,,,,
27,4/19/2018,05:32.1,0m 6.5s,6.5,39.96126561,-106.2165169,0,0,0.3,8128,0,1.1,0,0,0,0,0,0,7.2,1.5,-107.2,252.8,Manual Takeoff,Other,Takeoff (RC Assisted),19,5,TRUE,,Mavic Air,TRUE,FALSE,,Smart,RC,TRUE,TRUE,FALSE,,,TRUE,,FALSE,FALSE,FALSE,FALSE,FALSE,FALSE,FALSE,FALSE,FALSE,FALSE,0,Follow Yaw,0,0,-106.5,253.5,FALSE,FALSE,FALSE,FALSE,FALSE,FALSE,,FALSE,Normal,,,1024,1024,1684,1024,1,FALSE,FALSE,FALSE,FALSE,FALSE,0,FALSE,FALSE,FALSE,FALSE,71,,,,12.06,FALSE,4.032,4.017,4.011,0.022,FALSE,FALSE,,,,,0,23,0,17,10,5578.5,1430.39,,Idle,0,30,FALSE,10,TRUE,,Go Home,39.96130935,-106.2163982,36.8,7949.9,393.7,TRUE,1,1,FALSE,FALSE,FALSE,FALSE,2,TRUE,FALSE,FALSE,Course Lock,98.4,,16.4,Calm,15,, ,,,,,,471.3,9961.3,133.9,43.4,9.2,0,264,,0K1DF2P1BD,,,0K4AEBPA340178,,Android, 4.2.8,,,,,,
28,4/19/2018,05:32.2,0m 6.6s,6.6,39.96126568,-106.2165168,0,0,0.3,8128,0,1.1,0.2,0.2,0,0,0,0,6.2,3.2,-109,251,Manual Takeoff,Other,Takeoff (RC Assisted),19,5,TRUE,,Mavic Air,TRUE,FALSE,,Smart,RC,TRUE,TRUE,FALSE,,,TRUE,,FALSE,FALSE,FALSE,FALSE,FALSE,FALSE,FALSE,FALSE,FALSE,FALSE,0,Follow Yaw,0,0,-106.5,253.5,FALSE,FALSE,FALSE,FALSE,FALSE,FALSE,,FALSE,Normal,,,1024,1024,1684,1024,1,FALSE,FALSE,FALSE,FALSE,FALSE,0,FALSE,FALSE,FALSE,FALSE,71,,,,12.06,FALSE,4.032,4.017,4.011,0.022,FALSE,FALSE,,,,,0,23,0,17,10,5578.5,1430.39,,Idle,0,30,FALSE,10,TRUE,,Go Home,39.96130935,-106.2163982,36.8,7949.9,393.7,TRUE,1,1,FALSE,FALSE,FALSE,FALSE,2,TRUE,FALSE,FALSE,Course Lock,98.4,,16.4,Calm,15,, ,,,,,,471.3,9961.3,133.9,43.4,9.2,0,264,,0K1DF2P1BD,,,0K4AEBPA340178,,Android, 4.2.8,,,,,,
29,4/19/2018,05:32.3,0m 6.7s,6.7,39.96126582,-106.2165167,0,0,0.3,8128,0,1.1,0.5,0.5,0.2,0.2,-0.2,0,4.9,4.7,-110.2,249.8,Manual Takeoff,Other,,19,5,TRUE,,Mavic Air,TRUE,FALSE,,Smart,RC,FALSE,TRUE,FALSE,,,TRUE,,FALSE,FALSE,FALSE,FALSE,FALSE,FALSE,FALSE,FALSE,FALSE,FALSE,0,Follow Yaw,0,0,-106.8,253.2,FALSE,FALSE,FALSE,FALSE,FALSE,FALSE,,FALSE,Normal,,,1024,1024,1684,1024,1,FALSE,FALSE,FALSE,FALSE,FALSE,0,FALSE,FALSE,FALSE,FALSE,71,,,,12.06,FALSE,4.032,4.017,4.011,0.022,FALSE,FALSE,,,,,0,23,0,17,10,5578.5,1430.39,,Idle,0,30,FALSE,10,TRUE,,Go Home,39.96130935,-106.2163982,36.8,7949.9,393.7,TRUE,1,1,FALSE,FALSE,FALSE,FALSE,2,TRUE,FALSE,FALSE,Course Lock,98.4,,16.4,Calm,15,, ,,,,,,471.3,9961.3,133.9,43.4,9.2,0,264,,0K1DF2P1BD,,,0K4AEBPA340178,,Android, 4.2.8,,,,,,
30,4/19/2018,05:32.4,0m 6.8s,6.8,39.96126626,-106.2165166,0,0,0.3,8128,0,1.1,0.7,0.7,0.2,0.2,-0.7,0,0.3,-0.1,-110,250,P-GPS,Other,,19,5,TRUE,,Mavic Air,TRUE,FALSE,,Smart,RC,FALSE,TRUE,FALSE,,,TRUE,,FALSE,FALSE,FALSE,FALSE,FALSE,FALSE,FALSE,FALSE,FALSE,FALSE,0,Follow Yaw,0,0,-107.1,252.9,FALSE,FALSE,FALSE,FALSE,FALSE,FALSE,,FALSE,Normal,,,1024,1024,1684,1024,1,FALSE,FALSE,FALSE,FALSE,FALSE,0,FALSE,FALSE,FALSE,FALSE,71,,,,12.06,FALSE,4.032,4.017,4.011,0.022,FALSE,FALSE,,,,,0,23,0,17,10,5578.5,1430.39,,Idle,0,30,FALSE,10,TRUE,,Go Home,39.96130935,-106.2163982,36.7,7949.9,393.7,TRUE,1,1,FALSE,FALSE,FALSE,FALSE,2,TRUE,FALSE,FALSE,Course Lock,98.4,,16.4,Calm,15,, ,,,,,,471.3,9961.3,133.9,43.4,9.2,0,264,,0K1DF2P1BD,,,0K4AEBPA340178,,Android, 4.2.8,,,,,,
31,4/19/2018,05:32.6,0m 6.9s,6.9,39.96126658,-106.2165166,0.3,0.3,0.7,8128,0,1.1,0.7,0.7,0.2,0.2,-1.1,0,-2.3,-3.3,-109.9,250.1,P-GPS,Other,,19,5,TRUE,,Mavic Air,TRUE,FALSE,,Smart,RC,FALSE,TRUE,FALSE,,,TRUE,,FALSE,FALSE,FALSE,FALSE,FALSE,FALSE,FALSE,FALSE,FALSE,FALSE,0,Follow Yaw,0,0,-107.4,252.6,FALSE,FALSE,FALSE,FALSE,FALSE,FALSE,,FALSE,Normal,,,1024,1024,1684,1024,1,FALSE,FALSE,FALSE,FALSE,FALSE,0,FALSE,FALSE,FALSE,FALSE,71,,,,11.997,FALSE,4.032,4.017,4.011,0.022,FALSE,FALSE,,,,,0,0,0,15,10,6154.9,1578.18,,Idle,0,30,FALSE,10,TRUE,,Go Home,39.96126577,-106.2165167,0.3,7949.9,393.7,TRUE,1,1,FALSE,FALSE,FALSE,FALSE,2,TRUE,FALSE,FALSE,Course Lock,98.4,,16.4,Calm,15,, ,,,,,,471.3,9961.3,133.9,43.4,9.2,0,264,,0K1DF2P1BD,,,0K4AEBPA340178,,Android, 4.2.8,,,,Home Point Updated.,Home Point recorded. Return-to-Home Altitude:98FT.,
32,4/19/2018,05:32.6,0m 7.0s,7,39.96126716,-106.2165164,0.3,0.3,0.7,8128,0,1.1,0.5,0.7,0,0.2,-1.6,0,-2.5,-2.6,-109.9,250.1,P-GPS,Other,,19,5,TRUE,,Mavic Air,TRUE,FALSE,,Smart,RC,FALSE,TRUE,FALSE,,,TRUE,,FALSE,FALSE,FALSE,FALSE,FALSE,FALSE,FALSE,FALSE,FALSE,FALSE,0,Follow Yaw,0,0,-107.5,252.5,FALSE,FALSE,FALSE,FALSE,FALSE,FALSE,,FALSE,Normal,,,1024,1024,1684,1024,1,FALSE,FALSE,FALSE,FALSE,FALSE,0,FALSE,FALSE,FALSE,FALSE,71,,,,11.997,FALSE,4.032,4.017,4.011,0.022,FALSE,FALSE,,,,,0,0,0,15,10,6154.9,1578.18,,Idle,0,30,FALSE,10,TRUE,,Go Home,39.96126577,-106.2165167,0.4,7949.9,393.7,TRUE,1,1,FALSE,FALSE,FALSE,FALSE,2,TRUE,FALSE,FALSE,Course Lock,98.4,,16.4,Calm,15,, ,,,,,,471.3,9961.3,133.9,43.4,9.2,0,264,,0K1DF2P1BD,,,0K4AEBPA340178,,Android, 4.2.8,,,,,,
33,4/19/2018,05:32.7,0m 7.1s,7.1,39.96126741,-106.2165164,0.7,0.7,1,8129,0,1.1,0.5,0.7,0,0.2,-2,0,-1.5,-2.4,-109.9,250.1,P-GPS,Other,,19,5,TRUE,,Mavic Air,TRUE,FALSE,,Smart,RC,FALSE,TRUE,FALSE,,,TRUE,,FALSE,FALSE,FALSE,FALSE,FALSE,FALSE,FALSE,FALSE,FALSE,FALSE,0,Follow Yaw,0,0,-107.7,252.3,FALSE,FALSE,FALSE,FALSE,FALSE,FALSE,,FALSE,Normal,,,1024,1024,1684,1024,1,FALSE,FALSE,FALSE,FALSE,FALSE,0,FALSE,FALSE,FALSE,FALSE,71,,,,11.997,FALSE,4.032,4.017,4.011,0.022,FALSE,FALSE,,,,,0,0,0,15,10,6154.9,1578.18,,Idle,0,30,FALSE,10,TRUE,,Go Home,39.96126577,-106.2165167,0.6,7949.9,393.7,TRUE,1,1,FALSE,FALSE,FALSE,FALSE,2,TRUE,FALSE,FALSE,Course Lock,98.4,,16.4,Calm,15,, ,,,,,,471.3,9961.3,133.9,43.4,9.2,0,264,,0K1DF2P1BD,,,0K4AEBPA340178,,Android, 4.2.8,,,,,,
34,4/19/2018,05:33.0,0m 7.2s,7.2,39.9612677,-106.2165164,1,1,1.3,8129,0,1.1,0.5,0.7,0,0.2,-2.7,0,0,-2.8,-110,250,P-GPS,Other,,19,5,TRUE,,Mavic Air,TRUE,FALSE,,Smart,RC,FALSE,TRUE,FALSE,,,TRUE,,FALSE,FALSE,FALSE,FALSE,FALSE,FALSE,FALSE,FALSE,FALSE,FALSE,0,Follow Yaw,0,0,-107.8,252.2,FALSE,FALSE,FALSE,FALSE,FALSE,FALSE,,FALSE,Normal,,,1024,1024,1684,1024,1,FALSE,FALSE,FALSE,FALSE,FALSE,0,FALSE,FALSE,FALSE,FALSE,71,,,,11.997,FALSE,4.032,4.017,4.011,0.022,FALSE,FALSE,,,,,0,0,0,15,10,6154.9,1578.18,,Idle,0,30,FALSE,10,TRUE,,Go Home,39.96126577,-106.2165167,0.7,7949.9,393.7,TRUE,1,1,FALSE,FALSE,FALSE,FALSE,2,TRUE,FALSE,FALSE,Course Lock,98.4,,16.4,Calm,15,, ,,,,,,471.3,9961.3,133.9,43.4,9.2,0,264,,0K1DF2P1BD,,,0K4AEBPA340178,,Android, 4.2.8,,,,,,
35,4/19/2018,05:33.1,0m 7.3s,7.3,39.96126792,-106.2165164,1.3,1.3,1.6,8129,0,1.1,0.5,0.7,0,0.2,-3.1,0,0.1,-3.5,-110,250,P-GPS,Other,,19,5,TRUE,,Mavic Air,TRUE,FALSE,,Smart,RC,FALSE,TRUE,FALSE,,,TRUE,,FALSE,FALSE,FALSE,FALSE,FALSE,FALSE,FALSE,FALSE,FALSE,FALSE,0,Follow Yaw,0,0,-108,252,FALSE,FALSE,FALSE,FALSE,FALSE,FALSE,,FALSE,Normal,,,1024,1024,1684,1024,1,FALSE,FALSE,FALSE,FALSE,FALSE,0,FALSE,FALSE,FALSE,FALSE,71,,,,11.997,FALSE,4.032,4.017,4.011,0.022,FALSE,FALSE,,,,,0,0,0,15,10,6154.9,1578.18,,Idle,0,30,FALSE,10,TRUE,,Go Home,39.96126577,-106.2165167,0.8,7949.9,393.7,TRUE,1,1,FALSE,FALSE,FALSE,FALSE,2,TRUE,FALSE,FALSE,Course Lock,98.4,,16.4,Calm,15,, ,,,,,,471.3,9961.3,133.9,43.4,9.2,0,264,,0K1DF2P1BD,,,0K4AEBPA340178,,Android, 4.2.8,,,,,,
36,4/19/2018,05:33.3,0m 7.4s,7.4,39.96126789,-106.2165165,2,2,2.3,8130,0,1.1,0.2,0.7,0,0.2,-3.6,0,0.3,-3.5,-109.9,250.1,P-GPS,Other,,19,5,TRUE,,Mavic Air,TRUE,FALSE,,Smart,RC,FALSE,TRUE,FALSE,,,TRUE,,FALSE,FALSE,FALSE,FALSE,FALSE,FALSE,FALSE,FALSE,FALSE,FALSE,0,Follow Yaw,0,0,-108.1,251.9,FALSE,FALSE,FALSE,FALSE,FALSE,FALSE,,FALSE,Normal,,,1024,1024,1684,1024,1,FALSE,FALSE,FALSE,FALSE,FALSE,0,FALSE,FALSE,FALSE,FALSE,71,,,,11.997,FALSE,4.032,4.017,4.011,0.022,FALSE,FALSE,,,,,0,0,0,15,10,6154.9,1578.18,,Idle,0,30,FALSE,10,TRUE,,Go Home,39.96126577,-106.2165167,0.8,7949.9,393.7,TRUE,1,1,FALSE,FALSE,FALSE,FALSE,2,TRUE,FALSE,FALSE,Course Lock,98.4,,16.4,Calm,15,, ,,,,,,471.3,9961.3,133.9,43.4,9.2,0,264,,0K1DF2P1BD,,,0K4AEBPA340178,,Android, 4.2.8,,,,,,
37,4/19/2018,05:33.4,0m 7.5s,7.5,39.96126804,-106.2165165,2.6,2.6,3,8131,0,1.1,0.2,0.7,0,0.2,-4,0,0,-3.7,-110,250,P-GPS,Other,,19,5,TRUE,,Mavic Air,TRUE,FALSE,,Smart,RC,FALSE,TRUE,FALSE,,,TRUE,,FALSE,FALSE,FALSE,FALSE,FALSE,FALSE,FALSE,FALSE,FALSE,FALSE,0,Follow Yaw,0,0,-108.1,251.9,FALSE,FALSE,FALSE,FALSE,FALSE,FALSE,,FALSE,Normal,,,1024,1024,1684,1024,1,FALSE,FALSE,FALSE,FALSE,FALSE,0,FALSE,FALSE,FALSE,FALSE,71,,,,11.997,FALSE,4.032,4.017,4.011,0.022,FALSE,FALSE,,,,,0,0,0,15,10,6154.9,1578.18,,Idle,0,30,FALSE,10,TRUE,,Go Home,39.96126577,-106.2165167,0.8,7949.9,393.7,TRUE,1,1,FALSE,FALSE,FALSE,FALSE,2,TRUE,FALSE,FALSE,Course Lock,98.4,,16.4,Calm,15,, ,,,,,,471.3,9961.3,133.9,43.4,9.2,0,264,,0K1DF2P1BD,,,0K4AEBPA340178,,Android, 4.2.8,,,,,,
38,4/19/2018,05:33.5,0m 7.7s,7.7,39.9612681,-106.2165168,3.9,3.9,3.9,8132,0,1.1,0.2,0.7,0,0.2,-4.5,0,-1,-3.6,-110,250,P-GPS,Other,,19,5,TRUE,,Mavic Air,TRUE,FALSE,,Smart,RC,FALSE,TRUE,FALSE,,,TRUE,,FALSE,FALSE,FALSE,FALSE,FALSE,FALSE,FALSE,FALSE,FALSE,FALSE,0,Follow Yaw,0,0,-108.3,251.7,FALSE,FALSE,FALSE,FALSE,FALSE,FALSE,,FALSE,Normal,,,1024,1024,1684,1024,1,FALSE,FALSE,FALSE,FALSE,FALSE,0,FALSE,FALSE,FALSE,FALSE,71,,,,11.997,FALSE,4.032,4.017,4.011,0.022,FALSE,FALSE,,,,,0,0,0,15,10,6154.9,1578.18,,Idle,0,30,FALSE,10,TRUE,,Go Home,39.96126577,-106.2165167,0.8,7949.9,393.7,TRUE,1,1,FALSE,FALSE,FALSE,FALSE,2,TRUE,FALSE,FALSE,Course Lock,98.4,,16.4,Calm,15,, ,,,,,,471.3,9961.3,133.9,43.4,9.2,0,264,,0K1DF2P1BD,,,0K4AEBPA340178,,Android, 4.2.8,,,,,,
39,4/19/2018,05:33.5,0m 7.8s,7.8,39.96126829,-106.2165166,4.6,4.6,4.6,8133,0,1.1,0.2,0.7,0,0.2,-4.7,0,-1.1,-3.8,-109.9,250.1,P-GPS,Other,,19,5,TRUE,,Mavic Air,TRUE,FALSE,,Smart,RC,FALSE,TRUE,FALSE,,,TRUE,,FALSE,FALSE,FALSE,FALSE,FALSE,FALSE,FALSE,FALSE,FALSE,FALSE,0,Follow Yaw,0,0,-108.4,251.6,FALSE,FALSE,FALSE,FALSE,FALSE,FALSE,,FALSE,Normal,,,1024,1024,1684,1024,1,FALSE,FALSE,FALSE,FALSE,FALSE,0,FALSE,FALSE,FALSE,FALSE,71,,,,11.808,FALSE,3.965,3.927,3.916,0.049,FALSE,FALSE,,,,,0,0,0,15,10,6154.9,1578.18,,Idle,0,30,FALSE,10,TRUE,,Go Home,39.96126577,-106.2165167,0.9,7949.9,393.7,TRUE,1,1,FALSE,FALSE,FALSE,FALSE,2,TRUE,FALSE,FALSE,Course Lock,98.4,,16.4,Calm,15,, ,,,,,,471.3,9961.3,133.9,43.4,9.2,0,264,,0K1DF2P1BD,,,0K4AEBPA340178,,Android, 4.2.8,,,,,,
40,4/19/2018,05:33.7,0m 7.9s,7.9,39.96126837,-106.2165167,5.2,5.2,5.2,8133,0,1.1,0.2,0.7,0,0.2,-4.7,0,-1.4,-3.6,-109.9,250.1,P-GPS,Other,,19,5,TRUE,,Mavic Air,TRUE,FALSE,,Smart,RC,FALSE,TRUE,FALSE,,,TRUE,,FALSE,FALSE,FALSE,FALSE,FALSE,FALSE,FALSE,FALSE,FALSE,FALSE,0,Follow Yaw,0,0,-108.5,251.5,FALSE,FALSE,FALSE,FALSE,FALSE,FALSE,,FALSE,Normal,,,1024,1024,1682,1024,1,FALSE,FALSE,FALSE,FALSE,FALSE,0,FALSE,FALSE,FALSE,FALSE,71,,,,11.867,FALSE,3.965,3.927,3.916,0.049,FALSE,FALSE,,,,,0,0,0,15,10,7252.6,1859.65,,Idle,0,30,FALSE,10,TRUE,,Go Home,39.96126577,-106.2165167,1,7949.9,393.7,TRUE,1,1,FALSE,FALSE,FALSE,FALSE,2,TRUE,FALSE,FALSE,Course Lock,98.4,,16.4,Calm,15,, ,,,,,,471.3,9961.3,133.9,43.4,9.2,0,264,,0K1DF2P1BD,,,0K4AEBPA340178,,Android, 4.2.8,,,,,,
41,4/19/2018,05:33.7,0m 8.0s,8,39.96126848,-106.2165171,5.9,5.9,5.9,8134,0,1.1,0.2,0.7,0,0.2,-4.7,0,-1.7,-3.9,-109.8,250.2,P-GPS,Other,,19,5,TRUE,,Mavic Air,TRUE,FALSE,,Smart,RC,FALSE,TRUE,FALSE,,,TRUE,,FALSE,FALSE,FALSE,FALSE,FALSE,FALSE,FALSE,FALSE,FALSE,FALSE,0,Follow Yaw,0,0,-108.5,251.5,FALSE,FALSE,FALSE,FALSE,FALSE,FALSE,,FALSE,Normal,,,1024,1024,1376,1024,1,FALSE,FALSE,FALSE,FALSE,FALSE,0,FALSE,FALSE,FALSE,FALSE,71,,,,11.867,FALSE,3.965,3.927,3.916,0.049,FALSE,FALSE,,,,,0,0,0,15,10,7252.6,1859.65,,Idle,0,30,FALSE,10,TRUE,,Go Home,39.96126577,-106.2165167,1,7949.9,393.7,TRUE,1,1,FALSE,FALSE,FALSE,FALSE,2,TRUE,FALSE,FALSE,Course Lock,98.4,,16.4,Calm,15,, ,,,,,,471.3,9961.3,133.9,43.4,9.2,0,264,,0K1DF2P1BD,,,0K4AEBPA340178,,Android, 4.2.8,,,,,,
42,4/19/2018,05:33.9,0m 8.1s,8.1,39.96126856,-106.2165172,6.6,6.6,6.9,8135,0,1.1,0.2,0.7,0,0.2,-4.7,0,-1.8,-4.7,-109.9,250.1,P-GPS,Other,,19,5,TRUE,,Mavic Air,TRUE,FALSE,,Smart,RC,FALSE,TRUE,FALSE,,,TRUE,,FALSE,FALSE,FALSE,FALSE,FALSE,FALSE,FALSE,FALSE,FALSE,FALSE,0,Follow Yaw,0,0,-108.6,251.4,FALSE,FALSE,FALSE,FALSE,FALSE,FALSE,,FALSE,Normal,,,1024,1024,1376,1024,1,FALSE,FALSE,FALSE,FALSE,FALSE,0,FALSE,FALSE,FALSE,FALSE,71,,,,11.867,FALSE,3.965,3.927,3.916,0.049,FALSE,FALSE,,,,,0,0,0,15,10,7252.6,1859.65,,Idle,0,30,FALSE,10,TRUE,,Go Home,39.96126577,-106.2165167,1,7949.9,393.7,TRUE,1,1,FALSE,FALSE,FALSE,FALSE,2,TRUE,FALSE,FALSE,Course Lock,98.4,,16.4,Calm,15,, ,,,,,,471.3,9961.3,133.9,43.4,9.2,0,264,,0K1DF2P1BD,,,0K4AEBPA340178,,Android, 4.2.8,,,,,,
43,4/19/2018,05:33.9,0m 8.2s,8.2,39.96126877,-106.2165171,7.2,7.2,7.5,8135,0,1.1,0.2,0.7,0,0.2,-4.5,0,-1.7,-6.4,-110,250,P-GPS,Other,,19,5,TRUE,,Mavic Air,TRUE,FALSE,,Smart,RC,FALSE,TRUE,FALSE,,,TRUE,,FALSE,FALSE,FALSE,FALSE,FALSE,FALSE,FALSE,FALSE,FALSE,FALSE,0,Follow Yaw,0,0,-108.7,251.3,FALSE,FALSE,FALSE,FALSE,FALSE,FALSE,,FALSE,Normal,,,1024,1024,1024,1024,1,FALSE,FALSE,FALSE,FALSE,FALSE,0,FALSE,FALSE,FALSE,FALSE,71,,,,11.867,FALSE,3.965,3.927,3.916,0.049,FALSE,FALSE,,,,,0,0,0,15,10,7252.6,1859.65,,Idle,0,30,FALSE,10,TRUE,,Go Home,39.96126577,-106.2165167,1.1,7949.9,393.7,TRUE,1,1,FALSE,FALSE,FALSE,FALSE,2,TRUE,FALSE,FALSE,Course Lock,98.4,,16.4,Calm,15,, ,,,,,,471.3,9961.3,133.9,43.4,9.2,0,264,,0K1DF2P1BD,,,0K4AEBPA340178,,Android, 4.2.8,,,,,,
44,4/19/2018,05:34.0,0m 8.3s,8.3,39.96126881,-106.2165173,7.9,7.9,8.5,8136,0,1.1,0.2,0.7,0,0.2,-3.8,0,-1.3,-6.5,-110.1,249.9,P-GPS,Other,,19,5,TRUE,,Mavic Air,TRUE,FALSE,,Smart,RC,FALSE,TRUE,FALSE,,,TRUE,,FALSE,FALSE,FALSE,FALSE,FALSE,FALSE,FALSE,FALSE,FALSE,FALSE,0,Follow Yaw,0,0,-108.7,251.3,FALSE,FALSE,FALSE,FALSE,FALSE,FALSE,,FALSE,Normal,,,1024,1024,1024,1024,1,FALSE,FALSE,FALSE,FALSE,FALSE,0,FALSE,FALSE,FALSE,FALSE,71,,,,11.867,FALSE,3.965,3.927,3.916,0.049,FALSE,FALSE,,,,,0,0,0,15,10,7252.6,1859.65,,Idle,0,30,FALSE,10,TRUE,,Go Home,39.96126577,-106.2165167,1.1,7949.9,393.7,TRUE,1,1,FALSE,FALSE,FALSE,FALSE,2,TRUE,FALSE,FALSE,Course Lock,98.4,,16.4,Calm,15,, ,,,,,,471.3,9961.3,133.9,43.4,9.2,0,264,,0K1DF2P1BD,,,0K4AEBPA340178,,Android, 4.2.8,,,,,,
45,4/19/2018,05:34.1,0m 8.4s,8.4,39.96126885,-106.2165173,8.5,8.5,9.2,8137,0,1.1,0,0.7,0,0.2,-3.1,0,-1.7,-5.9,-110,250,P-GPS,Other,,19,5,TRUE,,Mavic Air,TRUE,FALSE,,Smart,RC,FALSE,TRUE,FALSE,,,TRUE,,FALSE,FALSE,FALSE,FALSE,FALSE,FALSE,FALSE,FALSE,FALSE,FALSE,0,Follow Yaw,0,0,-108.8,251.2,FALSE,FALSE,FALSE,FALSE,FALSE,FALSE,,FALSE,Normal,,,1024,1024,1024,1024,1,FALSE,FALSE,FALSE,FALSE,FALSE,0,FALSE,FALSE,FALSE,FALSE,71,,,,11.867,FALSE,3.965,3.927,3.916,0.049,FALSE,FALSE,,,,,0,0,0,15,10,7252.6,1859.65,,Idle,0,30,FALSE,10,TRUE,,Go Home,39.96126577,-106.2165167,1.1,7949.9,393.7,TRUE,1,1,FALSE,FALSE,FALSE,FALSE,2,TRUE,FALSE,FALSE,Course Lock,98.4,,16.4,Calm,15,, ,,,,,,471.3,9961.3,133.9,43.4,9.2,0,264,,0K1DF2P1BD,,,0K4AEBPA340178,,Android, 4.2.8,,,,,,
46,4/19/2018,05:34.1,0m 8.5s,8.5,39.96126886,-106.2165174,8.9,8.9,9.8,8137,0,1.1,0,0.7,0,0.2,-2.2,0,-1.7,-5.1,-110,250,P-GPS,Other,,19,5,TRUE,,Mavic Air,TRUE,FALSE,,Smart,RC,FALSE,TRUE,FALSE,,,TRUE,,FALSE,FALSE,FALSE,FALSE,FALSE,FALSE,FALSE,FALSE,FALSE,FALSE,0,Follow Yaw,0,0,-108.8,251.2,FALSE,FALSE,FALSE,FALSE,FALSE,FALSE,,FALSE,Normal,,,1024,1024,1024,1024,1,FALSE,FALSE,FALSE,FALSE,FALSE,0,FALSE,FALSE,FALSE,FALSE,71,,,,11.853,FALSE,3.966,3.933,3.954,0.049,FALSE,FALSE,,,,,0,0,0,15,10,7252.6,1859.65,,Idle,0,30,FALSE,10,TRUE,,Go Home,39.96126577,-106.2165167,1.2,7949.9,393.7,TRUE,1,1,FALSE,FALSE,FALSE,FALSE,2,TRUE,FALSE,FALSE,Course Lock,98.4,,16.4,Calm,15,, ,,,,,,471.3,9961.3,133.9,43.4,9.2,0,264,,0K1DF2P1BD,,,0K4AEBPA340178,,Android, 4.2.8,,,,,,
47,4/19/2018,05:34.3,0m 8.6s,8.6,39.96126893,-106.2165176,9.2,9.2,10.5,8137,0,1.1,0,0.7,0,0.2,-1.3,0,-1.4,-5.1,-110,250,P-GPS,Other,,19,5,TRUE,,Mavic Air,TRUE,FALSE,,Smart,RC,FALSE,TRUE,FALSE,,,TRUE,,FALSE,FALSE,FALSE,FALSE,FALSE,FALSE,FALSE,FALSE,FALSE,FALSE,0,Follow Yaw,0,0,-108.9,251.1,FALSE,FALSE,FALSE,FALSE,FALSE,FALSE,,FALSE,Normal,,,1024,1024,1024,1024,1,FALSE,FALSE,FALSE,FALSE,FALSE,0,FALSE,FALSE,FALSE,FALSE,71,,,,11.853,FALSE,3.966,3.933,3.954,0.049,FALSE,FALSE,,,,,0,0,0,15,10,7252.6,1859.65,,Idle,0,30,FALSE,10,TRUE,,Go Home,39.96126577,-106.2165167,1.2,7949.9,393.7,TRUE,1,1,FALSE,FALSE,FALSE,FALSE,2,TRUE,FALSE,FALSE,Course Lock,98.4,,16.4,Calm,15,, ,,,,,,471.3,9961.3,133.9,43.4,9.2,0,264,,0K1DF2P1BD,,,0K4AEBPA340178,,Android, 4.2.8,,,,,,
48,4/19/2018,05:34.3,0m 8.7s,8.7,39.96126894,-106.2165178,9.2,9.2,10.8,8137,0,1.1,0,0.7,0,0.2,-0.7,0,-0.8,-5,-110,250,P-GPS,Other,,19,5,TRUE,,Mavic Air,TRUE,FALSE,,Smart,RC,FALSE,TRUE,FALSE,,,TRUE,,FALSE,FALSE,FALSE,FALSE,FALSE,FALSE,FALSE,FALSE,FALSE,FALSE,0,Follow Yaw,0,0,-108.9,251.1,FALSE,FALSE,FALSE,FALSE,FALSE,FALSE,,FALSE,Normal,,,1024,1024,1024,1024,1,FALSE,FALSE,FALSE,FALSE,FALSE,0,FALSE,FALSE,FALSE,FALSE,71,,,,11.853,FALSE,3.966,3.933,3.954,0.049,FALSE,FALSE,,,,,0,0,0,15,10,7252.6,1859.65,,Idle,0,30,FALSE,10,TRUE,,Go Home,39.96126577,-106.2165167,1.2,7949.9,393.7,TRUE,1,1,FALSE,FALSE,FALSE,FALSE,2,TRUE,FALSE,FALSE,Course Lock,98.4,,16.4,Calm,15,, ,,,,,,471.3,9961.3,133.9,43.4,9.2,0,264,,0K1DF2P1BD,,,0K4AEBPA340178,,Android, 4.2.8,,,,,,
49,4/19/2018,05:34.4,0m 8.8s,8.8,39.9612693,-106.216518,9.2,9.2,10.8,8137,1.5,1.5,0,0.7,-0.2,0.2,0,0,0.1,-4.7,-110,250,P-GPS,Other,,19,5,TRUE,,Mavic Air,TRUE,FALSE,,Smart,RC,FALSE,TRUE,FALSE,,,TRUE,,FALSE,FALSE,FALSE,FALSE,FALSE,FALSE,FALSE,FALSE,FALSE,FALSE,0,Follow Yaw,0,0,-109,251,FALSE,FALSE,FALSE,FALSE,FALSE,FALSE,,FALSE,Normal,,,1024,1024,1024,1024,1,FALSE,FALSE,FALSE,FALSE,FALSE,0,FALSE,FALSE,FALSE,FALSE,71,,,,11.853,FALSE,3.966,3.933,3.954,0.049,FALSE,FALSE,,,,,0,0,0,15,10,7252.6,1859.65,,Idle,0,30,FALSE,10,TRUE,,Go Home,39.96126577,-106.2165167,1.3,7949.9,393.7,TRUE,1,1,FALSE,FALSE,FALSE,FALSE,2,TRUE,FALSE,FALSE,Course Lock,98.4,,16.4,Calm,15,, ,,,,,,471.3,9961.3,133.9,43.4,9.2,0,264,,0K1DF2P1BD,,,0K4AEBPA340178,,Android, 4.2.8,,,,,,
50,4/19/2018,05:34.5,0m 8.9s,8.9,39.96126934,-106.2165182,9.2,9.2,11.2,8137,0,1.5,0,0.7,-0.2,0.2,0,0,0.4,-4.4,-110,250,P-GPS,Other,,19,5,TRUE,,Mavic Air,TRUE,FALSE,,Smart,RC,FALSE,TRUE,FALSE,,,TRUE,,FALSE,FALSE,FALSE,FALSE,FALSE,FALSE,FALSE,FALSE,FALSE,FALSE,0,Follow Yaw,0,0,-109,251,FALSE,FALSE,FALSE,FALSE,FALSE,FALSE,,FALSE,Normal,,,1024,1024,1024,1024,1,FALSE,FALSE,FALSE,FALSE,FALSE,0,FALSE,FALSE,FALSE,FALSE,71,,,,11.809,FALSE,3.966,3.933,3.954,0.049,FALSE,FALSE,,,,,0,0,1,15,10,9457,2424.87,,Idle,0,30,FALSE,10,TRUE,,Go Home,39.96126577,-106.2165167,1.3,7949.9,393.7,TRUE,1,1,FALSE,FALSE,FALSE,FALSE,2,TRUE,FALSE,FALSE,Course Lock,98.4,,16.4,Calm,15,, ,,,,,,471.3,9961.3,133.9,43.4,9.2,0,264,,0K1DF2P1BD,,,0K4AEBPA340178,,Android, 4.2.8,,,,,,
51,4/19/2018,05:34.7,0m 9.0s,9,39.96126956,-106.2165184,9.2,9.2,11.2,8137,1.1,1.5,0,0.7,-0.2,0.2,0.2,0.2,1.3,-4.9,-109.6,250.4,P-GPS,Other,,19,5,TRUE,,Mavic Air,TRUE,FALSE,,Smart,RC,FALSE,TRUE,FALSE,,,TRUE,,FALSE,FALSE,FALSE,FALSE,FALSE,FALSE,FALSE,FALSE,FALSE,FALSE,0,Follow Yaw,0,0,-109,251,FALSE,FALSE,FALSE,FALSE,FALSE,FALSE,,FALSE,Normal,,,1024,1024,1024,1024,1,FALSE,FALSE,FALSE,FALSE,FALSE,0,FALSE,FALSE,FALSE,FALSE,71,,,,11.809,FALSE,3.966,3.933,3.954,0.049,FALSE,FALSE,,,,,0,0,1,15,10,9457,2424.87,,Idle,0,30,FALSE,10,TRUE,,Go Home,39.96126577,-106.2165167,1.4,7949.9,393.7,TRUE,1,1,FALSE,FALSE,FALSE,FALSE,2,TRUE,FALSE,FALSE,Course Lock,98.4,,16.4,Calm,15,, ,,,,,,471.3,9961.3,133.9,43.4,9.2,0,264,,0K1DF2P1BD,,,0K4AEBPA340178,,Android, 4.2.8,,,,,,
52,4/19/2018,05:34.7,0m 9.1s,9.1,39.96126963,-106.2165185,9.2,9.2,11.2,8137,0,1.5,0,0.7,-0.2,0.2,0.2,0.2,1.4,-5.7,-109.1,250.9,P-GPS,Other,,19,5,TRUE,,Mavic Air,TRUE,FALSE,,Smart,RC,FALSE,TRUE,FALSE,,,TRUE,,FALSE,FALSE,FALSE,FALSE,FALSE,FALSE,FALSE,FALSE,FALSE,FALSE,0,Follow Yaw,0,0,-109,251,FALSE,FALSE,FALSE,FALSE,FALSE,FALSE,,FALSE,Normal,,,1024,1024,1024,1024,1,FALSE,FALSE,FALSE,FALSE,FALSE,0,FALSE,FALSE,FALSE,FALSE,71,,,,11.809,FALSE,3.966,3.933,3.954,0.049,FALSE,FALSE,,,,,0,0,1,15,10,9457,2424.87,,Idle,0,30,FALSE,10,TRUE,,Go Home,39.96126577,-106.2165167,1.5,7949.9,393.7,TRUE,1,1,FALSE,FALSE,FALSE,FALSE,2,TRUE,FALSE,FALSE,Course Lock,98.4,,16.4,Calm,15,, ,,,,,,471.3,9961.3,133.9,43.4,9.2,0,264,,0K1DF2P1BD,,,0K4AEBPA340178,,Android, 4.2.8,,,,,,
53,4/19/2018,05:34.9,0m 9.2s,9.2,39.96126938,-106.2165184,9.2,9.2,11.2,8137,0,1.5,0,0.7,-0.2,0.2,0.2,0.2,1.8,-5.1,-108.9,251.1,P-GPS,Other,,19,5,TRUE,,Mavic Air,TRUE,FALSE,,Smart,RC,FALSE,TRUE,FALSE,,,TRUE,,FALSE,FALSE,FALSE,FALSE,FALSE,FALSE,FALSE,FALSE,FALSE,FALSE,0,Follow Yaw,0,0,-109,251,FALSE,FALSE,FALSE,FALSE,FALSE,FALSE,,FALSE,Normal,,,1024,1024,1024,986,1,FALSE,FALSE,FALSE,FALSE,FALSE,0,FALSE,FALSE,FALSE,FALSE,71,,,,11.809,FALSE,3.966,3.933,3.954,0.049,FALSE,FALSE,,,,,0,0,1,15,10,9457,2424.87,,Idle,0,30,FALSE,10,TRUE,,Go Home,39.96126577,-106.2165167,1.4,7949.9,393.7,TRUE,1,1,FALSE,FALSE,FALSE,FALSE,2,TRUE,FALSE,FALSE,Course Lock,98.4,,16.4,Calm,15,, ,,,,,,471.3,9961.3,133.9,43.4,9.2,0,264,,0K1DF2P1BD,,,0K4AEBPA340178,,Android, 4.2.8,,,,,,
54,4/19/2018,05:35.0,0m 9.3s,9.3,39.96126941,-106.2165185,8.9,9.2,10.8,8137,0,1.5,0,0.7,0,0.2,0.2,0.2,1.8,-4.8,-109,251,P-GPS,Other,,19,5,TRUE,,Mavic Air,TRUE,FALSE,,Smart,RC,FALSE,TRUE,FALSE,,,TRUE,,FALSE,FALSE,FALSE,FALSE,FALSE,FALSE,FALSE,FALSE,FALSE,FALSE,0,Follow Yaw,0,0,-109,251,FALSE,FALSE,FALSE,FALSE,FALSE,FALSE,,FALSE,Normal,,,1024,1024,1024,631,1,FALSE,FALSE,FALSE,FALSE,FALSE,0,FALSE,FALSE,FALSE,FALSE,71,,,,11.809,FALSE,3.966,3.933,3.954,0.049,FALSE,FALSE,,,,,0,0,1,15,10,9457,2424.87,,Idle,0,30,FALSE,10,TRUE,,Go Home,39.96126577,-106.2165167,1.4,7949.9,393.7,TRUE,1,1,FALSE,FALSE,FALSE,FALSE,2,TRUE,FALSE,FALSE,Course Lock,98.4,,16.4,Calm,15,, ,,,,,,471.3,9961.3,133.9,43.4,9.2,0,264,,0K1DF2P1BD,,,0K4AEBPA340178,,Android, 4.2.8,,,,,,
55,4/19/2018,05:35.0,0m 9.4s,9.4,39.96126935,-106.2165185,8.9,9.2,10.8,8137,0,1.5,0,0.7,0,0.2,0,0.2,1.8,-4.8,-109,251,P-GPS,Other,,19,5,TRUE,,Mavic Air,TRUE,FALSE,,Smart,RC,FALSE,TRUE,FALSE,,,TRUE,,FALSE,FALSE,FALSE,FALSE,FALSE,FALSE,FALSE,FALSE,FALSE,FALSE,0,Follow Yaw,0,0,-109,251,FALSE,FALSE,FALSE,FALSE,FALSE,FALSE,,FALSE,Normal,,,1024,1024,1024,386,1,FALSE,FALSE,FALSE,FALSE,FALSE,0,FALSE,FALSE,FALSE,FALSE,71,,,,11.809,FALSE,3.966,3.933,3.954,0.049,FALSE,FALSE,,,,,0,0,1,15,10,9457,2424.87,,Idle,0,30,FALSE,10,TRUE,,Go Home,39.96126577,-106.2165167,1.4,7949.9,393.7,TRUE,1,1,FALSE,FALSE,FALSE,FALSE,2,TRUE,FALSE,FALSE,Course Lock,98.4,,16.4,Calm,15,, ,,,,,,471.3,9961.3,133.9,43.4,9.2,0,264,,0K1DF2P1BD,,,0K4AEBPA340178,,Android, 4.2.8,,,,,,
56,4/19/2018,05:35.1,0m 9.5s,9.5,39.96126938,-106.2165186,8.9,9.2,10.8,8137,0,1.5,0,0.7,0,0.2,0,0.2,2.1,-4.6,-109.5,250.5,P-GPS,Other,,19,5,TRUE,,Mavic Air,TRUE,FALSE,,Smart,RC,FALSE,TRUE,FALSE,,,TRUE,,FALSE,FALSE,FALSE,FALSE,FALSE,FALSE,FALSE,FALSE,FALSE,FALSE,0,Follow Yaw,0,0,-109.9,250.1,FALSE,FALSE,FALSE,FALSE,FALSE,FALSE,,FALSE,Normal,,,1024,1024,1024,386,1,FALSE,FALSE,FALSE,FALSE,FALSE,0,FALSE,FALSE,FALSE,FALSE,71,,,,11.826,FALSE,3.968,3.933,3.925,0.049,FALSE,FALSE,,,,,0,0,1,15,10,9457,2424.87,,Idle,0,30,FALSE,10,TRUE,,Go Home,39.96126577,-106.2165167,1.4,7949.9,393.7,TRUE,1,1,FALSE,FALSE,FALSE,FALSE,2,TRUE,FALSE,FALSE,Course Lock,98.4,,16.4,Calm,15,, ,,,,,,471.3,9961.3,133.9,43.4,9.2,0,264,,0K1DF2P1BD,,,0K4AEBPA340178,,Android, 4.2.8,,,,,,
57,4/19/2018,05:35.2,0m 9.6s,9.6,39.96126934,-106.2165187,8.9,9.2,10.5,8137,0,1.5,0,0.7,0,0.2,0,0.2,1.3,-4.7,-112.3,247.7,P-GPS,Other,,19,5,TRUE,,Mavic Air,TRUE,FALSE,,Smart,RC,FALSE,TRUE,FALSE,,,TRUE,,FALSE,FALSE,FALSE,FALSE,FALSE,FALSE,FALSE,FALSE,FALSE,FALSE,0,Follow Yaw,0,0,-114.7,245.3,FALSE,FALSE,FALSE,FALSE,FALSE,FALSE,,FALSE,Normal,,,1024,1024,1024,385,1,FALSE,FALSE,FALSE,FALSE,FALSE,0,FALSE,FALSE,FALSE,FALSE,71,,,,11.826,FALSE,3.968,3.933,3.925,0.049,FALSE,FALSE,,,,,0,0,1,15,10,9457,2424.87,,Idle,0,30,FALSE,10,TRUE,,Go Home,39.96126577,-106.2165167,1.4,7949.9,393.7,TRUE,1,1,FALSE,FALSE,FALSE,FALSE,2,TRUE,FALSE,FALSE,Course Lock,98.4,,16.4,Calm,15,, ,,,,,,471.3,9961.3,133.9,43.4,9.2,0,264,,0K1DF2P1BD,,,0K4AEBPA340178,,Android, 4.2.8,,,,,,
58,4/19/2018,05:35.4,0m 9.7s,9.7,39.96126938,-106.2165186,8.9,9.2,10.5,8137,0,1.5,0,0.7,0,0.2,0,0.2,0.6,-4.7,-118.3,241.7,P-GPS,Other,,19,5,TRUE,,Mavic Air,TRUE,FALSE,,Smart,RC,FALSE,TRUE,FALSE,,,TRUE,,FALSE,FALSE,FALSE,FALSE,FALSE,FALSE,FALSE,FALSE,FALSE,FALSE,0,Follow Yaw,0,0,-122.3,237.7,FALSE,FALSE,FALSE,FALSE,FALSE,FALSE,,FALSE,Normal,,,1024,1024,1024,385,1,FALSE,FALSE,FALSE,FALSE,FALSE,0,FALSE,FALSE,FALSE,FALSE,71,,,,11.826,FALSE,3.968,3.933,3.925,0.049,FALSE,FALSE,,,,,0,0,1,15,10,9457,2424.87,,Idle,0,30,FALSE,10,TRUE,,Go Home,39.96126577,-106.2165167,1.4,7949.9,393.7,TRUE,1,1,FALSE,FALSE,FALSE,FALSE,2,TRUE,FALSE,FALSE,Course Lock,98.4,,16.4,Calm,15,, ,,,,,,471.3,9961.3,133.9,43.4,9.2,0,264,,0K1DF2P1BD,,,0K4AEBPA340178,,Android, 4.2.8,,,,,,
59,4/19/2018,05:35.7,0m 9.8s,9.8,39.96126937,-106.2165186,8.9,9.2,10.8,8137,0,1.5,0,0.7,0,0.2,0,0.2,1.1,-5.5,-125.8,234.2,P-GPS,Other,,19,5,TRUE,,Mavic Air,TRUE,FALSE,,Smart,RC,FALSE,TRUE,FALSE,,,TRUE,,FALSE,FALSE,FALSE,FALSE,FALSE,FALSE,FALSE,FALSE,FALSE,FALSE,0,Follow Yaw,0,0,-129.9,230.1,FALSE,FALSE,FALSE,FALSE,FALSE,FALSE,,FALSE,Normal,,,1024,1024,1024,385,1,FALSE,FALSE,FALSE,FALSE,FALSE,0,FALSE,FALSE,FALSE,FALSE,71,,,,11.826,FALSE,3.968,3.933,3.925,0.049,FALSE,FALSE,,,,,0,0,1,15,10,9457,2424.87,,Idle,0,30,FALSE,10,TRUE,,Go Home,39.96126577,-106.2165167,1.4,7949.9,393.7,TRUE,1,1,FALSE,FALSE,FALSE,FALSE,2,TRUE,FALSE,FALSE,Course Lock,98.4,,16.4,Calm,15,, ,,,,,,471.3,9961.3,133.9,43.4,9.2,0,264,,0K1DF2P1BD,,,0K4AEBPA340178,,Android, 4.2.8,,,,,,
60,4/19/2018,05:35.9,0m 10.1s,10.1,39.96126944,-106.2165184,9.2,9.2,10.8,8137,0,1.5,0,0.7,0.2,0.2,-0.2,0.2,-1.1,-5.4,-148.9,211.1,P-GPS,Other,,19,5,TRUE,,Mavic Air,TRUE,FALSE,,Smart,RC,FALSE,TRUE,FALSE,,,TRUE,,FALSE,FALSE,FALSE,FALSE,FALSE,FALSE,FALSE,FALSE,FALSE,FALSE,0,Follow Yaw,0,0,-152.9,207.1,FALSE,FALSE,FALSE,FALSE,FALSE,FALSE,,FALSE,Normal,,,1024,1024,1024,396,1,FALSE,FALSE,FALSE,FALSE,FALSE,0,FALSE,FALSE,FALSE,FALSE,71,,,,11.826,FALSE,3.968,3.933,3.925,0.049,FALSE,FALSE,,,,,0,0,1,15,10,9457,2424.87,,Idle,0,30,FALSE,10,TRUE,,Go Home,39.96126577,-106.2165167,1.4,7949.9,393.7,TRUE,1,1,FALSE,FALSE,FALSE,FALSE,2,TRUE,FALSE,FALSE,Course Lock,98.4,,16.4,Calm,15,, ,,,,,,471.3,9961.3,133.9,43.4,9.2,0,264,,0K1DF2P1BD,,,0K4AEBPA340178,,Android, 4.2.8,,,,,,
61,4/19/2018,05:35.9,0m 10.2s,10.2,39.96126949,-106.2165182,9.2,9.2,10.8,8137,0,1.5,0,0.7,0.2,0.2,-0.2,0.2,-4.2,-1.4,-156.3,203.7,P-GPS,Other,,19,5,TRUE,,Mavic Air,TRUE,FALSE,,Smart,RC,FALSE,TRUE,FALSE,,,TRUE,,FALSE,FALSE,FALSE,FALSE,FALSE,FALSE,FALSE,FALSE,FALSE,FALSE,0,Follow Yaw,0,0,-160.6,199.4,FALSE,FALSE,FALSE,FALSE,FALSE,FALSE,,FALSE,Normal,,,1024,1024,1024,953,1,FALSE,FALSE,FALSE,FALSE,FALSE,0,FALSE,FALSE,FALSE,FALSE,71,,,,11.826,FALSE,3.968,3.933,3.925,0.049,FALSE,FALSE,,,,,0,0,1,15,10,9457,2424.87,,Idle,0,30,FALSE,10,TRUE,,Go Home,39.96126577,-106.2165167,1.4,7949.9,393.7,TRUE,1,1,FALSE,FALSE,FALSE,FALSE,2,TRUE,FALSE,FALSE,Course Lock,98.4,,16.4,Calm,15,, ,,,,,,471.3,9961.3,133.9,43.4,9.2,0,264,,0K1DF2P1BD,,,0K4AEBPA340178,,Android, 4.2.8,,,,,,
62,4/19/2018,05:36.0,0m 10.3s,10.3,39.96126955,-106.2165181,9.2,9.2,10.8,8137,0,1.5,0,0.7,0.2,0.2,0,0.2,-3.3,-1.7,-163.9,196.1,P-GPS,Other,,19,5,TRUE,,Mavic Air,TRUE,FALSE,,Smart,RC,FALSE,TRUE,FALSE,,,TRUE,,FALSE,FALSE,FALSE,FALSE,FALSE,FALSE,FALSE,FALSE,FALSE,FALSE,0,Follow Yaw,0,0,-168.2,191.8,FALSE,FALSE,FALSE,FALSE,FALSE,FALSE,,FALSE,Normal,,,1024,1024,1024,1024,1,FALSE,FALSE,FALSE,FALSE,FALSE,0,FALSE,FALSE,FALSE,FALSE,71,,,,11.826,FALSE,3.968,3.933,3.925,0.049,FALSE,FALSE,,,,,0,0,1,15,10,9457,2424.87,,Idle,0,30,FALSE,10,TRUE,,Go Home,39.96126577,-106.2165167,1.4,7949.9,393.7,TRUE,1,1,FALSE,FALSE,FALSE,FALSE,2,TRUE,FALSE,FALSE,Course Lock,98.4,,16.4,Calm,15,, ,,,,,,471.3,9961.3,133.9,43.4,9.2,0,264,,0K1DF2P1BD,,,0K4AEBPA340178,,Android, 4.2.8,,,,,,
63,4/19/2018,05:36.1,0m 10.4s,10.4,39.96126941,-106.2165176,9.2,9.2,10.8,8137,0,1.5,0,0.7,0,0.2,0,0.2,-2.2,-3.2,-169.7,190.3,P-GPS,Other,,19,5,TRUE,,Mavic Air,TRUE,FALSE,,Smart,RC,FALSE,TRUE,FALSE,,,TRUE,,FALSE,FALSE,FALSE,FALSE,FALSE,FALSE,FALSE,FALSE,FALSE,FALSE,0,Follow Yaw,0,0,-171.8,188.2,FALSE,FALSE,FALSE,FALSE,FALSE,FALSE,,FALSE,Normal,,,1024,1024,1024,1024,1,FALSE,FALSE,FALSE,FALSE,FALSE,0,FALSE,FALSE,FALSE,FALSE,71,,,,11.826,FALSE,3.968,3.933,3.925,0.049,FALSE,FALSE,,,,,0,0,1,15,10,9457,2424.87,,Idle,0,30,FALSE,10,TRUE,,Go Home,39.96126577,-106.2165167,1.4,7949.9,393.7,TRUE,1,1,FALSE,FALSE,FALSE,FALSE,2,TRUE,FALSE,FALSE,Course Lock,98.4,,16.4,Calm,15,, ,,,,,,471.3,9961.3,133.9,43.4,9.2,0,264,,0K1DF2P1BD,,,0K4AEBPA340178,,Android, 4.2.8,,,,,,
64,4/19/2018,05:36.2,0m 10.5s,10.5,39.96126947,-106.2165175,9.2,9.2,11.2,8137,0,1.5,0,0.7,0.2,0.2,0,0.2,-3.1,-3.7,-171.6,188.4,P-GPS,Other,,19,5,TRUE,,Mavic Air,TRUE,FALSE,,Smart,RC,FALSE,TRUE,FALSE,,,TRUE,,FALSE,FALSE,FALSE,FALSE,FALSE,FALSE,FALSE,FALSE,FALSE,FALSE,0,Follow Yaw,0,0,-171.9,188.1,FALSE,FALSE,FALSE,FALSE,FALSE,FALSE,,FALSE,Normal,,,1024,1024,1024,1024,1,FALSE,FALSE,FALSE,FALSE,FALSE,0,FALSE,FALSE,FALSE,FALSE,71,,,,11.837,FALSE,3.969,3.94,3.928,0.049,FALSE,FALSE,,,,,0,0,1,15,10,9457,2424.87,,Idle,0,30,FALSE,10,TRUE,,Go Home,39.96126577,-106.2165167,1.4,7949.9,393.7,TRUE,1,1,FALSE,FALSE,FALSE,FALSE,2,TRUE,FALSE,FALSE,Course Lock,98.4,,16.4,Calm,15,, ,,,,,,471.3,9961.3,133.9,43.4,9.2,0,264,,0K1DF2P1BD,,,0K4AEBPA340178,,Android, 4.2.8,,,,,,
65,4/19/2018,05:36.3,0m 10.6s,10.6,39.96126935,-106.2165173,9.2,9.2,11.5,8137,0,1.5,0,0.7,0.2,0.2,0,0.2,-4.3,-2.5,-171.9,188.1,P-GPS,Other,,19,5,TRUE,,Mavic Air,TRUE,FALSE,,Smart,RC,FALSE,TRUE,FALSE,,,TRUE,,FALSE,FALSE,FALSE,FALSE,FALSE,FALSE,FALSE,FALSE,FALSE,FALSE,0,Follow Yaw,0,0,-171.9,188.1,FALSE,FALSE,FALSE,FALSE,FALSE,FALSE,,FALSE,Normal,,,1024,1024,1024,1024,1,FALSE,FALSE,FALSE,FALSE,FALSE,0,FALSE,FALSE,FALSE,FALSE,71,,,,11.837,FALSE,3.969,3.94,3.928,0.049,FALSE,FALSE,,,,,0,0,1,15,10,9457,2424.87,,Idle,0,30,FALSE,10,TRUE,,Go Home,39.96126577,-106.2165167,1.3,7949.9,393.7,TRUE,1,1,FALSE,FALSE,FALSE,FALSE,2,TRUE,FALSE,FALSE,Course Lock,98.4,,16.4,Calm,15,, ,,,,,,471.3,9961.3,133.9,43.4,9.2,0,264,,0K1DF2P1BD,,,0K4AEBPA340178,,Android, 4.2.8,,,,,,
66,4/19/2018,05:36.3,0m 10.7s,10.7,39.96126941,-106.2165171,9.2,9.2,11.5,8137,0,1.5,0,0.7,0.2,0.2,0,0.2,-4.8,-2.2,-172,188,P-GPS,Other,,19,5,TRUE,,Mavic Air,TRUE,FALSE,,Smart,RC,FALSE,TRUE,FALSE,,,TRUE,,FALSE,FALSE,FALSE,FALSE,FALSE,FALSE,FALSE,FALSE,FALSE,FALSE,0,Follow Yaw,0,0,-171.9,188.1,FALSE,FALSE,FALSE,FALSE,FALSE,FALSE,,FALSE,Normal,,,1024,1024,1024,1024,1,FALSE,FALSE,FALSE,FALSE,FALSE,0,FALSE,FALSE,FALSE,FALSE,71,,,,11.837,FALSE,3.969,3.94,3.928,0.049,FALSE,FALSE,,,,,0,0,1,15,10,9457,2424.87,,Idle,0,30,FALSE,10,TRUE,,Go Home,39.96126577,-106.2165167,1.3,7949.9,393.7,TRUE,1,1,FALSE,FALSE,FALSE,FALSE,2,TRUE,FALSE,FALSE,Course Lock,98.4,,16.4,Calm,15,, ,,,,,,471.3,9961.3,133.9,43.4,9.2,0,264,,0K1DF2P1BD,,,0K4AEBPA340178,,Android, 4.2.8,,,,,,
67,4/19/2018,05:36.5,0m 10.8s,10.8,39.9612697,-106.2165171,9.2,9.2,11.5,8137,0,1.5,0,0.7,0.2,0.2,0,0.2,-4.8,-1.6,-171.9,188.1,P-GPS,Other,,19,5,TRUE,,Mavic Air,TRUE,FALSE,,Smart,RC,FALSE,TRUE,FALSE,,,TRUE,,FALSE,FALSE,FALSE,FALSE,FALSE,FALSE,FALSE,FALSE,FALSE,FALSE,0,Follow Yaw,0,0,-171.9,188.1,FALSE,FALSE,FALSE,FALSE,FALSE,FALSE,,FALSE,Normal,,,1024,1024,1024,1024,1,FALSE,FALSE,FALSE,FALSE,FALSE,0,FALSE,FALSE,FALSE,FALSE,71,,,,11.837,FALSE,3.969,3.94,3.928,0.049,FALSE,FALSE,,,,,0,0,1,15,10,9457,2424.87,,Idle,0,30,FALSE,10,TRUE,,Go Home,39.96126577,-106.2165167,1.4,7949.9,393.7,TRUE,1,1,FALSE,FALSE,FALSE,FALSE,2,TRUE,FALSE,FALSE,Course Lock,98.4,,16.4,Calm,15,, ,,,,,,471.3,9961.3,133.9,43.4,9.2,0,264,,0K1DF2P1BD,,,0K4AEBPA340178,,Android, 4.2.8,,,,,,
68,4/19/2018,05:36.6,0m 10.9s,10.9,39.96126975,-106.2165169,9.2,9.2,11.5,8137,0,1.5,0,0.7,0.2,0.2,0,0.2,-5.7,0.1,-172,188,P-GPS,Other,,19,5,TRUE,,Mavic Air,TRUE,FALSE,,Smart,RC,FALSE,TRUE,FALSE,,,TRUE,,FALSE,FALSE,FALSE,FALSE,FALSE,FALSE,FALSE,FALSE,FALSE,FALSE,0,Follow Yaw,0,0,-171.9,188.1,FALSE,FALSE,FALSE,FALSE,FALSE,FALSE,,FALSE,Normal,,,1024,1024,1024,472,1,FALSE,FALSE,FALSE,FALSE,FALSE,0,FALSE,FALSE,FALSE,FALSE,71,,,,11.837,FALSE,3.969,3.94,3.928,0.049,FALSE,FALSE,,,,,0,0,1,15,10,15828.9,4058.69,,Idle,0,30,FALSE,10,TRUE,,Go Home,39.96126577,-106.2165167,1.5,7949.9,393.7,TRUE,1,1,FALSE,FALSE,FALSE,FALSE,2,TRUE,FALSE,FALSE,Course Lock,98.4,,16.4,Calm,15,, ,,,,,,471.3,9961.3,133.9,43.4,9.2,0,264,,0K1DF2P1BD,,,0K4AEBPA340178,,Android, 4.2.8,,,,,,
69,4/19/2018,05:36.7,0m 11.0s,11,39.96127003,-106.2165171,9.2,9.2,11.5,8137,0,1.5,0,0.7,0,0.2,0,0.2,-5,-0.1,-172,188,P-GPS,Other,,19,5,TRUE,,Mavic Air,TRUE,FALSE,,Smart,RC,FALSE,TRUE,FALSE,,,TRUE,,FALSE,FALSE,FALSE,FALSE,FALSE,FALSE,FALSE,FALSE,FALSE,FALSE,0,Follow Yaw,0,0,-171.9,188.1,FALSE,FALSE,FALSE,FALSE,FALSE,FALSE,,FALSE,Normal,,,1024,1024,1024,472,1,FALSE,FALSE,FALSE,FALSE,FALSE,0,FALSE,FALSE,FALSE,FALSE,71,,,,11.837,FALSE,3.969,3.94,3.928,0.049,FALSE,FALSE,,,,,0,0,1,15,10,15828.9,4058.69,,Idle,0,30,FALSE,10,TRUE,,Go Home,39.96126577,-106.2165167,1.5,7949.9,393.7,TRUE,1,1,FALSE,FALSE,FALSE,FALSE,2,TRUE,FALSE,FALSE,Course Lock,98.4,,16.4,Calm,15,, ,,,,,,471.3,9961.3,133.9,43.4,9.2,0,264,,0K1DF2P1BD,,,0K4AEBPA340178,,Android, 4.2.8,,,,,,
70,4/19/2018,05:36.8,0m 11.1s,11.1,39.96127007,-106.2165171,9.2,9.2,11.5,8137,0,1.5,0,0.7,0,0.2,0,0.2,-4.4,-1.6,-172.1,187.9,P-GPS,Other,,19,5,TRUE,,Mavic Air,TRUE,FALSE,,Smart,RC,FALSE,TRUE,FALSE,,,TRUE,,FALSE,FALSE,FALSE,FALSE,FALSE,FALSE,FALSE,FALSE,FALSE,FALSE,0,Follow Yaw,0,0,-172.2,187.8,FALSE,FALSE,FALSE,FALSE,FALSE,FALSE,,FALSE,Normal,,,1024,1024,1024,1024,1,FALSE,FALSE,FALSE,FALSE,FALSE,0,FALSE,FALSE,FALSE,FALSE,71,,,,11.837,FALSE,3.969,3.94,3.928,0.049,FALSE,FALSE,,,,,0,0,1,15,10,15828.9,4058.69,,Idle,0,30,FALSE,10,TRUE,,Go Home,39.96126577,-106.2165167,1.6,7949.9,393.7,TRUE,1,1,FALSE,FALSE,FALSE,FALSE,2,TRUE,FALSE,FALSE,Course Lock,98.4,,16.4,Calm,15,, ,,,,,,471.3,9961.3,133.9,43.4,9.2,0,264,,0K1DF2P1BD,,,0K4AEBPA340178,,Android, 4.2.8,,,,,,
71,4/19/2018,05:36.9,0m 11.2s,11.2,39.9612703,-106.2165173,9.2,9.2,11.5,8137,0,1.5,0,0.7,0,0.2,0,0.2,-5.1,-1.4,-174.6,185.4,P-GPS,Other,,19,5,TRUE,,Mavic Air,TRUE,FALSE,,Smart,RC,FALSE,TRUE,FALSE,,,TRUE,,FALSE,FALSE,FALSE,FALSE,FALSE,FALSE,FALSE,FALSE,FALSE,FALSE,0,Follow Yaw,0,0,-176.9,183.1,FALSE,FALSE,FALSE,FALSE,FALSE,FALSE,,FALSE,Normal,,,1024,1024,1024,1024,1,FALSE,FALSE,FALSE,FALSE,FALSE,0,FALSE,FALSE,FALSE,FALSE,71,,,,11.837,FALSE,3.969,3.94,3.928,0.049,FALSE,FALSE,,,,,0,0,1,15,10,15828.9,4058.69,,Idle,0,30,FALSE,10,TRUE,,Go Home,39.96126577,-106.2165167,1.7,7949.9,393.7,TRUE,1,1,FALSE,FALSE,FALSE,FALSE,2,TRUE,FALSE,FALSE,Course Lock,98.4,,16.4,Calm,15,, ,,,,,,471.3,9961.3,133.9,43.4,9.2,0,264,,0K1DF2P1BD,,,0K4AEBPA340178,,Android, 4.2.8,,,,,,
72,4/19/2018,05:36.9,0m 11.3s,11.3,39.96127036,-106.2165174,9.2,9.2,11.5,8137,0,1.5,0,0.7,0,0.2,0,0.2,-5.3,-1.7,179.9,179.9,P-GPS,Other,,19,5,TRUE,,Mavic Air,TRUE,FALSE,,Smart,RC,FALSE,TRUE,FALSE,,,TRUE,,FALSE,FALSE,FALSE,FALSE,FALSE,FALSE,FALSE,FALSE,FALSE,FALSE,0,Follow Yaw,0,0,176.5,176.5,FALSE,FALSE,FALSE,FALSE,FALSE,FALSE,,FALSE,Normal,,,1024,1024,1024,1024,1,FALSE,FALSE,FALSE,FALSE,FALSE,0,FALSE,FALSE,FALSE,FALSE,71,,,,11.837,FALSE,3.969,3.94,3.928,0.049,FALSE,FALSE,,,,,0,0,1,15,10,15828.9,4058.69,,Idle,0,30,FALSE,10,TRUE,,Go Home,39.96126577,-106.2165167,1.7,7949.9,393.7,TRUE,1,1,FALSE,FALSE,FALSE,FALSE,2,TRUE,FALSE,FALSE,Course Lock,98.4,,16.4,Calm,15,, ,,,,,,471.3,9961.3,133.9,43.4,9.2,0,264,,0K1DF2P1BD,,,0K4AEBPA340178,,Android, 4.2.8,,,,,,
73,4/19/2018,05:37.0,0m 11.4s,11.4,39.96127049,-106.216518,9.2,9.2,11.5,8137,1.1,1.5,0,0.7,0,0.2,0,0.2,-5.2,-3,176.6,176.6,P-GPS,Other,,19,5,TRUE,,Mavic Air,TRUE,FALSE,,Smart,RC,FALSE,TRUE,FALSE,,,TRUE,,FALSE,FALSE,FALSE,FALSE,FALSE,FALSE,FALSE,FALSE,FALSE,FALSE,0,Follow Yaw,0,0,175.7,175.7,FALSE,FALSE,FALSE,FALSE,FALSE,FALSE,,FALSE,Normal,,,1024,1024,1024,1024,1,FALSE,FALSE,FALSE,FALSE,FALSE,0,FALSE,FALSE,FALSE,FALSE,71,,,,11.833,FALSE,3.968,3.939,3.926,0.049,FALSE,FALSE,,,,,0,0,1,15,10,15828.9,4058.69,,Idle,0,30,FALSE,10,TRUE,,Go Home,39.96126577,-106.2165167,1.7,7949.9,393.7,TRUE,1,1,FALSE,FALSE,FALSE,FALSE,2,TRUE,FALSE,FALSE,Course Lock,98.4,,16.4,Calm,15,, ,,,,,,471.3,9961.3,133.9,43.4,9.2,0,264,,0K1DF2P1BD,,,0K4AEBPA340178,,Android, 4.2.8,,,,,,
