#,CUSTOM.date [local], CUSTOM.updateTime [local], OSD.flyTime, OSD.flyTime [s], OSD.latitude, OSD.longitude, OSD.height [ft], OSD.heightMax [ft], OSD.vpsHeight [ft], OSD.altitude [ft], OSD.hSpeed [MPH], OSD.hSpeedMax [MPH], OSD.xSpeed [MPH], OSD.xSpeedMax [MPH], OSD.ySpeed [MPH], OSD.ySpeedMax [MPH], OSD.zSpeed [MPH], OSD.zSpeedMax [MPH], OSD.pitch, OSD.roll, OSD.yaw, OSD.yaw [360], OSD.flycState, OSD.flycCommand, OSD.flightAction, OSD.gpsNum, OSD.gpsLevel, OSD.isGPSUsed, OSD.nonGPSCause, OSD.droneType, OSD.isSwaveWork, OSD.waveError, OSD.goHomeStatus, OSD.batteryType, OSD.ctrlDevice, OSD.isOnGround, OSD.isMotorOn, OSD.isMotorBlocked, OSD.motorStartFailedCause, OSD.motorFailReason, OSD.isImuPreheated, OSD.imuInitFailReason, OSD.isAcceletorOverRange, OSD.isBarometerDeadInAir, OSD.isCompassError, OSD.isGoHomeHeightModified, OSD.canIOCWork, OSD.isNotEnoughForce, OSD.isOutOfLimit, OSD.isPropellerCatapult, OSD.isVibrating, OSD.isVisionUsed, OSD.voltageWarning, GIMBAL.mode, GIMBAL.pitch, GIMBAL.roll, GIMBAL.yaw, GIMBAL.yaw [360], GIMBAL.isPitchAtLimit, GIMBAL.isRollAtLimit, GIMBAL.isYawAtLimit, GIMBAL.isStuck, CAMERA.isPhoto, CAMERA.isVideo, CAMERA.filename, CAMERA.sdCardIsInserted, CAMERA.sdCardState, RC.downlinkSignal, RC.uplinkSignal, RC.aileron, RC.elevator, RC.throttle, RC.rudder, RC.mode, RC.goHomeDepressed, RC.recordDepressed, RC.shutterDepressed, RC.playbackDepressed, RC.wheelDepressed, RC.wheelOffset, RC.custom1Depressed, RC.custom2Depressed, RC.custom3Depressed, RC.custom4Depressed, BATTERY.chargeLevel, BATTERY.currentPV [V], BATTERY.currentCapacity [mAh], BATTERY.fullCapacity [mAh], BATTERY.voltage [V], BATTERY.isCellVoltageEstimated, BATTERY.cellVoltage1 [V], BATTERY.cellVoltage2 [V], BATTERY.cellVoltage3 [V], BATTERY.maxCellVoltageDeviation, BATTERY.isCellVoltageDeviationHigh, BATTERY.isVoltageLow, BATTERY.current [A], BATTERY.temperature [F], BATTERY.minTemperature [F], BATTERY.maxTemperature [F], BATTERY.usefulTime [s], BATTERY.goHomeTime [s], BATTERY.landTime [s], BATTERY.goHomeBattery, BATTERY.landBattery, BATTERY.safeFlyRadius, BATTERY.volumeConsume, BATTERY.status, BATTERY.goHomeStatus, BATTERY.goHomeCountdown, BATTERY.lowWarning, BATTERY.lowWarningGoHome, BATTERY.seriousLowWarning, BATTERY.seriousLowWarningLanding, BATTERY.timesCharged, MC.failSafeAction, HOME.latitude, HOME.longitude, HOME.distance [ft], HOME.height [ft], HOME.heightLimit [ft], HOME.isHomeRecord, HOME.goHomeMode, HOME.aircraftHeadDirection, HOME.isDynamicHomePointEnabled, HOME.isReachedLimitDistance, HOME.isReachedLimitHeight, HOME.isCompassCeleing, HOME.compassCeleStatus, HOME.isMultipleFlightModeEnabled, HOME.isBeginnerMode, HOME.isIOCEnabled, HOME.iocMode, HOME.goHomeHeight [ft], HOME.courseLockAngle, HOME.forceLandingHeight [ft], HOME.wind, HOME.dataRecorderFileIndex, RECOVER.appType, RECOVER.appVersion, RECOVER.aircraftName, RECOVER.aircraftSerial, RECOVER.cameraSerial, RECOVER.rcSerial, RECOVER.batterySerial, DETAILS.totalTime [s], DETAILS.totalDistance [ft], DETAILS.maxHeight [ft], DETAILS.maxHorizontalSpeed [MPH], DETAILS.maxVerticalSpeed [MPH], DETAILS.photoNum, DETAILS.videoTime [s], DETAILS.aircraftName, DETAILS.aircraftSerial, DETAILS.cameraSerial, DETAILS.rcSerial, DETAILS.batterySerial, DETAILS.appName, DETAILS.appType, DETAILS.appVersion, APPGPS.latitude, APPGPS.longitude, APPGPS.accuracy, APP.message, APP.tip, APP.warning
1,4/19/2018,46:28.1,0m 0.7s,0.7,39.96130881,-106.2163991,0,0,0.3,8128,0,0,0,0,0,0,0,0,1.3,10.7,-115.4,244.6,Starting Motors,Other,Takeoff (RC Assisted),17,5,TRUE,,Mavic Air,TRUE,FALSE,,Smart,RC,TRUE,TRUE,FALSE,,,TRUE,,FALSE,FALSE,FALSE,FALSE,FALSE,FALSE,FALSE,FALSE,FALSE,FALSE,0,Follow Yaw,0,1.9,-115.7,244.3,FALSE,FALSE,FALSE,FALSE,FALSE,TRUE,,TRUE,Normal,,,1024,1024,1024,1024,0,FALSE,FALSE,FALSE,FALSE,FALSE,0,FALSE,FALSE,FALSE,FALSE,95,,,,12.521,TRUE,4.174,4.174,4.174,,FALSE,FALSE,,,,,0,0,0,15,10,4935.6,1265.53,,Idle,0,30,FALSE,10,TRUE,,Go Home,39.96130823,-106.2164016,0.7,7938.4,393.7,TRUE,1,1,FALSE,FALSE,FALSE,FALSE,0,TRUE,FALSE,FALSE,Course Lock,98.4,,16.4,Calm,12,Android, 4.2.8,dronefo...-Mavic Air,0K1DF2P1BD65JJ,,,0K4AEBPA340178,44.5,25.9,16.1,5.7,8.7,0,44,dronefo...-Mavic Air,0K1DF2P1BD65JJ,,,0K4AEBPA340178,,Android, 4.2.8,,,,Data Recorder File Index is 12.,,
2,4/19/2018,46:28.2,0m 0.8s,0.8,39.96130879,-106.2163993,0,0,0.3,8128,0,0,0,0,0,0,0,0,1.3,10.7,-115.4,244.6,Starting Motors,Other,Takeoff (RC Assisted),17,5,TRUE,,Mavic Air,TRUE,FALSE,,Smart,RC,TRUE,TRUE,FALSE,,,TRUE,,FALSE,FALSE,FALSE,FALSE,FALSE,FALSE,FALSE,FALSE,FALSE,FALSE,0,Follow Yaw,0,2,-115.7,244.3,FALSE,FALSE,FALSE,FALSE,FALSE,TRUE,,TRUE,Normal,,,1024,1024,1024,1024,0,FALSE,FALSE,FALSE,FALSE,FALSE,0,FALSE,FALSE,FALSE,FALSE,95,,,,12.521,TRUE,4.174,4.174,4.174,,FALSE,FALSE,,,,,0,0,0,15,10,4935.6,1265.53,,Idle,0,30,FALSE,10,TRUE,,Go Home,39.96130823,-106.2164016,0.7,7938.4,393.7,TRUE,1,1,FALSE,FALSE,FALSE,FALSE,0,TRUE,FALSE,FALSE,Course Lock,98.4,,16.4,Calm,12,Android, 4.2.8,dronefo...-Mavic Air,0K1DF2P1BD65JJ,,,0K4AEBPA340178,44.5,25.9,16.1,5.7,8.7,0,44,dronefo...-Mavic Air,0K1DF2P1BD65JJ,,,0K4AEBPA340178,,Android, 4.2.8,,,,,,
3,4/19/2018,46:28.3,0m 0.9s,0.9,39.9613088,-106.2163993,0,0,0.3,8128,0,0,0,0,0,0,0,0,1.3,10.7,-115.4,244.6,Starting Motors,Other,Takeoff (RC Assisted),17,5,TRUE,,Mavic Air,TRUE,FALSE,,Smart,RC,TRUE,TRUE,FALSE,,,TRUE,,FALSE,FALSE,FALSE,FALSE,FALSE,FALSE,FALSE,FALSE,FALSE,FALSE,0,Follow Yaw,0,1.9,-115.7,244.3,FALSE,FALSE,FALSE,FALSE,FALSE,TRUE,,TRUE,Normal,,,1024,1024,1024,1024,0,FALSE,FALSE,FALSE,FALSE,FALSE,0,FALSE,FALSE,FALSE,FALSE,95,,,,12.521,TRUE,4.174,4.174,4.174,,FALSE,FALSE,,,,,0,0,0,15,10,4935.6,1265.53,,Idle,0,30,FALSE,10,TRUE,,Go Home,39.96130823,-106.2164016,0.8,7938.4,393.7,TRUE,1,1,FALSE,FALSE,FALSE,FALSE,0,TRUE,FALSE,FALSE,Course Lock,98.4,,16.4,Calm,12,Android, 4.2.8,dronefo...-Mavic Air,0K1DF2P1BD65JJ,,,0K4AEBPA340178,44.5,25.9,16.1,5.7,8.7,0,44,dronefo...-Mavic Air,0K1DF2P1BD65JJ,,,0K4AEBPA340178,,Android, 4.2.8,,,,,,
4,4/19/2018,46:28.4,0m 1.0s,1,39.96130878,-106.2163991,0,0,0.3,8128,0,0,0,0,0,0,0,0,1.3,10.8,-115.4,244.6,Starting Motors,Other,Takeoff (RC Assisted),17,5,TRUE,,Mavic Air,TRUE,FALSE,,Smart,RC,TRUE,TRUE,FALSE,,,TRUE,,FALSE,FALSE,FALSE,FALSE,FALSE,FALSE,FALSE,FALSE,FALSE,FALSE,0,Follow Yaw,0,1.9,-115.7,244.3,FALSE,FALSE,FALSE,FALSE,FALSE,TRUE,,TRUE,Normal,,,1024,1024,1024,1024,0,FALSE,FALSE,FALSE,FALSE,FALSE,0,FALSE,FALSE,FALSE,FALSE,95,,,,12.484,FALSE,4.176,4.155,4.153,0.023,FALSE,FALSE,,,,,0,0,0,15,10,4935.6,1265.53,,Idle,0,30,FALSE,10,TRUE,,Go Home,39.96130823,-106.2164016,0.8,7938.4,393.7,TRUE,1,1,FALSE,FALSE,FALSE,FALSE,0,TRUE,FALSE,FALSE,Course Lock,98.4,,16.4,Calm,12,Android, 4.2.8,dronefo...-Mavic Air,0K1DF2P1BD65JJ,,,0K4AEBPA340178,44.5,25.9,16.1,5.7,8.7,0,44,dronefo...-Mavic Air,0K1DF2P1BD65JJ,,,0K4AEBPA340178,,Android, 4.2.8,,,,,,
5,4/19/2018,46:28.4,0m 1.1s,1.1,39.96130879,-106.2163991,0,0,0.3,8128,0,0,0,0,0,0,0,0,1.3,10.8,-115.4,244.6,Starting Motors,Other,Takeoff (RC Assisted),17,5,TRUE,,Mavic Air,TRUE,FALSE,,Smart,RC,TRUE,TRUE,FALSE,,,TRUE,,FALSE,FALSE,FALSE,FALSE,FALSE,FALSE,FALSE,FALSE,FALSE,FALSE,0,Follow Yaw,0,1.8,-115.7,244.3,FALSE,FALSE,FALSE,FALSE,FALSE,TRUE,,TRUE,Normal,,,1024,1024,1024,1024,0,FALSE,FALSE,FALSE,FALSE,FALSE,0,FALSE,FALSE,FALSE,FALSE,95,,,,12.484,FALSE,4.176,4.155,4.153,0.023,FALSE,FALSE,,,,,0,0,0,15,10,4935.6,1265.53,,Idle,0,30,FALSE,10,TRUE,,Go Home,39.96130823,-106.2164016,0.8,7938.4,393.7,TRUE,1,1,FALSE,FALSE,FALSE,FALSE,0,TRUE,FALSE,FALSE,Course Lock,98.4,,16.4,Calm,12,Android, 4.2.8,dronefo...-Mavic Air,0K1DF2P1BD65JJ,,,0K4AEBPA340178,44.5,25.9,16.1,5.7,8.7,0,44,dronefo...-Mavic Air,0K1DF2P1BD65JJ,,,0K4AEBPA340178,,Android, 4.2.8,,,,,,
6,4/19/2018,46:28.5,0m 1.2s,1.2,39.96130878,-106.2163992,0,0,0.3,8128,0,0,0,0,0,0,0,0,1.3,10.8,-115.4,244.6,Starting Motors,Other,Takeoff (RC Assisted),17,5,TRUE,,Mavic Air,TRUE,FALSE,,Smart,RC,TRUE,TRUE,FALSE,,,TRUE,,FALSE,FALSE,FALSE,FALSE,FALSE,FALSE,FALSE,FALSE,FALSE,FALSE,0,Follow Yaw,0,1.8,-115.7,244.3,FALSE,FALSE,FALSE,FALSE,FALSE,TRUE,,TRUE,Normal,,,1024,1024,1024,1024,0,FALSE,FALSE,FALSE,FALSE,FALSE,0,FALSE,FALSE,FALSE,FALSE,95,,,,12.484,FALSE,4.176,4.155,4.153,0.023,FALSE,FALSE,,,,,0,0,0,15,10,4935.6,1265.53,,Idle,0,30,FALSE,10,TRUE,,Go Home,39.96130823,-106.2164016,0.6,7938.4,393.7,TRUE,1,1,FALSE,FALSE,FALSE,FALSE,0,TRUE,FALSE,FALSE,Course Lock,98.4,,16.4,Calm,12,Android, 4.2.8,dronefo...-Mavic Air,0K1DF2P1BD65JJ,,,0K4AEBPA340178,44.5,25.9,16.1,5.7,8.7,0,44,dronefo...-Mavic Air,0K1DF2P1BD65JJ,,,0K4AEBPA340178,,Android, 4.2.8,,,,,,
7,4/19/2018,46:28.6,0m 1.3s,1.3,39.96130878,-106.2163993,0,0,0.3,8128,0,0,0,0,0,0,0,0,1.3,10.8,-115.4,244.6,Starting Motors,Other,Takeoff (RC Assisted),17,5,TRUE,,Mavic Air,TRUE,FALSE,,Smart,RC,TRUE,TRUE,FALSE,,,TRUE,,FALSE,FALSE,FALSE,FALSE,FALSE,FALSE,FALSE,FALSE,FALSE,FALSE,0,Follow Yaw,0,1.9,-115.7,244.3,FALSE,FALSE,FALSE,FALSE,FALSE,TRUE,,TRUE,Normal,,,1024,1024,1024,1024,0,FALSE,FALSE,FALSE,FALSE,FALSE,0,FALSE,FALSE,FALSE,FALSE,95,,,,12.484,FALSE,4.176,4.155,4.153,0.023,FALSE,FALSE,,,,,0,0,0,15,10,4935.6,1265.53,,Idle,0,30,FALSE,10,TRUE,,Go Home,39.96130823,-106.2164016,0.6,7938.4,393.7,TRUE,1,1,FALSE,FALSE,FALSE,FALSE,0,TRUE,FALSE,FALSE,Course Lock,98.4,,16.4,Calm,12,Android, 4.2.8,dronefo...-Mavic Air,0K1DF2P1BD65JJ,,,0K4AEBPA340178,44.5,25.9,16.1,5.7,8.7,0,44,dronefo...-Mavic Air,0K1DF2P1BD65JJ,,,0K4AEBPA340178,,Android, 4.2.8,,,,,,
8,4/19/2018,46:28.8,0m 1.4s,1.4,39.96130892,-106.2163992,0,0,0.3,8128,0,0,0,0,0,0,0,0,1.3,10.8,-115.4,244.6,Starting Motors,Other,Takeoff (RC Assisted),17,5,TRUE,,Mavic Air,TRUE,FALSE,,Smart,RC,TRUE,TRUE,FALSE,,,TRUE,,FALSE,FALSE,FALSE,FALSE,FALSE,FALSE,FALSE,FALSE,FALSE,FALSE,0,Follow Yaw,0,1.9,-115.7,244.3,FALSE,FALSE,FALSE,FALSE,FALSE,TRUE,,TRUE,Normal,,,1024,1024,1024,1024,0,FALSE,FALSE,FALSE,FALSE,FALSE,0,FALSE,FALSE,FALSE,FALSE,95,,,,12.484,FALSE,4.176,4.155,4.153,0.023,FALSE,FALSE,,,,,0,0,0,15,10,4935.6,1265.53,,Idle,0,30,FALSE,10,TRUE,,Go Home,39.96130823,-106.2164016,0.8,7938.4,393.7,TRUE,1,1,FALSE,FALSE,FALSE,FALSE,0,TRUE,FALSE,FALSE,Course Lock,98.4,,16.4,Calm,12,Android, 4.2.8,dronefo...-Mavic Air,0K1DF2P1BD65JJ,,,0K4AEBPA340178,44.5,25.9,16.1,5.7,8.7,0,44,dronefo...-Mavic Air,0K1DF2P1BD65JJ,,,0K4AEBPA340178,,Android, 4.2.8,,,,,,
9,4/19/2018,46:28.9,0m 1.5s,1.5,39.96130894,-106.2163992,0,0,0.3,8128,0,0,0,0,0,0,0,0,1.3,10.8,-115.4,244.6,Manual Takeoff,Other,Takeoff (RC Assisted),17,5,TRUE,,Mavic Air,TRUE,FALSE,,Smart,RC,TRUE,TRUE,FALSE,,,TRUE,,FALSE,FALSE,FALSE,FALSE,FALSE,FALSE,FALSE,FALSE,FALSE,FALSE,0,Follow Yaw,0,1.9,-115.7,244.3,FALSE,FALSE,FALSE,FALSE,FALSE,TRUE,,TRUE,Normal,,,1024,1024,1024,1024,0,FALSE,FALSE,FALSE,FALSE,FALSE,0,FALSE,FALSE,FALSE,FALSE,95,,,,12.484,FALSE,4.176,4.155,4.153,0.023,FALSE,FALSE,,,,,0,0,0,15,10,4935.6,1265.53,,Idle,0,30,FALSE,10,TRUE,,Go Home,39.96130823,-106.2164016,0.7,7938.4,393.7,TRUE,1,1,FALSE,FALSE,FALSE,FALSE,0,TRUE,FALSE,FALSE,Course Lock,98.4,,16.4,Calm,12,Android, 4.2.8,dronefo...-Mavic Air,0K1DF2P1BD65JJ,,,0K4AEBPA340178,44.5,25.9,16.1,5.7,8.7,0,44,dronefo...-Mavic Air,0K1DF2P1BD65JJ,,,0K4AEBPA340178,,Android, 4.2.8,,,,,Remote controller assisted takeoff initiated.,
10,4/19/2018,46:28.9,0m 1.6s,1.6,39.96130906,-106.2163991,0,0,0.3,8128,0,0,0,0,0,0,0,0,1.3,10.8,-115.4,244.6,Manual Takeoff,Other,Takeoff (RC Assisted),17,5,TRUE,,Mavic Air,TRUE,FALSE,,Smart,RC,TRUE,TRUE,FALSE,,,TRUE,,FALSE,FALSE,FALSE,FALSE,FALSE,FALSE,FALSE,FALSE,FALSE,FALSE,0,Follow Yaw,0,1.9,-115.7,244.3,FALSE,FALSE,FALSE,FALSE,FALSE,TRUE,,TRUE,Normal,,,1024,1024,1024,1024,0,FALSE,FALSE,FALSE,FALSE,FALSE,0,FALSE,FALSE,FALSE,FALSE,95,,,,12.484,FALSE,4.176,4.155,4.153,0.023,FALSE,FALSE,,,,,0,0,0,15,10,4935.6,1265.53,,Idle,0,30,FALSE,10,TRUE,,Go Home,39.96130823,-106.2164016,0.8,7938.4,393.7,TRUE,1,1,FALSE,FALSE,FALSE,FALSE,0,TRUE,FALSE,FALSE,Course Lock,98.4,,16.4,Calm,12,Android, 4.2.8,dronefo...-Mavic Air,0K1DF2P1BD65JJ,,,0K4AEBPA340178,44.5,25.9,16.1,5.7,8.7,0,44,dronefo...-Mavic Air,0K1DF2P1BD65JJ,,,0K4AEBPA340178,,Android, 4.2.8,,,,,,
11,4/19/2018,46:29.1,0m 1.7s,1.7,39.96130909,-106.2163991,0,0,0.3,8128,0,0,0,0,0,0,0,0,1.3,10.8,-115.4,244.6,Manual Takeoff,Other,Takeoff (RC Assisted),17,5,TRUE,,Mavic Air,TRUE,FALSE,,Smart,RC,TRUE,TRUE,FALSE,,,TRUE,,FALSE,FALSE,FALSE,FALSE,FALSE,FALSE,FALSE,FALSE,FALSE,FALSE,0,Follow Yaw,0,1.9,-115.7,244.3,FALSE,FALSE,FALSE,FALSE,FALSE,TRUE,,TRUE,Normal,,,1024,1024,1024,1024,0,FALSE,FALSE,FALSE,FALSE,FALSE,0,FALSE,FALSE,FALSE,FALSE,95,,,,12.541,FALSE,4.176,4.155,4.153,0.023,FALSE,FALSE,,,,,0,0,0,15,10,5357.6,1373.74,,Idle,0,30,FALSE,10,TRUE,,Go Home,39.96130823,-106.2164016,0.9,7938.4,393.7,TRUE,1,1,FALSE,FALSE,FALSE,FALSE,0,TRUE,FALSE,FALSE,Course Lock,98.4,,16.4,Calm,12,Android, 4.2.8,dronefo...-Mavic Air,0K1DF2P1BD65JJ,,,0K4AEBPA340178,44.5,25.9,16.1,5.7,8.7,0,44,dronefo...-Mavic Air,0K1DF2P1BD65JJ,,,0K4AEBPA340178,,Android, 4.2.8,,,,,,
12,4/19/2018,46:29.2,0m 1.8s,1.8,39.96130904,-106.2163991,0,0,0.3,8128,0,0,0,0,0,0,0,0,1.3,10.8,-115.4,244.6,Manual Takeoff,Other,Takeoff (RC Assisted),17,5,TRUE,,Mavic Air,TRUE,FALSE,,Smart,RC,TRUE,TRUE,FALSE,,,TRUE,,FALSE,FALSE,FALSE,FALSE,FALSE,FALSE,FALSE,FALSE,FALSE,FALSE,0,Follow Yaw,0,1.9,-115.7,244.3,FALSE,FALSE,FALSE,FALSE,FALSE,TRUE,,TRUE,Normal,,,1024,1024,1024,1024,0,FALSE,FALSE,FALSE,FALSE,FALSE,0,FALSE,FALSE,FALSE,FALSE,95,,,,12.541,FALSE,4.176,4.155,4.153,0.023,FALSE,FALSE,,,,,0,0,0,15,10,5357.6,1373.74,,Idle,0,30,FALSE,10,TRUE,,Go Home,39.96130823,-106.2164016,0.8,7938.4,393.7,TRUE,1,1,FALSE,FALSE,FALSE,FALSE,0,TRUE,FALSE,FALSE,Course Lock,98.4,,16.4,Calm,12,Android, 4.2.8,dronefo...-Mavic Air,0K1DF2P1BD65JJ,,,0K4AEBPA340178,44.5,25.9,16.1,5.7,8.7,0,44,dronefo...-Mavic Air,0K1DF2P1BD65JJ,,,0K4AEBPA340178,,Android, 4.2.8,,,,,,
13,4/19/2018,46:29.4,0m 1.9s,1.9,39.96130906,-106.2163991,0,0,0.3,8128,0,0,0,0,0,0,0,0,1.3,10.8,-115.4,244.6,Manual Takeoff,Other,Takeoff (RC Assisted),17,5,TRUE,,Mavic Air,TRUE,FALSE,,Smart,RC,TRUE,TRUE,FALSE,,,TRUE,,FALSE,FALSE,FALSE,FALSE,FALSE,FALSE,FALSE,FALSE,FALSE,FALSE,0,Follow Yaw,0,1.9,-115.7,244.3,FALSE,FALSE,FALSE,FALSE,FALSE,TRUE,,TRUE,Normal,,,1024,1024,1024,1024,0,FALSE,FALSE,FALSE,FALSE,FALSE,0,FALSE,FALSE,FALSE,FALSE,95,,,,12.479,FALSE,4.168,4.153,4.158,0.023,FALSE,FALSE,,,,,0,0,0,15,10,5357.6,1373.74,,Idle,0,30,FALSE,10,TRUE,,Go Home,39.96130823,-106.2164016,0.8,7938.4,393.7,TRUE,1,1,FALSE,FALSE,FALSE,FALSE,0,TRUE,FALSE,FALSE,Course Lock,98.4,,16.4,Calm,12,Android, 4.2.8,dronefo...-Mavic Air,0K1DF2P1BD65JJ,,,0K4AEBPA340178,44.5,25.9,16.1,5.7,8.7,0,44,dronefo...-Mavic Air,0K1DF2P1BD65JJ,,,0K4AEBPA340178,,Android, 4.2.8,,,,,,
14,4/19/2018,46:29.5,0m 2.1s,2.1,39.96130904,-106.2163991,0,0,0.3,8128,0,0,0,0,0,0,0,0,1.3,10.8,-115.4,244.6,Manual Takeoff,Other,Takeoff (RC Assisted),17,5,TRUE,,Mavic Air,TRUE,FALSE,,Smart,RC,TRUE,TRUE,FALSE,,,TRUE,,FALSE,FALSE,FALSE,FALSE,FALSE,FALSE,FALSE,FALSE,FALSE,FALSE,0,Follow Yaw,0,1.9,-115.7,244.3,FALSE,FALSE,FALSE,FALSE,FALSE,TRUE,,TRUE,Normal,,,1024,1024,1024,1024,0,FALSE,FALSE,FALSE,FALSE,FALSE,0,FALSE,FALSE,FALSE,FALSE,95,,,,12.479,FALSE,4.168,4.153,4.158,0.023,FALSE,FALSE,,,,,0,0,0,15,10,5357.6,1373.74,,Idle,0,30,FALSE,10,TRUE,,Go Home,39.96130823,-106.2164016,0.8,7938.4,393.7,TRUE,1,1,FALSE,FALSE,FALSE,FALSE,0,TRUE,FALSE,FALSE,Course Lock,98.4,,16.4,Calm,12,Android, 4.2.8,dronefo...-Mavic Air,0K1DF2P1BD65JJ,,,0K4AEBPA340178,44.5,25.9,16.1,5.7,8.7,0,44,dronefo...-Mavic Air,0K1DF2P1BD65JJ,,,0K4AEBPA340178,,Android, 4.2.8,,,,,,
15,4/19/2018,46:29.5,0m 2.2s,2.2,39.96130901,-106.2163992,0,0,0.3,8128,0,0,0,0,0,0,0,0,1.3,10.8,-115.4,244.6,Manual Takeoff,Other,Takeoff (RC Assisted),17,5,TRUE,,Mavic Air,TRUE,FALSE,,Smart,RC,TRUE,TRUE,FALSE,,,TRUE,,FALSE,FALSE,FALSE,FALSE,FALSE,FALSE,FALSE,FALSE,FALSE,FALSE,0,Follow Yaw,0,1.9,-115.7,244.3,FALSE,FALSE,FALSE,FALSE,FALSE,TRUE,,TRUE,Normal,,,1024,1024,1024,1024,0,FALSE,FALSE,FALSE,FALSE,FALSE,0,FALSE,FALSE,FALSE,FALSE,95,,,,12.479,FALSE,4.168,4.153,4.158,0.023,FALSE,FALSE,,,,,0,0,0,15,10,5357.6,1373.74,,Idle,0,30,FALSE,10,TRUE,,Go Home,39.96130823,-106.2164016,0.8,7938.4,393.7,TRUE,1,1,FALSE,FALSE,FALSE,FALSE,0,TRUE,FALSE,FALSE,Course Lock,98.4,,16.4,Calm,12,Android, 4.2.8,dronefo...-Mavic Air,0K1DF2P1BD65JJ,,,0K4AEBPA340178,44.5,25.9,16.1,5.7,8.7,0,44,dronefo...-Mavic Air,0K1DF2P1BD65JJ,,,0K4AEBPA340178,,Android, 4.2.8,,,,,,
16,4/19/2018,46:29.7,0m 2.3s,2.3,39.96130902,-106.2163992,0,0,0.3,8128,0,0,0,0,0,0,0,0,1.3,10.8,-115.4,244.6,Manual Takeoff,Other,Takeoff (RC Assisted),17,5,TRUE,,Mavic Air,TRUE,FALSE,,Smart,RC,TRUE,TRUE,FALSE,,,TRUE,,FALSE,FALSE,FALSE,FALSE,FALSE,FALSE,FALSE,FALSE,FALSE,FALSE,0,Follow Yaw,0,1.9,-115.7,244.3,FALSE,FALSE,FALSE,FALSE,FALSE,TRUE,,TRUE,Normal,,,1024,1024,1024,1024,0,FALSE,FALSE,FALSE,FALSE,FALSE,0,FALSE,FALSE,FALSE,FALSE,95,,,,12.479,FALSE,4.168,4.153,4.158,0.023,FALSE,FALSE,,,,,0,0,0,15,10,5357.6,1373.74,,Idle,0,30,FALSE,10,TRUE,,Go Home,39.96130823,-106.2164016,0.8,7938.4,393.7,TRUE,1,1,FALSE,FALSE,FALSE,FALSE,0,TRUE,FALSE,FALSE,Course Lock,98.4,,16.4,Calm,12,Android, 4.2.8,dronefo...-Mavic Air,0K1DF2P1BD65JJ,,,0K4AEBPA340178,44.5,25.9,16.1,5.7,8.7,0,44,dronefo...-Mavic Air,0K1DF2P1BD65JJ,,,0K4AEBPA340178,,Android, 4.2.8,,,,,,
17,4/19/2018,46:29.9,0m 2.4s,2.4,39.96130899,-106.2163991,0,0,0.3,8128,0,0,0,0,0,0,0,0,1.3,10.8,-115.4,244.6,Manual Takeoff,Other,Takeoff (RC Assisted),17,5,TRUE,,Mavic Air,TRUE,FALSE,,Smart,RC,TRUE,TRUE,FALSE,,,TRUE,,FALSE,FALSE,FALSE,FALSE,FALSE,FALSE,FALSE,FALSE,FALSE,FALSE,0,Follow Yaw,0,1.9,-115.7,244.3,FALSE,FALSE,FALSE,FALSE,FALSE,TRUE,,TRUE,Normal,,,1024,1024,1684,1024,0,FALSE,FALSE,FALSE,FALSE,FALSE,0,FALSE,FALSE,FALSE,FALSE,95,,,,12.479,FALSE,4.168,4.153,4.158,0.023,FALSE,FALSE,,,,,0,0,0,15,10,5357.6,1373.74,,Idle,0,30,FALSE,10,TRUE,,Go Home,39.96130823,-106.2164016,0.8,7938.4,393.7,TRUE,1,1,FALSE,FALSE,FALSE,FALSE,0,TRUE,FALSE,FALSE,Course Lock,98.4,,16.4,Calm,12,Android, 4.2.8,dronefo...-Mavic Air,0K1DF2P1BD65JJ,,,0K4AEBPA340178,44.5,25.9,16.1,5.7,8.7,0,44,dronefo...-Mavic Air,0K1DF2P1BD65JJ,,,0K4AEBPA340178,,Android, 4.2.8,,,,,,
18,4/19/2018,46:29.9,0m 2.6s,2.6,39.96130898,-106.2163992,0,0,0.3,8128,0,0,0,0,0,0,0,0,1.3,10.8,-115.4,244.6,Manual Takeoff,Other,Takeoff (RC Assisted),17,5,TRUE,,Mavic Air,TRUE,FALSE,,Smart,RC,TRUE,TRUE,FALSE,,,TRUE,,FALSE,FALSE,FALSE,FALSE,FALSE,FALSE,FALSE,FALSE,FALSE,FALSE,0,Follow Yaw,0,1.9,-115.7,244.3,FALSE,FALSE,FALSE,FALSE,FALSE,TRUE,,TRUE,Normal,,,1024,1024,1684,1024,0,FALSE,FALSE,FALSE,FALSE,FALSE,0,FALSE,FALSE,FALSE,FALSE,95,,,,12.479,FALSE,4.168,4.153,4.158,0.023,FALSE,FALSE,,,,,0,0,0,15,10,5357.6,1373.74,,Idle,0,30,FALSE,10,TRUE,,Go Home,39.96130823,-106.2164016,0.8,7938.4,393.7,TRUE,1,1,FALSE,FALSE,FALSE,FALSE,0,TRUE,FALSE,FALSE,Course Lock,98.4,,16.4,Calm,12,Android, 4.2.8,dronefo...-Mavic Air,0K1DF2P1BD65JJ,,,0K4AEBPA340178,44.5,25.9,16.1,5.7,8.7,0,44,dronefo...-Mavic Air,0K1DF2P1BD65JJ,,,0K4AEBPA340178,,Android, 4.2.8,,,,,,
19,4/19/2018,46:30.1,0m 2.7s,2.7,39.96130899,-106.2163992,0,0,0.3,8128,0,0,0,0,0,0,0,0,1.3,10.8,-115.4,244.6,Manual Takeoff,Other,Takeoff (RC Assisted),17,5,TRUE,,Mavic Air,TRUE,FALSE,,Smart,RC,TRUE,TRUE,FALSE,,,TRUE,,FALSE,FALSE,FALSE,FALSE,FALSE,FALSE,FALSE,FALSE,FALSE,FALSE,0,Follow Yaw,0,1.7,-115.7,244.3,FALSE,FALSE,FALSE,FALSE,FALSE,TRUE,,TRUE,Normal,,,1024,1024,1684,1024,0,FALSE,FALSE,FALSE,FALSE,FALSE,0,FALSE,FALSE,FALSE,FALSE,95,,,,12.536,FALSE,4.168,4.153,4.158,0.023,FALSE,FALSE,,,,,0,0,0,15,10,6084.6,1560.16,,Idle,0,30,FALSE,10,TRUE,,Go Home,39.96130823,-106.2164016,0.8,7938.4,393.7,TRUE,1,1,FALSE,FALSE,FALSE,FALSE,0,TRUE,FALSE,FALSE,Course Lock,98.4,,16.4,Calm,12,Android, 4.2.8,dronefo...-Mavic Air,0K1DF2P1BD65JJ,,,0K4AEBPA340178,44.5,25.9,16.1,5.7,8.7,0,44,dronefo...-Mavic Air,0K1DF2P1BD65JJ,,,0K4AEBPA340178,,Android, 4.2.8,,,,,,
20,4/19/2018,46:30.2,0m 2.8s,2.8,39.96130897,-106.2163992,0,0,0.3,8128,0,0,0,0,0,0,0,0,1.2,10.8,-115.4,244.6,Manual Takeoff,Other,Takeoff (RC Assisted),17,5,TRUE,,Mavic Air,TRUE,FALSE,,Smart,RC,TRUE,TRUE,FALSE,,,TRUE,,FALSE,FALSE,FALSE,FALSE,FALSE,FALSE,FALSE,FALSE,FALSE,FALSE,0,Follow Yaw,0,1.6,-115.7,244.3,FALSE,FALSE,FALSE,FALSE,FALSE,TRUE,,TRUE,Normal,,,1024,1024,1684,1024,0,FALSE,FALSE,FALSE,FALSE,FALSE,0,FALSE,FALSE,FALSE,FALSE,95,,,,12.536,FALSE,4.168,4.153,4.158,0.023,FALSE,FALSE,,,,,0,0,0,15,10,6084.6,1560.16,,Idle,0,30,FALSE,10,TRUE,,Go Home,39.96130823,-106.2164016,0.8,7938.4,393.7,TRUE,1,1,FALSE,FALSE,FALSE,FALSE,0,TRUE,FALSE,FALSE,Course Lock,98.4,,16.4,Calm,12,Android, 4.2.8,dronefo...-Mavic Air,0K1DF2P1BD65JJ,,,0K4AEBPA340178,44.5,25.9,16.1,5.7,8.7,0,44,dronefo...-Mavic Air,0K1DF2P1BD65JJ,,,0K4AEBPA340178,,Android, 4.2.8,,,,,,
21,4/19/2018,46:30.3,0m 2.9s,2.9,39.96130898,-106.2163992,0,0,0.3,8128,0,0,0,0,0,0,0,0,1.3,10.6,-115.5,244.5,Manual Takeoff,Other,Takeoff (RC Assisted),17,5,TRUE,,Mavic Air,TRUE,FALSE,,Smart,RC,TRUE,TRUE,FALSE,,,TRUE,,FALSE,FALSE,FALSE,FALSE,FALSE,FALSE,FALSE,FALSE,FALSE,FALSE,0,Follow Yaw,0,1.5,-115.7,244.3,FALSE,FALSE,FALSE,FALSE,FALSE,TRUE,,TRUE,Normal,,,1024,1024,1684,1024,0,FALSE,FALSE,FALSE,FALSE,FALSE,0,FALSE,FALSE,FALSE,FALSE,95,,,,12.622,FALSE,4.217,4.204,4.201,0.023,FALSE,FALSE,,,,,0,0,0,15,10,6084.6,1560.16,,Idle,0,30,FALSE,10,TRUE,,Go Home,39.96130823,-106.2164016,0.8,7938.4,393.7,TRUE,1,1,FALSE,FALSE,FALSE,FALSE,0,TRUE,FALSE,FALSE,Course Lock,98.4,,16.4,Calm,12,Android, 4.2.8,dronefo...-Mavic Air,0K1DF2P1BD65JJ,,,0K4AEBPA340178,44.5,25.9,16.1,5.7,8.7,0,44,dronefo...-Mavic Air,0K1DF2P1BD65JJ,,,0K4AEBPA340178,,Android, 4.2.8,,,,,,
22,4/19/2018,46:30.3,0m 3.0s,3,39.96130897,-106.2163992,0,0,0.3,8128,0,0,0,0,0,0,0,0,1.5,10.6,-115.3,244.7,Manual Takeoff,Other,Takeoff (RC Assisted),17,5,TRUE,,Mavic Air,TRUE,FALSE,,Smart,RC,TRUE,TRUE,FALSE,,,TRUE,,FALSE,FALSE,FALSE,FALSE,FALSE,FALSE,FALSE,FALSE,FALSE,FALSE,0,Follow Yaw,0,0,-115.7,244.3,FALSE,FALSE,FALSE,FALSE,FALSE,TRUE,,TRUE,Normal,,,1024,1024,1684,1024,0,FALSE,FALSE,FALSE,FALSE,FALSE,0,FALSE,FALSE,FALSE,FALSE,95,,,,12.622,FALSE,4.217,4.204,4.201,0.023,FALSE,FALSE,,,,,0,0,0,15,10,6084.6,1560.16,,Idle,0,30,FALSE,10,TRUE,,Go Home,39.96130823,-106.2164016,0.8,7938.4,393.7,TRUE,1,1,FALSE,FALSE,FALSE,FALSE,0,TRUE,FALSE,FALSE,Course Lock,98.4,,16.4,Calm,12,Android, 4.2.8,dronefo...-Mavic Air,0K1DF2P1BD65JJ,,,0K4AEBPA340178,44.5,25.9,16.1,5.7,8.7,0,44,dronefo...-Mavic Air,0K1DF2P1BD65JJ,,,0K4AEBPA340178,,Android, 4.2.8,,,,,,
23,4/19/2018,46:30.5,0m 3.1s,3.1,39.96130898,-106.2163992,0,0,0.3,8128,0,0,0,0,0,0,0,0,3.7,11.7,-114.1,245.9,Manual Takeoff,Other,Takeoff (RC Assisted),17,5,TRUE,,Mavic Air,TRUE,FALSE,,Smart,RC,TRUE,TRUE,FALSE,,,TRUE,,FALSE,FALSE,FALSE,FALSE,FALSE,FALSE,FALSE,FALSE,FALSE,FALSE,0,Follow Yaw,0,0,-115.7,244.3,FALSE,FALSE,FALSE,FALSE,FALSE,TRUE,,TRUE,Normal,,,1024,1024,1684,1024,0,FALSE,FALSE,FALSE,FALSE,FALSE,0,FALSE,FALSE,FALSE,FALSE,95,,,,12.622,FALSE,4.217,4.204,4.201,0.023,FALSE,FALSE,,,,,0,0,0,15,10,6084.6,1560.16,,Idle,0,30,FALSE,10,TRUE,,Go Home,39.96130823,-106.2164016,0.8,7938.4,393.7,TRUE,1,1,FALSE,FALSE,FALSE,FALSE,0,TRUE,FALSE,FALSE,Course Lock,98.4,,16.4,Calm,12,Android, 4.2.8,dronefo...-Mavic Air,0K1DF2P1BD65JJ,,,0K4AEBPA340178,44.5,25.9,16.1,5.7,8.7,0,44,dronefo...-Mavic Air,0K1DF2P1BD65JJ,,,0K4AEBPA340178,,Android, 4.2.8,,,,,,
24,4/19/2018,46:30.6,0m 3.3s,3.3,39.96130929,-106.2163991,0,0,0.3,8128,0,0,0.5,0.5,0,0,0,0,14.9,15.1,-110,250,Manual Takeoff,Other,Takeoff (RC Assisted),17,5,TRUE,,Mavic Air,TRUE,FALSE,,Smart,RC,TRUE,TRUE,FALSE,,,TRUE,,FALSE,FALSE,FALSE,FALSE,FALSE,FALSE,FALSE,FALSE,FALSE,FALSE,0,Follow Yaw,0,0,-115.5,244.5,FALSE,FALSE,FALSE,FALSE,FALSE,TRUE,,TRUE,Normal,,,1024,1024,1684,1024,0,FALSE,FALSE,FALSE,FALSE,FALSE,0,FALSE,FALSE,FALSE,FALSE,95,,,,12.622,FALSE,4.217,4.204,4.201,0.023,FALSE,FALSE,,,,,0,0,0,15,10,6084.6,1560.16,,Idle,0,30,FALSE,10,TRUE,,Go Home,39.96130823,-106.2164016,0.9,7938.4,393.7,TRUE,1,1,FALSE,FALSE,FALSE,FALSE,0,TRUE,FALSE,FALSE,Course Lock,98.4,,16.4,Calm,12,Android, 4.2.8,dronefo...-Mavic Air,0K1DF2P1BD65JJ,,,0K4AEBPA340178,44.5,25.9,16.1,5.7,8.7,0,44,dronefo...-Mavic Air,0K1DF2P1BD65JJ,,,0K4AEBPA340178,,Android, 4.2.8,,,,,,
25,4/19/2018,46:30.6,0m 3.4s,3.4,39.96130963,-106.2163988,0,0,0.3,8128,0.7,0.7,1.1,1.1,0.5,0.5,0,0,11.5,9.2,-110.8,249.2,Sport,Other,,17,5,TRUE,,Mavic Air,TRUE,FALSE,,Smart,RC,FALSE,TRUE,FALSE,,,TRUE,,FALSE,FALSE,FALSE,FALSE,FALSE,FALSE,FALSE,FALSE,FALSE,FALSE,0,Follow Yaw,0,0,-115.5,244.5,FALSE,FALSE,FALSE,FALSE,FALSE,TRUE,,TRUE,Normal,,,1024,1024,1684,1024,0,FALSE,FALSE,FALSE,FALSE,FALSE,0,FALSE,FALSE,FALSE,FALSE,95,,,,12.622,FALSE,4.217,4.204,4.201,0.023,FALSE,FALSE,,,,,0,0,0,15,10,6084.6,1560.16,,Idle,0,30,FALSE,10,TRUE,,Go Home,39.96130823,-106.2164016,1,7938.4,393.7,TRUE,1,1,FALSE,FALSE,FALSE,FALSE,0,TRUE,FALSE,FALSE,Course Lock,98.4,,16.4,Calm,12,Android, 4.2.8,dronefo...-Mavic Air,0K1DF2P1BD65JJ,,,0K4AEBPA340178,44.5,25.9,16.1,5.7,8.7,0,44,dronefo...-Mavic Air,0K1DF2P1BD65JJ,,,0K4AEBPA340178,,Android, 4.2.8,,,,,,
26,4/19/2018,46:30.7,0m 3.5s,3.5,39.96131027,-106.2163984,0,0,0.3,8128,1.5,1.5,1.6,1.6,0.7,0.7,-1.1,0,-2.6,-3.6,-112.2,247.8,Sport,Other,,17,5,TRUE,,Mavic Air,TRUE,FALSE,,Smart,RC,FALSE,TRUE,FALSE,,,TRUE,,FALSE,FALSE,FALSE,FALSE,FALSE,FALSE,FALSE,FALSE,FALSE,FALSE,0,Follow Yaw,0,0,-115.2,244.8,FALSE,FALSE,FALSE,FALSE,FALSE,TRUE,,TRUE,Normal,,,1024,1024,1684,1024,0,FALSE,FALSE,FALSE,FALSE,FALSE,0,FALSE,FALSE,FALSE,FALSE,95,,,,12.622,FALSE,4.217,4.204,4.201,0.023,FALSE,FALSE,,,,,0,0,0,15,10,6084.6,1560.16,,Idle,0,30,FALSE,10,TRUE,,Go Home,39.96130823,-106.2164016,1.2,7938.4,393.7,TRUE,1,1,FALSE,FALSE,FALSE,FALSE,0,TRUE,FALSE,FALSE,Course Lock,98.4,,16.4,Calm,12,Android, 4.2.8,dronefo...-Mavic Air,0K1DF2P1BD65JJ,,,0K4AEBPA340178,44.5,25.9,16.1,5.7,8.7,0,44,dronefo...-Mavic Air,0K1DF2P1BD65JJ,,,0K4AEBPA340178,,Android, 4.2.8,,,,,,
27,4/19/2018,46:30.9,0m 3.6s,3.6,39.96131107,-106.216398,0.3,0.3,0.7,8129,2.1,2.1,1.1,1.6,0.5,0.7,-2,0,-8.4,-9.2,-111.6,248.4,Sport,Other,,17,5,TRUE,,Mavic Air,TRUE,FALSE,,Smart,RC,FALSE,TRUE,FALSE,,,TRUE,,FALSE,FALSE,FALSE,FALSE,FALSE,FALSE,FALSE,FALSE,FALSE,FALSE,0,Follow Yaw,0,0,-115.1,244.9,FALSE,FALSE,FALSE,FALSE,FALSE,TRUE,,TRUE,Normal,,,1024,1024,1684,1024,0,FALSE,FALSE,FALSE,FALSE,FALSE,0,FALSE,FALSE,FALSE,FALSE,95,,,,12.622,FALSE,4.217,4.204,4.201,0.023,FALSE,FALSE,,,,,0,0,0,15,10,6084.6,1560.16,,Idle,0,30,FALSE,10,TRUE,,Go Home,39.96130823,-106.2164016,1.5,7938.4,393.7,TRUE,1,1,FALSE,FALSE,FALSE,FALSE,0,TRUE,FALSE,FALSE,Course Lock,98.4,,16.4,Calm,12,Android, 4.2.8,dronefo...-Mavic Air,0K1DF2P1BD65JJ,,,0K4AEBPA340178,44.5,25.9,16.1,5.7,8.7,0,44,dronefo...-Mavic Air,0K1DF2P1BD65JJ,,,0K4AEBPA340178,,Android, 4.2.8,,,,,,
28,4/19/2018,46:31.0,0m 3.7s,3.7,39.96131142,-106.2163977,0.7,0.7,1,8129,2.1,2.1,0.5,1.6,0.2,0.7,-2.7,0,-6,-7.5,-105.8,254.2,Sport,Other,,17,5,TRUE,,Mavic Air,TRUE,FALSE,,Smart,RC,FALSE,TRUE,FALSE,,,TRUE,,FALSE,FALSE,FALSE,FALSE,FALSE,FALSE,FALSE,FALSE,FALSE,FALSE,0,Follow Yaw,0,0,-114.2,245.8,FALSE,FALSE,FALSE,FALSE,FALSE,TRUE,,TRUE,Normal,,,1024,1024,1684,1024,0,FALSE,FALSE,FALSE,FALSE,FALSE,0,FALSE,FALSE,FALSE,FALSE,95,,,,12.261,FALSE,4.217,4.204,4.201,0.023,FALSE,FALSE,,,,,0,0,0,15,10,6957,1783.84,,Idle,0,30,FALSE,10,TRUE,,Go Home,39.96130939,-106.2163991,0.8,7938.4,393.7,TRUE,1,1,FALSE,FALSE,FALSE,FALSE,0,TRUE,FALSE,FALSE,Course Lock,98.4,,16.4,Calm,12,Android, 4.2.8,dronefo...-Mavic Air,0K1DF2P1BD65JJ,,,0K4AEBPA340178,44.5,25.9,16.1,5.7,8.7,0,44,dronefo...-Mavic Air,0K1DF2P1BD65JJ,,,0K4AEBPA340178,,Android, 4.2.8,,,,Home Point Updated.,,
29,4/19/2018,46:31.1,0m 3.8s,3.8,39.96131201,-106.2163967,1,1,1.3,8129,1.5,2.1,0,1.6,0,0.7,-3.4,0,-2.1,-3.1,-110.9,249.1,Sport,Other,,17,5,TRUE,,Mavic Air,TRUE,FALSE,,Smart,RC,FALSE,TRUE,FALSE,,,TRUE,,FALSE,FALSE,FALSE,FALSE,FALSE,FALSE,FALSE,FALSE,FALSE,FALSE,0,Follow Yaw,0,0,-113.4,246.6,FALSE,FALSE,FALSE,FALSE,FALSE,TRUE,,TRUE,Normal,,,1024,1024,1684,1024,0,FALSE,FALSE,FALSE,FALSE,FALSE,0,FALSE,FALSE,FALSE,FALSE,95,,,,12.261,FALSE,4.217,4.204,4.201,0.023,FALSE,FALSE,,,,,0,0,0,15,10,6957,1783.84,,Idle,0,30,FALSE,10,TRUE,,Go Home,39.96130939,-106.2163991,1.2,7938.4,393.7,TRUE,1,1,FALSE,FALSE,FALSE,FALSE,0,TRUE,FALSE,FALSE,Course Lock,98.4,,16.4,Calm,12,Android, 4.2.8,dronefo...-Mavic Air,0K1DF2P1BD65JJ,,,0K4AEBPA340178,44.5,25.9,16.1,5.7,8.7,0,44,dronefo...-Mavic Air,0K1DF2P1BD65JJ,,,0K4AEBPA340178,,Android, 4.2.8,,,,,,
30,4/19/2018,46:31.2,0m 3.9s,3.9,39.96131208,-106.2163967,1.6,1.6,2,8130,1.1,2.1,0,1.6,0,0.7,-4.3,0,-0.1,0.8,-112.2,247.8,Sport,Other,,17,5,TRUE,,Mavic Air,TRUE,FALSE,,Smart,RC,FALSE,TRUE,FALSE,,,TRUE,,FALSE,FALSE,FALSE,FALSE,FALSE,FALSE,FALSE,FALSE,FALSE,FALSE,0,Follow Yaw,0,0,-113.3,246.7,FALSE,FALSE,FALSE,FALSE,FALSE,TRUE,,TRUE,Normal,,,1024,1024,1684,1024,0,FALSE,FALSE,FALSE,FALSE,FALSE,0,FALSE,FALSE,FALSE,FALSE,95,,,,12.259,FALSE,4.114,4.076,4.069,0.045,FALSE,FALSE,,,,,0,0,0,15,10,6957,1783.84,,Idle,0,30,FALSE,10,TRUE,,Go Home,39.96130939,-106.2163991,1.2,7938.4,393.7,TRUE,1,1,FALSE,FALSE,FALSE,FALSE,0,TRUE,FALSE,FALSE,Course Lock,98.4,,16.4,Calm,12,Android, 4.2.8,dronefo...-Mavic Air,0K1DF2P1BD65JJ,,,0K4AEBPA340178,44.5,25.9,16.1,5.7,8.7,0,44,dronefo...-Mavic Air,0K1DF2P1BD65JJ,,,0K4AEBPA340178,,Android, 4.2.8,,,,,,
31,4/19/2018,46:31.3,0m 4.0s,4,39.96131101,-106.2163969,2.3,2.3,2.6,8131,1.1,2.1,0,1.6,0,0.7,-5.1,0,0.6,1.4,-112.1,247.9,Sport,Other,,17,5,TRUE,,Mavic Air,TRUE,FALSE,,Smart,RC,FALSE,TRUE,FALSE,,,TRUE,,FALSE,FALSE,FALSE,FALSE,FALSE,FALSE,FALSE,FALSE,FALSE,FALSE,0,Follow Yaw,0,0,-113.2,246.8,FALSE,FALSE,FALSE,FALSE,FALSE,TRUE,,TRUE,Normal,,,1024,1024,1684,1024,0,FALSE,FALSE,FALSE,FALSE,FALSE,0,FALSE,FALSE,FALSE,FALSE,95,,,,12.259,FALSE,4.114,4.076,4.069,0.045,FALSE,FALSE,,,,,0,0,0,15,10,6957,1783.84,,Idle,0,30,FALSE,10,TRUE,,Go Home,39.96130939,-106.2163991,0.9,7938.4,393.7,TRUE,1,1,FALSE,FALSE,FALSE,FALSE,0,TRUE,FALSE,FALSE,Course Lock,98.4,,16.4,Calm,12,Android, 4.2.8,dronefo...-Mavic Air,0K1DF2P1BD65JJ,,,0K4AEBPA340178,44.5,25.9,16.1,5.7,8.7,0,44,dronefo...-Mavic Air,0K1DF2P1BD65JJ,,,0K4AEBPA340178,,Android, 4.2.8,,,,,,
32,4/19/2018,46:31.4,0m 4.1s,4.1,39.96131098,-106.2163969,3,3,3.3,8131,1.5,2.1,0,1.6,0,0.7,-6,0,1.1,0.3,-111.5,248.5,Sport,Other,,17,5,TRUE,,Mavic Air,TRUE,FALSE,,Smart,RC,FALSE,TRUE,FALSE,,,TRUE,,FALSE,FALSE,FALSE,FALSE,FALSE,FALSE,FALSE,FALSE,FALSE,FALSE,0,Follow Yaw,0,0,-113.2,246.8,FALSE,FALSE,FALSE,FALSE,FALSE,TRUE,,TRUE,Normal,,,1024,1024,1684,1024,0,FALSE,FALSE,FALSE,FALSE,FALSE,0,FALSE,FALSE,FALSE,FALSE,95,,,,12.259,FALSE,4.114,4.076,4.069,0.045,FALSE,FALSE,,,,,0,0,0,15,10,6957,1783.84,,Idle,0,30,FALSE,10,TRUE,,Go Home,39.96130939,-106.2163991,0.9,7938.4,393.7,TRUE,1,1,FALSE,FALSE,FALSE,FALSE,0,TRUE,FALSE,FALSE,Course Lock,98.4,,16.4,Calm,12,Android, 4.2.8,dronefo...-Mavic Air,0K1DF2P1BD65JJ,,,0K4AEBPA340178,44.5,25.9,16.1,5.7,8.7,0,44,dronefo...-Mavic Air,0K1DF2P1BD65JJ,,,0K4AEBPA340178,,Android, 4.2.8,,,,,,
33,4/19/2018,46:31.4,0m 4.2s,4.2,39.96131081,-106.2163967,3.9,3.9,4.3,8132,0,2.1,0,1.6,0,0.7,-7.2,0,1.1,-0.1,-111.8,248.2,Sport,Other,,17,5,TRUE,,Mavic Air,TRUE,FALSE,,Smart,RC,FALSE,TRUE,FALSE,,,TRUE,,FALSE,FALSE,FALSE,FALSE,FALSE,FALSE,FALSE,FALSE,FALSE,FALSE,0,Follow Yaw,0,0,-113.1,246.9,FALSE,FALSE,FALSE,FALSE,FALSE,TRUE,,TRUE,Normal,,,1024,1024,1295,1024,0,FALSE,FALSE,FALSE,FALSE,FALSE,0,FALSE,FALSE,FALSE,FALSE,95,,,,12.259,FALSE,4.114,4.076,4.069,0.045,FALSE,FALSE,,,,,0,0,0,15,10,6957,1783.84,,Idle,0,30,FALSE,10,TRUE,,Go Home,39.96130939,-106.2163991,0.9,7938.4,393.7,TRUE,1,1,FALSE,FALSE,FALSE,FALSE,0,TRUE,FALSE,FALSE,Course Lock,98.4,,16.4,Calm,12,Android, 4.2.8,dronefo...-Mavic Air,0K1DF2P1BD65JJ,,,0K4AEBPA340178,44.5,25.9,16.1,5.7,8.7,0,44,dronefo...-Mavic Air,0K1DF2P1BD65JJ,,,0K4AEBPA340178,,Android, 4.2.8,,,,,,
34,4/19/2018,46:31.6,0m 4.3s,4.3,39.96131077,-106.2163967,5.2,5.2,5.2,8133,0,2.1,0,1.6,0,0.7,-8.1,0,0.9,-0.1,-112.2,247.8,Sport,Other,,17,5,TRUE,,Mavic Air,TRUE,FALSE,,Smart,RC,FALSE,TRUE,FALSE,,,TRUE,,FALSE,FALSE,FALSE,FALSE,FALSE,FALSE,FALSE,FALSE,FALSE,FALSE,0,Follow Yaw,0,0,-113.1,246.9,FALSE,FALSE,FALSE,FALSE,FALSE,TRUE,,TRUE,Normal,,,1024,1024,1024,1024,0,FALSE,FALSE,FALSE,FALSE,FALSE,0,FALSE,FALSE,FALSE,FALSE,95,,,,12.259,FALSE,4.114,4.076,4.069,0.045,FALSE,FALSE,,,,,0,0,0,15,10,6957,1783.84,,Idle,0,30,FALSE,10,TRUE,,Go Home,39.96130939,-106.2163991,0.9,7938.4,393.7,TRUE,1,1,FALSE,FALSE,FALSE,FALSE,0,TRUE,FALSE,FALSE,Course Lock,98.4,,16.4,Calm,12,Android, 4.2.8,dronefo...-Mavic Air,0K1DF2P1BD65JJ,,,0K4AEBPA340178,44.5,25.9,16.1,5.7,8.7,0,44,dronefo...-Mavic Air,0K1DF2P1BD65JJ,,,0K4AEBPA340178,,Android, 4.2.8,,,,,,
35,4/19/2018,46:31.7,0m 4.4s,4.4,39.9613109,-106.216397,6.6,6.6,6.6,8135,0,2.1,0,1.6,0,0.7,-8.7,0,1,-0.4,-112.8,247.2,Sport,Other,,17,5,TRUE,,Mavic Air,TRUE,FALSE,,Smart,RC,FALSE,TRUE,FALSE,,,TRUE,,FALSE,FALSE,FALSE,FALSE,FALSE,FALSE,FALSE,FALSE,FALSE,FALSE,0,Follow Yaw,0,0,-113.1,246.9,FALSE,FALSE,FALSE,FALSE,FALSE,TRUE,,TRUE,Normal,,,1024,1024,1024,1024,0,FALSE,FALSE,FALSE,FALSE,FALSE,0,FALSE,FALSE,FALSE,FALSE,95,,,,12.259,FALSE,4.114,4.076,4.069,0.045,FALSE,FALSE,,,,,0,0,0,15,10,6957,1783.84,,Idle,0,30,FALSE,10,TRUE,,Go Home,39.96130939,-106.2163991,0.8,7938.4,393.7,TRUE,1,1,FALSE,FALSE,FALSE,FALSE,0,TRUE,FALSE,FALSE,Course Lock,98.4,,16.4,Calm,12,Android, 4.2.8,dronefo...-Mavic Air,0K1DF2P1BD65JJ,,,0K4AEBPA340178,44.5,25.9,16.1,5.7,8.7,0,44,dronefo...-Mavic Air,0K1DF2P1BD65JJ,,,0K4AEBPA340178,,Android, 4.2.8,,,,,,
36,4/19/2018,46:31.7,0m 4.5s,4.5,39.96131084,-106.2163971,7.9,7.9,7.9,8136,0,2.1,0,1.6,0,0.7,-8.7,0,1.7,-0.1,-113,247,Sport,Other,,17,5,TRUE,,Mavic Air,TRUE,FALSE,,Smart,RC,FALSE,TRUE,FALSE,,,TRUE,,FALSE,FALSE,FALSE,FALSE,FALSE,FALSE,FALSE,FALSE,FALSE,FALSE,0,Follow Yaw,0,0,-113.1,246.9,FALSE,FALSE,FALSE,FALSE,FALSE,TRUE,,TRUE,Normal,,,1024,1024,1024,1024,0,FALSE,FALSE,FALSE,FALSE,FALSE,0,FALSE,FALSE,FALSE,FALSE,95,,,,12.259,FALSE,4.114,4.076,4.069,0.045,FALSE,FALSE,,,,,0,0,0,15,10,6957,1783.84,,Idle,0,30,FALSE,10,TRUE,,Go Home,39.96130939,-106.2163991,0.8,7938.4,393.7,TRUE,1,1,FALSE,FALSE,FALSE,FALSE,0,TRUE,FALSE,FALSE,Course Lock,98.4,,16.4,Calm,12,Android, 4.2.8,dronefo...-Mavic Air,0K1DF2P1BD65JJ,,,0K4AEBPA340178,44.5,25.9,16.1,5.7,8.7,0,44,dronefo...-Mavic Air,0K1DF2P1BD65JJ,,,0K4AEBPA340178,,Android, 4.2.8,,,,,,
37,4/19/2018,46:31.9,0m 4.6s,4.6,39.96131098,-106.2163969,8.9,8.9,9.5,8137,0,2.1,0,1.6,0,0.7,-8.5,0,2.2,-0.2,-113,247,Sport,Other,,17,5,TRUE,,Mavic Air,TRUE,FALSE,,Smart,RC,FALSE,TRUE,FALSE,,,TRUE,,FALSE,FALSE,FALSE,FALSE,FALSE,FALSE,FALSE,FALSE,FALSE,FALSE,0,Follow Yaw,0,0,-113.1,246.9,FALSE,FALSE,FALSE,FALSE,FALSE,TRUE,,TRUE,Normal,,,1024,1024,1024,1024,0,FALSE,FALSE,FALSE,FALSE,FALSE,0,FALSE,FALSE,FALSE,FALSE,95,,,,12.259,FALSE,4.114,4.076,4.069,0.045,FALSE,FALSE,,,,,0,0,0,15,10,6957,1783.84,,Idle,0,30,FALSE,10,TRUE,,Go Home,39.96130939,-106.2163991,0.9,7938.4,393.7,TRUE,1,1,FALSE,FALSE,FALSE,FALSE,0,TRUE,FALSE,FALSE,Course Lock,98.4,,16.4,Calm,12,Android, 4.2.8,dronefo...-Mavic Air,0K1DF2P1BD65JJ,,,0K4AEBPA340178,44.5,25.9,16.1,5.7,8.7,0,44,dronefo...-Mavic Air,0K1DF2P1BD65JJ,,,0K4AEBPA340178,,Android, 4.2.8,,,,,,
38,4/19/2018,46:32.0,0m 4.7s,4.7,39.96131094,-106.216397,10.2,10.2,10.5,8138,0,2.1,0,1.6,0,0.7,-8.1,0,1.5,-0.9,-112.9,247.1,Sport,Other,,17,5,TRUE,,Mavic Air,TRUE,FALSE,,Smart,RC,FALSE,TRUE,FALSE,,,TRUE,,FALSE,FALSE,FALSE,FALSE,FALSE,FALSE,FALSE,FALSE,FALSE,FALSE,0,Follow Yaw,0,0,-113.1,246.9,FALSE,FALSE,FALSE,FALSE,FALSE,TRUE,,TRUE,Normal,,,1024,1024,1024,1024,0,FALSE,FALSE,FALSE,FALSE,FALSE,0,FALSE,FALSE,FALSE,FALSE,95,,,,12.147,FALSE,4.114,4.076,4.069,0.045,FALSE,FALSE,,,,,0,0,1,15,10,8788.5,2253.47,,Idle,0,30,FALSE,10,TRUE,,Go Home,39.96130939,-106.2163991,0.8,7938.4,393.7,TRUE,1,1,FALSE,FALSE,FALSE,FALSE,0,TRUE,FALSE,FALSE,Course Lock,98.4,,16.4,Calm,12,Android, 4.2.8,dronefo...-Mavic Air,0K1DF2P1BD65JJ,,,0K4AEBPA340178,44.5,25.9,16.1,5.7,8.7,0,44,dronefo...-Mavic Air,0K1DF2P1BD65JJ,,,0K4AEBPA340178,,Android, 4.2.8,,,,,,
39,4/19/2018,46:32.0,0m 4.8s,4.8,39.96131098,-106.2163972,11.5,11.5,11.8,8140,0,2.1,0,1.6,0,0.7,-7.4,0,1,-1.1,-113,247,Sport,Other,,17,5,TRUE,,Mavic Air,TRUE,FALSE,,Smart,RC,FALSE,TRUE,FALSE,,,TRUE,,FALSE,FALSE,FALSE,FALSE,FALSE,FALSE,FALSE,FALSE,FALSE,FALSE,0,Follow Yaw,0,0,-113.1,246.9,FALSE,FALSE,FALSE,FALSE,FALSE,TRUE,,TRUE,Normal,,,1024,1024,1024,1024,0,FALSE,FALSE,FALSE,FALSE,FALSE,0,FALSE,FALSE,FALSE,FALSE,95,,,,12.147,FALSE,4.114,4.076,4.069,0.045,FALSE,FALSE,,,,,0,0,1,15,10,8788.5,2253.47,,Idle,0,30,FALSE,10,TRUE,,Go Home,39.96130939,-106.2163991,0.8,7938.4,393.7,TRUE,1,1,FALSE,FALSE,FALSE,FALSE,0,TRUE,FALSE,FALSE,Course Lock,98.4,,16.4,Calm,12,Android, 4.2.8,dronefo...-Mavic Air,0K1DF2P1BD65JJ,,,0K4AEBPA340178,44.5,25.9,16.1,5.7,8.7,0,44,dronefo...-Mavic Air,0K1DF2P1BD65JJ,,,0K4AEBPA340178,,Android, 4.2.8,,,,,,
40,4/19/2018,46:32.1,0m 4.9s,4.9,39.96131092,-106.2163974,12.5,12.5,13.1,8141,0,2.1,0,1.6,0,0.7,-6.5,0,1.2,-1.1,-112.9,247.1,Sport,Other,,17,5,TRUE,,Mavic Air,TRUE,FALSE,,Smart,RC,FALSE,TRUE,FALSE,,,TRUE,,FALSE,FALSE,FALSE,FALSE,FALSE,FALSE,FALSE,FALSE,FALSE,FALSE,0,Follow Yaw,0,0,-113.1,246.9,FALSE,FALSE,FALSE,FALSE,FALSE,TRUE,,TRUE,Normal,,,1024,1024,1024,1024,0,FALSE,FALSE,FALSE,FALSE,FALSE,0,FALSE,FALSE,FALSE,FALSE,95,,,,11.636,FALSE,3.907,3.864,3.865,0.045,FALSE,FALSE,,,,,0,0,1,15,10,8788.5,2253.47,,Idle,0,30,FALSE,10,TRUE,,Go Home,39.96130939,-106.2163991,0.7,7938.4,393.7,TRUE,1,1,FALSE,FALSE,FALSE,FALSE,0,TRUE,FALSE,FALSE,Course Lock,98.4,,16.4,Calm,12,Android, 4.2.8,dronefo...-Mavic Air,0K1DF2P1BD65JJ,,,0K4AEBPA340178,44.5,25.9,16.1,5.7,8.7,0,44,dronefo...-Mavic Air,0K1DF2P1BD65JJ,,,0K4AEBPA340178,,Android, 4.2.8,,,,,,
41,4/19/2018,46:32.2,0m 5.0s,5,39.96131111,-106.2163981,13.5,13.5,13.8,8142,1.5,2.1,0,1.6,-0.2,0.7,-5.6,0,2.4,-1.6,-113,247,Sport,Other,,17,5,TRUE,,Mavic Air,TRUE,FALSE,,Smart,RC,FALSE,TRUE,FALSE,,,TRUE,,FALSE,FALSE,FALSE,FALSE,FALSE,FALSE,FALSE,FALSE,FALSE,FALSE,0,Follow Yaw,0,0,-113.1,246.9,FALSE,FALSE,FALSE,FALSE,FALSE,TRUE,,TRUE,Normal,,,1024,1024,1024,1024,0,FALSE,FALSE,FALSE,FALSE,FALSE,0,FALSE,FALSE,FALSE,FALSE,95,,,,11.636,FALSE,3.907,3.864,3.865,0.045,FALSE,FALSE,,,,,0,0,1,15,10,8788.5,2253.47,,Idle,0,30,FALSE,10,TRUE,,Go Home,39.96130939,-106.2163991,0.6,7938.4,393.7,TRUE,1,1,FALSE,FALSE,FALSE,FALSE,0,TRUE,FALSE,FALSE,Course Lock,98.4,,16.4,Calm,12,Android, 4.2.8,dronefo...-Mavic Air,0K1DF2P1BD65JJ,,,0K4AEBPA340178,44.5,25.9,16.1,5.7,8.7,0,44,dronefo...-Mavic Air,0K1DF2P1BD65JJ,,,0K4AEBPA340178,,Android, 4.2.8,,,,,,
42,4/19/2018,46:32.3,0m 5.1s,5.1,39.96131105,-106.2163984,14.1,14.1,14.8,8142,1.5,2.1,0,1.6,-0.2,0.7,-4.7,0,3.2,-1.8,-113.2,246.8,Sport,Other,,17,5,TRUE,,Mavic Air,TRUE,FALSE,,Smart,RC,FALSE,TRUE,FALSE,,,TRUE,,FALSE,FALSE,FALSE,FALSE,FALSE,FALSE,FALSE,FALSE,FALSE,FALSE,0,Follow Yaw,0,0,-113.1,246.9,FALSE,FALSE,FALSE,FALSE,FALSE,TRUE,,TRUE,Normal,,,1024,1024,1024,1024,0,FALSE,FALSE,FALSE,FALSE,FALSE,0,FALSE,FALSE,FALSE,FALSE,95,,,,11.636,FALSE,3.907,3.864,3.865,0.045,FALSE,FALSE,,,,,0,0,1,15,10,8788.5,2253.47,,Idle,0,30,FALSE,10,TRUE,,Go Home,39.96130939,-106.2163991,0.8,7938.4,393.7,TRUE,1,1,FALSE,FALSE,FALSE,FALSE,0,TRUE,FALSE,FALSE,Course Lock,98.4,,16.4,Calm,12,Android, 4.2.8,dronefo...-Mavic Air,0K1DF2P1BD65JJ,,,0K4AEBPA340178,44.5,25.9,16.1,5.7,8.7,0,44,dronefo...-Mavic Air,0K1DF2P1BD65JJ,,,0K4AEBPA340178,,Android, 4.2.8,,,,,,
43,4/19/2018,46:32.4,0m 5.2s,5.2,39.96131086,-106.2163984,14.8,14.8,15.4,8143,0,2.1,0,1.6,-0.2,0.7,-3.6,0,3.8,-1.3,-113.1,246.9,Sport,Other,,17,5,TRUE,,Mavic Air,TRUE,FALSE,,Smart,RC,FALSE,TRUE,FALSE,,,TRUE,,FALSE,FALSE,FALSE,FALSE,FALSE,FALSE,FALSE,FALSE,FALSE,FALSE,0,Follow Yaw,0,0,-113.1,246.9,FALSE,FALSE,FALSE,FALSE,FALSE,TRUE,,TRUE,Normal,,,1024,1024,1024,1024,0,FALSE,FALSE,FALSE,FALSE,FALSE,0,FALSE,FALSE,FALSE,FALSE,95,,,,11.636,FALSE,3.907,3.864,3.865,0.045,FALSE,FALSE,,,,,0,0,1,15,10,8788.5,2253.47,,Idle,0,30,FALSE,10,TRUE,,Go Home,39.96130939,-106.2163991,0.6,7938.4,393.7,TRUE,1,1,FALSE,FALSE,FALSE,FALSE,0,TRUE,FALSE,FALSE,Course Lock,98.4,,16.4,Calm,12,Android, 4.2.8,dronefo...-Mavic Air,0K1DF2P1BD65JJ,,,0K4AEBPA340178,44.5,25.9,16.1,5.7,8.7,0,44,dronefo...-Mavic Air,0K1DF2P1BD65JJ,,,0K4AEBPA340178,,Android, 4.2.8,,,,,,
44,4/19/2018,46:32.5,0m 5.3s,5.3,39.96131075,-106.2163986,15.4,15.4,16.1,8144,0,2.1,0,1.6,-0.2,0.7,-2.5,0,4.2,-0.7,-113.1,246.9,Sport,Other,,17,5,TRUE,,Mavic Air,TRUE,FALSE,,Smart,RC,FALSE,TRUE,FALSE,,,TRUE,,FALSE,FALSE,FALSE,FALSE,FALSE,FALSE,FALSE,FALSE,FALSE,FALSE,0,Follow Yaw,0,0,-113.1,246.9,FALSE,FALSE,FALSE,FALSE,FALSE,TRUE,,TRUE,Normal,,,1024,1024,1024,1024,0,FALSE,FALSE,FALSE,FALSE,FALSE,0,FALSE,FALSE,FALSE,FALSE,95,,,,11.636,FALSE,3.907,3.864,3.865,0.045,FALSE,FALSE,,,,,0,0,1,15,10,8788.5,2253.47,,Idle,0,30,FALSE,10,TRUE,,Go Home,39.96130939,-106.2163991,0.4,7938.4,393.7,TRUE,1,1,FALSE,FALSE,FALSE,FALSE,0,TRUE,FALSE,FALSE,Course Lock,98.4,,16.4,Calm,12,Android, 4.2.8,dronefo...-Mavic Air,0K1DF2P1BD65JJ,,,0K4AEBPA340178,44.5,25.9,16.1,5.7,8.7,0,44,dronefo...-Mavic Air,0K1DF2P1BD65JJ,,,0K4AEBPA340178,,Android, 4.2.8,,,,,,
45,4/19/2018,46:32.6,0m 5.4s,5.4,39.96131051,-106.2163989,15.7,15.7,16.4,8144,0,2.1,-0.2,1.6,-0.2,0.7,-1.3,0,4.8,0,-113.1,246.9,Sport,Other,,17,5,TRUE,,Mavic Air,TRUE,FALSE,,Smart,RC,FALSE,TRUE,FALSE,,,TRUE,,FALSE,FALSE,FALSE,FALSE,FALSE,FALSE,FALSE,FALSE,FALSE,FALSE,0,Follow Yaw,0,0,-113.1,246.9,FALSE,FALSE,FALSE,FALSE,FALSE,TRUE,,TRUE,Normal,,,1024,1024,1024,1024,0,FALSE,FALSE,FALSE,FALSE,FALSE,0,FALSE,FALSE,FALSE,FALSE,95,,,,11.636,FALSE,3.907,3.864,3.865,0.045,FALSE,FALSE,,,,,0,0,1,15,10,8788.5,2253.47,,Idle,0,30,FALSE,10,TRUE,,Go Home,39.96130939,-106.2163991,0.3,7938.4,393.7,TRUE,1,1,FALSE,FALSE,FALSE,FALSE,0,TRUE,FALSE,FALSE,Course Lock,98.4,,16.4,Calm,12,Android, 4.2.8,dronefo...-Mavic Air,0K1DF2P1BD65JJ,,,0K4AEBPA340178,44.5,25.9,16.1,5.7,8.7,0,44,dronefo...-Mavic Air,0K1DF2P1BD65JJ,,,0K4AEBPA340178,,Android, 4.2.8,,,,,,
46,4/19/2018,46:32.7,0m 5.5s,5.5,39.9613104,-106.2163991,15.7,15.7,16.4,8144,0,2.1,-0.2,1.6,-0.2,0.7,-0.7,0,5.3,0.2,-112.7,247.3,Sport,Other,,17,5,TRUE,,Mavic Air,TRUE,FALSE,,Smart,RC,FALSE,TRUE,FALSE,,,TRUE,,FALSE,FALSE,FALSE,FALSE,FALSE,FALSE,FALSE,FALSE,FALSE,FALSE,0,Follow Yaw,0,0,-113.1,246.9,FALSE,FALSE,FALSE,FALSE,FALSE,TRUE,,TRUE,Normal,,,1024,1024,1024,1024,0,FALSE,FALSE,FALSE,FALSE,FALSE,0,FALSE,FALSE,FALSE,FALSE,95,,,,11.636,FALSE,3.907,3.864,3.865,0.045,FALSE,FALSE,,,,,0,0,1,15,10,8788.5,2253.47,,Idle,0,30,FALSE,10,TRUE,,Go Home,39.96130939,-106.2163991,0.3,7938.4,393.7,TRUE,1,1,FALSE,FALSE,FALSE,FALSE,0,TRUE,FALSE,FALSE,Course Lock,98.4,,16.4,Calm,12,Android, 4.2.8,dronefo...-Mavic Air,0K1DF2P1BD65JJ,,,0K4AEBPA340178,44.5,25.9,16.1,5.7,8.7,0,44,dronefo...-Mavic Air,0K1DF2P1BD65JJ,,,0K4AEBPA340178,,Android, 4.2.8,,,,,,
47,4/19/2018,46:32.9,0m 5.6s,5.6,39.96131062,-106.2163998,16.1,16.1,16.4,8144,1.1,2.1,0,1.6,-0.5,0.7,0,0,6,0.4,-113,247,Sport,Other,,17,5,TRUE,,Mavic Air,TRUE,FALSE,,Smart,RC,FALSE,TRUE,FALSE,,,TRUE,,FALSE,FALSE,FALSE,FALSE,FALSE,FALSE,FALSE,FALSE,FALSE,FALSE,0,Follow Yaw,0,0,-113.1,246.9,FALSE,FALSE,FALSE,FALSE,FALSE,TRUE,,TRUE,Normal,,,1024,1024,1024,1024,0,FALSE,FALSE,FALSE,FALSE,FALSE,0,FALSE,FALSE,FALSE,FALSE,95,,,,11.636,FALSE,3.907,3.864,3.865,0.045,FALSE,FALSE,,,,,0,0,1,15,10,8788.5,2253.47,,Idle,0,30,FALSE,10,TRUE,,Go Home,39.96130939,-106.2163991,0.5,7938.4,393.7,TRUE,1,1,FALSE,FALSE,FALSE,FALSE,0,TRUE,FALSE,FALSE,Course Lock,98.4,,16.4,Calm,12,Android, 4.2.8,dronefo...-Mavic Air,0K1DF2P1BD65JJ,,,0K4AEBPA340178,44.5,25.9,16.1,5.7,8.7,0,44,dronefo...-Mavic Air,0K1DF2P1BD65JJ,,,0K4AEBPA340178,,Android, 4.2.8,,,,,,
48,4/19/2018,46:33.0,0m 5.7s,5.7,39.96131059,-106.2164001,16.1,16.1,16.4,8144,0,2.1,0,1.6,-0.2,0.7,0,0,6.3,-0.8,-113,247,Sport,Other,,17,5,TRUE,,Mavic Air,TRUE,FALSE,,Smart,RC,FALSE,TRUE,FALSE,,,TRUE,,FALSE,FALSE,FALSE,FALSE,FALSE,FALSE,FALSE,FALSE,FALSE,FALSE,0,Follow Yaw,0,0,-113.1,246.9,FALSE,FALSE,FALSE,FALSE,FALSE,TRUE,,TRUE,Normal,,,1024,1024,1024,1024,0,FALSE,FALSE,FALSE,FALSE,FALSE,0,FALSE,FALSE,FALSE,FALSE,95,,,,11.858,FALSE,3.907,3.864,3.865,0.045,FALSE,FALSE,,,,,0,0,1,15,10,12041.7,3087.62,,Idle,0,30,FALSE,10,TRUE,,Go Home,39.96130939,-106.2163991,0.4,7938.4,393.7,TRUE,1,1,FALSE,FALSE,FALSE,FALSE,0,TRUE,FALSE,FALSE,Course Lock,98.4,,16.4,Calm,12,Android, 4.2.8,dronefo...-Mavic Air,0K1DF2P1BD65JJ,,,0K4AEBPA340178,44.5,25.9,16.1,5.7,8.7,0,44,dronefo...-Mavic Air,0K1DF2P1BD65JJ,,,0K4AEBPA340178,,Android, 4.2.8,,,,,,
49,4/19/2018,46:33.1,0m 5.8s,5.8,39.96131086,-106.2164007,16.1,16.1,16.4,8144,1.5,2.1,0,1.6,-0.2,0.7,0.2,0.2,6.5,-2.8,-113.1,246.9,Sport,Other,,17,5,TRUE,,Mavic Air,TRUE,FALSE,,Smart,RC,FALSE,TRUE,FALSE,,,TRUE,,FALSE,FALSE,FALSE,FALSE,FALSE,FALSE,FALSE,FALSE,FALSE,FALSE,0,Follow Yaw,0,0,-113.1,246.9,FALSE,FALSE,FALSE,FALSE,FALSE,TRUE,,TRUE,Normal,,,1024,1024,1024,1024,0,FALSE,FALSE,FALSE,FALSE,FALSE,0,FALSE,FALSE,FALSE,FALSE,95,,,,11.858,FALSE,3.907,3.864,3.865,0.045,FALSE,FALSE,,,,,0,0,1,15,10,12041.7,3087.62,,Idle,0,30,FALSE,10,TRUE,,Go Home,39.96130939,-106.2163991,0.8,7938.4,393.7,TRUE,1,1,FALSE,FALSE,FALSE,FALSE,0,TRUE,FALSE,FALSE,Course Lock,98.4,,16.4,Calm,12,Android, 4.2.8,dronefo...-Mavic Air,0K1DF2P1BD65JJ,,,0K4AEBPA340178,44.5,25.9,16.1,5.7,8.7,0,44,dronefo...-Mavic Air,0K1DF2P1BD65JJ,,,0K4AEBPA340178,,Android, 4.2.8,,,,,,
50,4/19/2018,46:33.2,0m 5.9s,5.9,39.96131087,-106.2164009,15.7,16.1,16.4,8144,0,2.1,0,1.6,-0.2,0.7,0.2,0.2,6.3,-3.1,-113.1,246.9,Sport,Other,,17,5,TRUE,,Mavic Air,TRUE,FALSE,,Smart,RC,FALSE,TRUE,FALSE,,,TRUE,,FALSE,FALSE,FALSE,FALSE,FALSE,FALSE,FALSE,FALSE,FALSE,FALSE,0,Follow Yaw,0,0,-113.1,246.9,FALSE,FALSE,FALSE,FALSE,FALSE,TRUE,,TRUE,Normal,,,1024,1024,1024,1024,0,FALSE,FALSE,FALSE,FALSE,FALSE,0,FALSE,FALSE,FALSE,FALSE,95,,,,11.858,FALSE,3.907,3.864,3.865,0.045,FALSE,FALSE,,,,,0,0,1,15,10,12041.7,3087.62,,Idle,0,30,FALSE,10,TRUE,,Go Home,39.96130939,-106.2163991,0.6,7938.4,393.7,TRUE,1,1,FALSE,FALSE,FALSE,FALSE,0,TRUE,FALSE,FALSE,Course Lock,98.4,,16.4,Calm,12,Android, 4.2.8,dronefo...-Mavic Air,0K1DF2P1BD65JJ,,,0K4AEBPA340178,44.5,25.9,16.1,5.7,8.7,0,44,dronefo...-Mavic Air,0K1DF2P1BD65JJ,,,0K4AEBPA340178,,Android, 4.2.8,,,,,,
51,4/19/2018,46:33.3,0m 6.0s,6,39.96131114,-106.2164008,15.7,16.1,16.1,8144,0,2.1,0,1.6,0,0.7,0.2,0.2,5.4,-2.2,-113.1,246.9,Sport,Other,,17,5,TRUE,,Mavic Air,TRUE,FALSE,,Smart,RC,FALSE,TRUE,FALSE,,,TRUE,,FALSE,FALSE,FALSE,FALSE,FALSE,FALSE,FALSE,FALSE,FALSE,FALSE,0,Follow Yaw,0,0,-113.1,246.9,FALSE,FALSE,FALSE,FALSE,FALSE,TRUE,,TRUE,Normal,,,1024,1024,1024,1024,0,FALSE,FALSE,FALSE,FALSE,FALSE,0,FALSE,FALSE,FALSE,FALSE,95,,,,12.326,FALSE,4.121,4.102,4.103,0.045,FALSE,FALSE,,,,,0,0,1,15,10,12041.7,3087.62,,Idle,0,30,FALSE,10,TRUE,,Go Home,39.96130939,-106.2163991,0.8,7938.4,393.7,TRUE,1,1,FALSE,FALSE,FALSE,FALSE,0,TRUE,FALSE,FALSE,Course Lock,98.4,,16.4,Calm,12,Android, 4.2.8,dronefo...-Mavic Air,0K1DF2P1BD65JJ,,,0K4AEBPA340178,44.5,25.9,16.1,5.7,8.7,0,44,dronefo...-Mavic Air,0K1DF2P1BD65JJ,,,0K4AEBPA340178,,Android, 4.2.8,,,,,,
52,4/19/2018,46:33.4,0m 6.1s,6.1,39.96131115,-106.2164009,15.4,16.1,16.1,8144,0,2.1,0,1.6,0,0.7,0.2,0.2,5,-1.4,-113,247,Sport,Other,,17,5,TRUE,,Mavic Air,TRUE,FALSE,,Smart,RC,FALSE,TRUE,FALSE,,,TRUE,,FALSE,FALSE,FALSE,FALSE,FALSE,FALSE,FALSE,FALSE,FALSE,FALSE,0,Follow Yaw,0,0,-113.1,246.9,FALSE,FALSE,FALSE,FALSE,FALSE,TRUE,,TRUE,Normal,,,1024,1024,1024,1024,0,FALSE,FALSE,FALSE,FALSE,FALSE,0,FALSE,FALSE,FALSE,FALSE,95,,,,12.326,FALSE,4.121,4.102,4.103,0.045,FALSE,FALSE,,,,,0,0,1,15,10,12041.7,3087.62,,Idle,0,30,FALSE,10,TRUE,,Go Home,39.96130939,-106.2163991,0.8,7938.4,393.7,TRUE,1,1,FALSE,FALSE,FALSE,FALSE,0,TRUE,FALSE,FALSE,Course Lock,98.4,,16.4,Calm,12,Android, 4.2.8,dronefo...-Mavic Air,0K1DF2P1BD65JJ,,,0K4AEBPA340178,44.5,25.9,16.1,5.7,8.7,0,44,dronefo...-Mavic Air,0K1DF2P1BD65JJ,,,0K4AEBPA340178,,Android, 4.2.8,,,,,,
53,4/19/2018,46:33.4,0m 6.2s,6.2,39.96131104,-106.2164006,15.4,16.1,16.1,8144,0,2.1,0,1.6,0,0.7,0,0.2,4.7,-1.2,-113.1,246.9,Sport,Other,,17,5,TRUE,,Mavic Air,TRUE,FALSE,,Smart,RC,FALSE,TRUE,FALSE,,,TRUE,,FALSE,FALSE,FALSE,FALSE,FALSE,FALSE,FALSE,FALSE,FALSE,FALSE,0,Follow Yaw,0,0,-113.1,246.9,FALSE,FALSE,FALSE,FALSE,FALSE,TRUE,,TRUE,Normal,,,1024,1024,1024,1024,0,FALSE,FALSE,FALSE,FALSE,FALSE,0,FALSE,FALSE,FALSE,FALSE,95,,,,12.326,FALSE,4.121,4.102,4.103,0.045,FALSE,FALSE,,,,,0,0,1,15,10,12041.7,3087.62,,Idle,0,30,FALSE,10,TRUE,,Go Home,39.96130939,-106.2163991,0.8,7938.4,393.7,TRUE,1,1,FALSE,FALSE,FALSE,FALSE,0,TRUE,FALSE,FALSE,Course Lock,98.4,,16.4,Calm,12,Android, 4.2.8,dronefo...-Mavic Air,0K1DF2P1BD65JJ,,,0K4AEBPA340178,44.5,25.9,16.1,5.7,8.7,0,44,dronefo...-Mavic Air,0K1DF2P1BD65JJ,,,0K4AEBPA340178,,Android, 4.2.8,,,,,,
54,4/19/2018,46:33.6,0m 6.3s,6.3,39.96131104,-106.2164006,15.1,16.1,16.1,8143,0,2.1,0,1.6,0,0.7,0,0.2,4.5,-1,-113.1,246.9,Sport,Other,,17,5,TRUE,,Mavic Air,TRUE,FALSE,,Smart,RC,FALSE,TRUE,FALSE,,,TRUE,,FALSE,FALSE,FALSE,FALSE,FALSE,FALSE,FALSE,FALSE,FALSE,FALSE,0,Follow Yaw,0,0,-113.1,246.9,FALSE,FALSE,FALSE,FALSE,FALSE,TRUE,,TRUE,Normal,,,1024,1024,1024,1024,0,FALSE,FALSE,FALSE,FALSE,FALSE,0,FALSE,FALSE,FALSE,FALSE,95,,,,12.326,FALSE,4.121,4.102,4.103,0.045,FALSE,FALSE,,,,,0,0,1,15,10,12041.7,3087.62,,Idle,0,30,FALSE,10,TRUE,,Go Home,39.96130939,-106.2163991,0.8,7938.4,393.7,TRUE,1,1,FALSE,FALSE,FALSE,FALSE,0,TRUE,FALSE,FALSE,Course Lock,98.4,,16.4,Calm,12,Android, 4.2.8,dronefo...-Mavic Air,0K1DF2P1BD65JJ,,,0K4AEBPA340178,44.5,25.9,16.1,5.7,8.7,0,44,dronefo...-Mavic Air,0K1DF2P1BD65JJ,,,0K4AEBPA340178,,Android, 4.2.8,,,,,,
55,4/19/2018,46:33.7,0m 6.4s,6.4,39.96131098,-106.2164006,15.1,16.1,16.1,8143,0,2.1,0,1.6,0,0.7,0,0.2,4.8,-0.4,-113.1,246.9,Sport,Other,,17,5,TRUE,,Mavic Air,TRUE,FALSE,,Smart,RC,FALSE,TRUE,FALSE,,,TRUE,,FALSE,FALSE,FALSE,FALSE,FALSE,FALSE,FALSE,FALSE,FALSE,FALSE,0,Follow Yaw,0,0,-113.1,246.9,FALSE,FALSE,FALSE,FALSE,FALSE,TRUE,,TRUE,Normal,,,1024,1024,1024,1024,0,FALSE,FALSE,FALSE,FALSE,FALSE,0,FALSE,FALSE,FALSE,FALSE,95,,,,12.326,FALSE,4.121,4.102,4.103,0.045,FALSE,FALSE,,,,,0,0,1,15,10,12041.7,3087.62,,Idle,0,30,FALSE,10,TRUE,,Go Home,39.96130939,-106.2163991,0.8,7938.4,393.7,TRUE,1,1,FALSE,FALSE,FALSE,FALSE,0,TRUE,FALSE,FALSE,Course Lock,98.4,,16.4,Calm,12,Android, 4.2.8,dronefo...-Mavic Air,0K1DF2P1BD65JJ,,,0K4AEBPA340178,44.5,25.9,16.1,5.7,8.7,0,44,dronefo...-Mavic Air,0K1DF2P1BD65JJ,,,0K4AEBPA340178,,Android, 4.2.8,,,,,,
56,4/19/2018,46:33.8,0m 6.5s,6.5,39.96131097,-106.2164006,15.1,16.1,16.1,8143,0,2.1,0,1.6,0,0.7,0,0.2,5.3,-0.2,-113.1,246.9,Sport,Other,,17,5,TRUE,,Mavic Air,TRUE,FALSE,,Smart,RC,FALSE,TRUE,FALSE,,,TRUE,,FALSE,FALSE,FALSE,FALSE,FALSE,FALSE,FALSE,FALSE,FALSE,FALSE,0,Follow Yaw,0,0,-113.1,246.9,FALSE,FALSE,FALSE,FALSE,FALSE,TRUE,,TRUE,Normal,,,1024,1024,1024,1024,0,FALSE,FALSE,FALSE,FALSE,FALSE,0,FALSE,FALSE,FALSE,FALSE,95,,,,12.326,FALSE,4.121,4.102,4.103,0.045,FALSE,FALSE,,,,,0,0,1,15,10,12041.7,3087.62,,Idle,0,30,FALSE,10,TRUE,,Go Home,39.96130939,-106.2163991,0.7,7938.4,393.7,TRUE,1,1,FALSE,FALSE,FALSE,FALSE,0,TRUE,FALSE,FALSE,Course Lock,98.4,,16.4,Calm,12,Android, 4.2.8,dronefo...-Mavic Air,0K1DF2P1BD65JJ,,,0K4AEBPA340178,44.5,25.9,16.1,5.7,8.7,0,44,dronefo...-Mavic Air,0K1DF2P1BD65JJ,,,0K4AEBPA340178,,Android, 4.2.8,,,,,,
57,4/19/2018,46:33.9,0m 6.6s,6.6,39.96131068,-106.2164004,15.1,16.1,16.1,8143,0,2.1,0,1.6,0,0.7,0,0.2,5.5,0.1,-113,247,Sport,Other,,17,5,TRUE,,Mavic Air,TRUE,FALSE,,Smart,RC,FALSE,TRUE,FALSE,,,TRUE,,FALSE,FALSE,FALSE,FALSE,FALSE,FALSE,FALSE,FALSE,FALSE,FALSE,0,Follow Yaw,0,0,-113.1,246.9,FALSE,FALSE,FALSE,FALSE,FALSE,TRUE,,TRUE,Normal,,,1024,1024,1024,1024,0,FALSE,FALSE,FALSE,FALSE,FALSE,0,FALSE,FALSE,FALSE,FALSE,95,,,,12.326,FALSE,4.121,4.102,4.103,0.045,FALSE,FALSE,,,,,0,0,1,15,10,12041.7,3087.62,,Idle,0,30,FALSE,10,TRUE,,Go Home,39.96130939,-106.2163991,0.6,7938.4,393.7,TRUE,1,1,FALSE,FALSE,FALSE,FALSE,0,TRUE,FALSE,FALSE,Course Lock,98.4,,16.4,Calm,12,Android, 4.2.8,dronefo...-Mavic Air,0K1DF2P1BD65JJ,,,0K4AEBPA340178,44.5,25.9,16.1,5.7,8.7,0,44,dronefo...-Mavic Air,0K1DF2P1BD65JJ,,,0K4AEBPA340178,,Android, 4.2.8,,,,,,
58,4/19/2018,46:34.0,0m 6.7s,6.7,39.96131067,-106.2164004,15.1,16.1,16.1,8143,0,2.1,0,1.6,0,0.7,-0.2,0.2,4.9,-1,-113.1,246.9,Sport,Other,,17,5,TRUE,,Mavic Air,TRUE,FALSE,,Smart,RC,FALSE,TRUE,FALSE,,,TRUE,,FALSE,FALSE,FALSE,FALSE,FALSE,FALSE,FALSE,FALSE,FALSE,FALSE,0,Follow Yaw,0,0,-113.1,246.9,FALSE,FALSE,FALSE,FALSE,FALSE,TRUE,,TRUE,Normal,,,1024,1024,1024,1024,0,FALSE,FALSE,FALSE,FALSE,FALSE,0,FALSE,FALSE,FALSE,FALSE,95,,,,12.21,FALSE,4.121,4.102,4.103,0.045,FALSE,FALSE,,,,,0,0,1,15,10,15554.1,3988.23,,Idle,0,30,FALSE,10,TRUE,,Go Home,39.96130939,-106.2163991,0.4,7938.4,393.7,TRUE,1,1,FALSE,FALSE,FALSE,FALSE,0,TRUE,FALSE,FALSE,Course Lock,98.4,,16.4,Calm,12,Android, 4.2.8,dronefo...-Mavic Air,0K1DF2P1BD65JJ,,,0K4AEBPA340178,44.5,25.9,16.1,5.7,8.7,0,44,dronefo...-Mavic Air,0K1DF2P1BD65JJ,,,0K4AEBPA340178,,Android, 4.2.8,,,,,,
59,4/19/2018,46:34.0,0m 6.8s,6.8,39.96131066,-106.2164005,15.1,16.1,16.1,8143,0,2.1,0,1.6,0,0.7,-0.2,0.2,4.3,-1.3,-113.1,246.9,Sport,Other,,17,5,TRUE,,Mavic Air,TRUE,FALSE,,Smart,RC,FALSE,TRUE,FALSE,,,TRUE,,FALSE,FALSE,FALSE,FALSE,FALSE,FALSE,FALSE,FALSE,FALSE,FALSE,0,Follow Yaw,0,0,-113.1,246.9,FALSE,FALSE,FALSE,FALSE,FALSE,TRUE,,TRUE,Normal,,,1024,1024,1024,1024,0,FALSE,FALSE,FALSE,FALSE,FALSE,0,FALSE,FALSE,FALSE,FALSE,95,,,,12.21,FALSE,4.121,4.102,4.103,0.045,FALSE,FALSE,,,,,0,0,1,15,10,15554.1,3988.23,,Idle,0,30,FALSE,10,TRUE,,Go Home,39.96130939,-106.2163991,0.6,7938.4,393.7,TRUE,1,1,FALSE,FALSE,FALSE,FALSE,0,TRUE,FALSE,FALSE,Course Lock,98.4,,16.4,Calm,12,Android, 4.2.8,dronefo...-Mavic Air,0K1DF2P1BD65JJ,,,0K4AEBPA340178,44.5,25.9,16.1,5.7,8.7,0,44,dronefo...-Mavic Air,0K1DF2P1BD65JJ,,,0K4AEBPA340178,,Android, 4.2.8,,,,,,
60,4/19/2018,46:34.1,0m 6.9s,6.9,39.96131066,-106.2164005,15.1,16.1,16.1,8143,0,2.1,0,1.6,0,0.7,-0.2,0.2,4.2,-1.1,-113,247,Sport,Other,,17,5,TRUE,,Mavic Air,TRUE,FALSE,,Smart,RC,FALSE,TRUE,FALSE,,,TRUE,,FALSE,FALSE,FALSE,FALSE,FALSE,FALSE,FALSE,FALSE,FALSE,FALSE,0,Follow Yaw,0,0,-113.1,246.9,FALSE,FALSE,FALSE,FALSE,FALSE,TRUE,,TRUE,Normal,,,1024,1024,1024,1024,0,FALSE,FALSE,FALSE,FALSE,FALSE,0,FALSE,FALSE,FALSE,FALSE,95,,,,12.21,FALSE,4.121,4.102,4.103,0.045,FALSE,FALSE,,,,,0,0,1,15,10,15554.1,3988.23,,Idle,0,30,FALSE,10,TRUE,,Go Home,39.96130939,-106.2163991,0.6,7938.4,393.7,TRUE,1,1,FALSE,FALSE,FALSE,FALSE,0,TRUE,FALSE,FALSE,Course Lock,98.4,,16.4,Calm,12,Android, 4.2.8,dronefo...-Mavic Air,0K1DF2P1BD65JJ,,,0K4AEBPA340178,44.5,25.9,16.1,5.7,8.7,0,44,dronefo...-Mavic Air,0K1DF2P1BD65JJ,,,0K4AEBPA340178,,Android, 4.2.8,,,,,,
61,4/19/2018,46:34.3,0m 7.0s,7,39.96131044,-106.2164004,15.4,16.1,16.1,8144,1.1,2.1,0,1.6,0,0.7,-0.2,0.2,5,-0.8,-113,247,Sport,Other,,17,5,TRUE,,Mavic Air,TRUE,FALSE,,Smart,RC,FALSE,TRUE,FALSE,,,TRUE,,FALSE,FALSE,FALSE,FALSE,FALSE,FALSE,FALSE,FALSE,FALSE,FALSE,0,Follow Yaw,0,0,-113.1,246.9,FALSE,FALSE,FALSE,FALSE,FALSE,TRUE,,TRUE,Normal,,,1024,1024,1024,1024,0,FALSE,FALSE,FALSE,FALSE,FALSE,0,FALSE,FALSE,FALSE,FALSE,95,,,,12.02,FALSE,4.031,3.997,3.992,0.045,FALSE,FALSE,,,,,0,0,1,15,10,15554.1,3988.23,,Idle,0,30,FALSE,10,TRUE,,Go Home,39.96130939,-106.2163991,0.4,7938.4,393.7,TRUE,1,1,FALSE,FALSE,FALSE,FALSE,0,TRUE,FALSE,FALSE,Course Lock,98.4,,16.4,Calm,12,Android, 4.2.8,dronefo...-Mavic Air,0K1DF2P1BD65JJ,,,0K4AEBPA340178,44.5,25.9,16.1,5.7,8.7,0,44,dronefo...-Mavic Air,0K1DF2P1BD65JJ,,,0K4AEBPA340178,,Android, 4.2.8,,,,,,
62,4/19/2018,46:34.4,0m 7.1s,7.1,39.96131043,-106.2164004,15.4,16.1,16.4,8144,0,2.1,0,1.6,0,0.7,-0.2,0.2,5.6,-0.5,-113.1,246.9,Sport,Other,,17,5,TRUE,,Mavic Air,TRUE,FALSE,,Smart,RC,FALSE,TRUE,FALSE,,,TRUE,,FALSE,FALSE,FALSE,FALSE,FALSE,FALSE,FALSE,FALSE,FALSE,FALSE,0,Follow Yaw,0,0,-113.1,246.9,FALSE,FALSE,FALSE,FALSE,FALSE,TRUE,,TRUE,Normal,,,1024,1024,1024,1024,0,FALSE,FALSE,FALSE,FALSE,FALSE,0,FALSE,FALSE,FALSE,FALSE,95,,,,12.02,FALSE,4.031,3.997,3.992,0.045,FALSE,FALSE,,,,,0,0,1,15,10,15554.1,3988.23,,Idle,0,30,FALSE,10,TRUE,,Go Home,39.96130939,-106.2163991,0.4,7938.4,393.7,TRUE,1,1,FALSE,FALSE,FALSE,FALSE,0,TRUE,FALSE,FALSE,Course Lock,98.4,,16.4,Calm,12,Android, 4.2.8,dronefo...-Mavic Air,0K1DF2P1BD65JJ,,,0K4AEBPA340178,44.5,25.9,16.1,5.7,8.7,0,44,dronefo...-Mavic Air,0K1DF2P1BD65JJ,,,0K4AEBPA340178,,Android, 4.2.8,,,,,,
63,4/19/2018,46:34.6,0m 7.2s,7.2,39.96131016,-106.2164004,15.4,16.1,16.4,8144,0,2.1,0,1.6,0,0.7,-0.2,0.2,5.5,-1.1,-113.2,246.8,Sport,Other,,17,5,TRUE,,Mavic Air,TRUE,FALSE,,Smart,RC,FALSE,TRUE,FALSE,,,TRUE,,FALSE,FALSE,FALSE,FALSE,FALSE,FALSE,FALSE,FALSE,FALSE,FALSE,0,Follow Yaw,0,0,-113.1,246.9,FALSE,FALSE,FALSE,FALSE,FALSE,TRUE,,TRUE,Normal,,,1024,1024,1024,1024,0,FALSE,FALSE,FALSE,FALSE,FALSE,0,FALSE,FALSE,FALSE,FALSE,95,,,,12.02,FALSE,4.031,3.997,3.992,0.045,FALSE,FALSE,,,,,0,0,1,15,10,15554.1,3988.23,,Idle,0,30,FALSE,10,TRUE,,Go Home,39.96130939,-106.2163991,0.4,7938.4,393.7,TRUE,1,1,FALSE,FALSE,FALSE,FALSE,0,TRUE,FALSE,FALSE,Course Lock,98.4,,16.4,Calm,12,Android, 4.2.8,dronefo...-Mavic Air,0K1DF2P1BD65JJ,,,0K4AEBPA340178,44.5,25.9,16.1,5.7,8.7,0,44,dronefo...-Mavic Air,0K1DF2P1BD65JJ,,,0K4AEBPA340178,,Android, 4.2.8,,,,,,
64,4/19/2018,46:34.6,0m 7.3s,7.3,39.96131013,-106.2164004,15.4,16.1,16.4,8144,0,2.1,0,1.6,0,0.7,-0.2,0.2,5.9,-0.8,-113.2,246.8,Sport,Other,,17,5,TRUE,,Mavic Air,TRUE,FALSE,,Smart,RC,FALSE,TRUE,FALSE,,,TRUE,,FALSE,FALSE,FALSE,FALSE,FALSE,FALSE,FALSE,FALSE,FALSE,FALSE,0,Follow Yaw,0,0,-113.1,246.9,FALSE,FALSE,FALSE,FALSE,FALSE,TRUE,,TRUE,Normal,,,1024,1024,1024,1024,0,FALSE,FALSE,FALSE,FALSE,FALSE,0,FALSE,FALSE,FALSE,FALSE,95,,,,12.02,FALSE,4.031,3.997,3.992,0.045,FALSE,FALSE,,,,,0,0,1,15,10,15554.1,3988.23,,Idle,0,30,FALSE,10,TRUE,,Go Home,39.96130939,-106.2163991,0.4,7938.4,393.7,TRUE,1,1,FALSE,FALSE,FALSE,FALSE,0,TRUE,FALSE,FALSE,Course Lock,98.4,,16.4,Calm,12,Android, 4.2.8,dronefo...-Mavic Air,0K1DF2P1BD65JJ,,,0K4AEBPA340178,44.5,25.9,16.1,5.7,8.7,0,44,dronefo...-Mavic Air,0K1DF2P1BD65JJ,,,0K4AEBPA340178,,Android, 4.2.8,,,,,,
65,4/19/2018,46:34.7,0m 7.4s,7.4,39.96131008,-106.2164004,15.4,16.1,16.4,8144,0,2.1,0,1.6,0,0.7,-0.2,0.2,6.2,-0.6,-113.1,246.9,Sport,Other,,17,5,TRUE,,Mavic Air,TRUE,FALSE,,Smart,RC,FALSE,TRUE,FALSE,,,TRUE,,FALSE,FALSE,FALSE,FALSE,FALSE,FALSE,FALSE,FALSE,FALSE,FALSE,0,Follow Yaw,0,0,-113.1,246.9,FALSE,FALSE,FALSE,FALSE,FALSE,TRUE,,TRUE,Normal,,,1024,1024,1024,1024,0,FALSE,FALSE,FALSE,FALSE,FALSE,0,FALSE,FALSE,FALSE,FALSE,95,,,,12.02,FALSE,4.031,3.997,3.992,0.045,FALSE,FALSE,,,,,0,0,1,15,10,15554.1,3988.23,,Idle,0,30,FALSE,10,TRUE,,Go Home,39.96130939,-106.2163991,0.4,7938.4,393.7,TRUE,1,1,FALSE,FALSE,FALSE,FALSE,0,TRUE,FALSE,FALSE,Course Lock,98.4,,16.4,Calm,12,Android, 4.2.8,dronefo...-Mavic Air,0K1DF2P1BD65JJ,,,0K4AEBPA340178,44.5,25.9,16.1,5.7,8.7,0,44,dronefo...-Mavic Air,0K1DF2P1BD65JJ,,,0K4AEBPA340178,,Android, 4.2.8,,,,,,
66,4/19/2018,46:34.8,0m 7.5s,7.5,39.96131006,-106.2164004,15.4,16.1,16.4,8144,0,2.1,0,1.6,0,0.7,-0.2,0.2,6.4,-0.7,-113.2,246.8,Sport,Other,,17,5,TRUE,,Mavic Air,TRUE,FALSE,,Smart,RC,FALSE,TRUE,FALSE,,,TRUE,,FALSE,FALSE,FALSE,FALSE,FALSE,FALSE,FALSE,FALSE,FALSE,FALSE,0,Follow Yaw,0,0,-113.1,246.9,FALSE,FALSE,FALSE,FALSE,FALSE,TRUE,,TRUE,Normal,,,1024,1024,1024,1024,0,FALSE,FALSE,FALSE,FALSE,FALSE,0,FALSE,FALSE,FALSE,FALSE,95,,,,12.02,FALSE,4.031,3.997,3.992,0.045,FALSE,FALSE,,,,,0,0,1,15,10,15554.1,3988.23,,Idle,0,30,FALSE,10,TRUE,,Go Home,39.96130939,-106.2163991,0.4,7938.4,393.7,TRUE,1,1,FALSE,FALSE,FALSE,FALSE,0,TRUE,FALSE,FALSE,Course Lock,98.4,,16.4,Calm,12,Android, 4.2.8,dronefo...-Mavic Air,0K1DF2P1BD65JJ,,,0K4AEBPA340178,44.5,25.9,16.1,5.7,8.7,0,44,dronefo...-Mavic Air,0K1DF2P1BD65JJ,,,0K4AEBPA340178,,Android, 4.2.8,,,,,,
67,4/19/2018,46:34.9,0m 7.6s,7.6,39.96130969,-106.2164005,15.4,16.1,16.4,8144,0,2.1,0,1.6,0,0.7,0,0.2,6.4,-0.6,-113.2,246.8,Sport,Other,,17,5,TRUE,,Mavic Air,TRUE,FALSE,,Smart,RC,FALSE,TRUE,FALSE,,,TRUE,,FALSE,FALSE,FALSE,FALSE,FALSE,FALSE,FALSE,FALSE,FALSE,FALSE,0,Follow Yaw,0,0,-113.1,246.9,FALSE,FALSE,FALSE,FALSE,FALSE,TRUE,,TRUE,Normal,,,1024,1024,1024,1024,0,FALSE,FALSE,FALSE,FALSE,FALSE,0,FALSE,FALSE,FALSE,FALSE,95,,,,12.02,FALSE,4.031,3.997,3.992,0.045,FALSE,FALSE,,,,,0,0,1,15,10,15554.1,3988.23,,Idle,0,30,FALSE,10,TRUE,,Go Home,39.96130939,-106.2163991,0.4,7938.4,393.7,TRUE,1,1,FALSE,FALSE,FALSE,FALSE,0,TRUE,FALSE,FALSE,Course Lock,98.4,,16.4,Calm,12,Android, 4.2.8,dronefo...-Mavic Air,0K1DF2P1BD65JJ,,,0K4AEBPA340178,44.5,25.9,16.1,5.7,8.7,0,44,dronefo...-Mavic Air,0K1DF2P1BD65JJ,,,0K4AEBPA340178,,Android, 4.2.8,,,,,,
