#,CUSTOM.date [local], CUSTOM.updateTime [local], OSD.flyTime, OSD.flyTime [s], OSD.latitude, OSD.longitude, OSD.height [ft], OSD.heightMax [ft], OSD.vpsHeight [ft], OSD.altitude [ft], OSD.hSpeed [MPH], OSD.hSpeedMax [MPH], OSD.xSpeed [MPH], OSD.xSpeedMax [MPH], OSD.ySpeed [MPH], OSD.ySpeedMax [MPH], OSD.zSpeed [MPH], OSD.zSpeedMax [MPH], OSD.pitch, OSD.roll, OSD.yaw, OSD.yaw [360], OSD.flycState, OSD.flycCommand, OSD.flightAction, OSD.gpsNum, OSD.gpsLevel, OSD.isGPSUsed, OSD.nonGPSCause, OSD.droneType, OSD.isSwaveWork, OSD.waveError, OSD.goHomeStatus, OSD.batteryType, OSD.ctrlDevice, OSD.isOnGround, OSD.isMotorOn, OSD.isMotorBlocked, OSD.motorStartFailedCause, OSD.motorFailReason, OSD.isImuPreheated, OSD.imuInitFailReason, OSD.isAcceletorOverRange, OSD.isBarometerDeadInAir, OSD.isCompassError, OSD.isGoHomeHeightModified, OSD.canIOCWork, OSD.isNotEnoughForce, OSD.isOutOfLimit, OSD.isPropellerCatapult, OSD.isVibrating, OSD.isVisionUsed, OSD.voltageWarning, GIMBAL.mode, GIMBAL.pitch, GIMBAL.roll, GIMBAL.yaw, GIMBAL.yaw [360], GIMBAL.isPitchAtLimit, GIMBAL.isRollAtLimit, GIMBAL.isYawAtLimit, GIMBAL.isStuck, CAMERA.isPhoto, CAMERA.isVideo, CAMERA.filename, CAMERA.sdCardIsInserted, CAMERA.sdCardState, RC.downlinkSignal, RC.uplinkSignal, RC.aileron, RC.elevator, RC.throttle, RC.rudder, RC.mode, RC.goHomeDepressed, RC.recordDepressed, RC.shutterDepressed, RC.playbackDepressed, RC.wheelDepressed, RC.wheelOffset, RC.custom1Depressed, RC.custom2Depressed, RC.custom3Depressed, RC.custom4Depressed, BATTERY.chargeLevel, BATTERY.currentPV [V], BATTERY.currentCapacity [mAh], BATTERY.fullCapacity [mAh], BATTERY.voltage [V], BATTERY.isCellVoltageEstimated, BATTERY.cellVoltage1 [V], BATTERY.cellVoltage2 [V], BATTERY.cellVoltage3 [V], BATTERY.cellVoltage4 [V], BATTERY.maxCellVoltageDeviation, BATTERY.isCellVoltageDeviationHigh, BATTERY.isVoltageLow, BATTERY.current [A], BATTERY.temperature [F], BATTERY.minTemperature [F], BATTERY.maxTemperature [F], BATTERY.usefulTime [s], BATTERY.goHomeTime [s], BATTERY.landTime [s], BATTERY.goHomeBattery, BATTERY.landBattery, BATTERY.safeFlyRadius, BATTERY.volumeConsume, BATTERY.status, BATTERY.goHomeStatus, BATTERY.goHomeCountdown, BATTERY.lowWarning, BATTERY.lowWarningGoHome, BATTERY.seriousLowWarning, BATTERY.seriousLowWarningLanding, BATTERY.timesCharged, MC.failSafeAction, HOME.latitude, HOME.longitude, HOME.distance [ft], HOME.height [ft], HOME.heightLimit [ft], HOME.isHomeRecord, HOME.goHomeMode, HOME.aircraftHeadDirection, HOME.isDynamicHomePointEnabled, HOME.isReachedLimitDistance, HOME.isReachedLimitHeight, HOME.isCompassCeleing, HOME.compassCeleStatus, HOME.isMultipleFlightModeEnabled, HOME.isBeginnerMode, HOME.isIOCEnabled, HOME.iocMode, HOME.goHomeHeight [ft], HOME.courseLockAngle, HOME.forceLandingHeight [ft], HOME.wind, HOME.dataRecorderFileIndex, RECOVER.appType, RECOVER.appVersion, RECOVER.aircraftName, RECOVER.aircraftSerial, RECOVER.cameraSerial, RECOVER.rcSerial, RECOVER.batterySerial, DETAILS.totalTime [s], DETAILS.totalDistance [ft], DETAILS.maxHeight [ft], DETAILS.maxHorizontalSpeed [MPH], DETAILS.maxVerticalSpeed [MPH], DETAILS.photoNum, DETAILS.videoTime [s], DETAILS.aircraftName, DETAILS.aircraftSerial, DETAILS.cameraSerial, DETAILS.rcSerial, DETAILS.batterySerial, DETAILS.appName, DETAILS.appType, DETAILS.appVersion, APPGPS.latitude, APPGPS.longitude, APPGPS.accuracy, APP.message, APP.tip, APP.warning
1,6/20/2018,04:20.9,0m 1.0s,1,39.9611884,-106.2164554,0,0,2,8128,0,0,0,0,0,0,0,0,3.8,-8.1,-111.3,248.7,P-GPS,Auto Fly,Takeoff (App Auto),11,5,TRUE,,Phantom 3 Standard,FALSE,FALSE,,Smart,RC,FALSE,TRUE,FALSE,,ESC part empty on ground,TRUE,,FALSE,FALSE,FALSE,FALSE,TRUE,FALSE,FALSE,FALSE,FALSE,FALSE,0,Follow Yaw,0,0,-111.1,248.9,FALSE,FALSE,FALSE,FALSE,FALSE,FALSE,,TRUE,Normal,,,1024,1024,1024,1024,1,FALSE,FALSE,FALSE,FALSE,FALSE,0,FALSE,FALSE,TRUE,FALSE,66,15.853,2946,4464,16.07,FALSE,3.951,3.958,3.952,3.956,0.007,FALSE,FALSE,64.898,62.5,62.5,62.5,0,0,0,19,14,0,0,,Idle,0,30,FALSE,10,TRUE,4,Go Home,39.9611884,-106.2164555,0,8154,,TRUE,1,1,FALSE,FALSE,FALSE,FALSE,0,TRUE,FALSE,FALSE,Course Lock,98.4,,,Calm,13,Android, 3.1.38,df001,03Z1389682,,,5064506834,228.296,5512.7,176.8,39.1,7.6,0,0,df001,03Z1389682,,,5064506834,,Android, 3.1.38,,,,Data Recorder File Index is 13.,,
2,6/20/2018,04:21.0,0m 1.1s,1.1,39.9611884,-106.2164554,0,0,2,8128,0,0,0,0,0,0,0,0,3.8,-8.1,-111.3,248.7,P-GPS,Auto Fly,Takeoff (App Auto),11,5,TRUE,,Phantom 3 Standard,FALSE,FALSE,,Smart,RC,FALSE,TRUE,FALSE,,ESC part empty on ground,TRUE,,FALSE,FALSE,FALSE,FALSE,TRUE,FALSE,FALSE,FALSE,FALSE,FALSE,0,Follow Yaw,0,0,-111.1,248.9,FALSE,FALSE,FALSE,FALSE,FALSE,FALSE,,TRUE,Normal,,,1024,1024,1024,1024,1,FALSE,FALSE,FALSE,FALSE,FALSE,0,FALSE,FALSE,FALSE,FALSE,66,15.853,2946,4464,16.07,FALSE,3.951,3.958,3.952,3.956,0.007,FALSE,FALSE,64.898,62.5,62.5,62.5,0,0,0,19,14,0,0,,Idle,0,30,FALSE,10,TRUE,4,Go Home,39.9611884,-106.2164555,0,8154,,TRUE,1,1,FALSE,FALSE,FALSE,FALSE,0,TRUE,FALSE,FALSE,Course Lock,98.4,,,Calm,13,Android, 3.1.38,df001,03Z1389682,,,5064506834,228.296,5512.7,176.8,39.1,7.6,0,0,df001,03Z1389682,,,5064506834,,Android, 3.1.38,,,,,,
3,6/20/2018,04:21.1,0m 1.2s,1.2,39.9611884,-106.2164554,0,0,2,8128,0,0,0,0,0,0,0,0,3.8,-8.1,-111.3,248.7,P-GPS,Auto Fly,Takeoff (App Auto),11,5,TRUE,,Phantom 3 Standard,FALSE,FALSE,,Smart,RC,FALSE,TRUE,FALSE,,Other (151),TRUE,,FALSE,FALSE,FALSE,FALSE,TRUE,FALSE,FALSE,FALSE,FALSE,FALSE,0,Follow Yaw,0,0,-111.1,248.9,FALSE,FALSE,FALSE,FALSE,FALSE,FALSE,,TRUE,Normal,,,1024,1024,1024,1024,1,FALSE,FALSE,FALSE,FALSE,FALSE,0,FALSE,FALSE,FALSE,FALSE,66,15.853,2946,4464,16.07,FALSE,3.951,3.958,3.952,3.956,0.007,FALSE,FALSE,64.898,62.5,62.5,62.5,0,0,0,19,14,0,0,,Idle,0,30,FALSE,10,TRUE,4,Go Home,39.9611884,-106.2164555,0,8154,,TRUE,1,1,FALSE,FALSE,FALSE,FALSE,0,TRUE,FALSE,FALSE,Course Lock,98.4,,,Calm,13,Android, 3.1.38,df001,03Z1389682,,,5064506834,228.296,5512.7,176.8,39.1,7.6,0,0,df001,03Z1389682,,,5064506834,,Android, 3.1.38,,,,,,
4,6/20/2018,04:21.2,0m 1.3s,1.3,39.96118841,-106.2164554,0,0,2,8128,0,0,0,0,0,0,0,0,3.8,-8.3,-111.3,248.7,P-GPS,Auto Fly,Takeoff (App Auto),11,5,TRUE,,Phantom 3 Standard,FALSE,FALSE,,Smart,RC,FALSE,TRUE,FALSE,,Other (151),TRUE,,FALSE,FALSE,FALSE,FALSE,TRUE,FALSE,FALSE,FALSE,FALSE,FALSE,0,Follow Yaw,0,0,-111,249,FALSE,FALSE,FALSE,FALSE,FALSE,FALSE,,TRUE,Normal,,,1024,1024,1024,1024,1,FALSE,FALSE,FALSE,FALSE,FALSE,0,FALSE,FALSE,FALSE,FALSE,66,15.853,2946,4464,16.07,FALSE,3.951,3.958,3.952,3.956,0.007,FALSE,FALSE,64.898,62.5,62.5,62.5,0,0,0,19,14,0,0,,Idle,0,30,FALSE,10,TRUE,4,Go Home,39.9611884,-106.2164555,0,8154,,TRUE,1,1,FALSE,FALSE,FALSE,FALSE,0,TRUE,FALSE,FALSE,Course Lock,98.4,,,Calm,13,Android, 3.1.38,df001,03Z1389682,,,5064506834,228.296,5512.7,176.8,39.1,7.6,0,0,df001,03Z1389682,,,5064506834,,Android, 3.1.38,,,,,,
5,6/20/2018,04:21.3,0m 1.4s,1.4,39.96118841,-106.2164554,0,0,2,8128,0,0,0,0,0,0,0.2,0.2,3.9,-8.3,-111.3,248.7,P-GPS,Auto Fly,Takeoff (App Auto),11,5,TRUE,,Phantom 3 Standard,FALSE,FALSE,,Smart,RC,FALSE,TRUE,FALSE,,Other (151),TRUE,,FALSE,FALSE,FALSE,FALSE,TRUE,FALSE,FALSE,FALSE,FALSE,FALSE,0,Follow Yaw,0,0,-111,249,FALSE,FALSE,FALSE,FALSE,FALSE,FALSE,,TRUE,Normal,,,1024,1024,1024,1024,1,FALSE,FALSE,FALSE,FALSE,FALSE,0,FALSE,FALSE,TRUE,FALSE,66,15.853,2946,4464,16.07,FALSE,3.951,3.958,3.952,3.956,0.007,FALSE,FALSE,64.898,62.5,62.5,62.5,0,0,0,19,14,0,0,,Idle,0,30,FALSE,10,TRUE,4,Go Home,39.9611884,-106.2164555,0,8154,,TRUE,1,1,FALSE,FALSE,FALSE,FALSE,0,TRUE,FALSE,FALSE,Course Lock,98.4,,,Calm,13,Android, 3.1.38,df001,03Z1389682,,,5064506834,228.296,5512.7,176.8,39.1,7.6,0,0,df001,03Z1389682,,,5064506834,,Android, 3.1.38,,,,,,
6,6/20/2018,04:21.4,0m 1.5s,1.5,39.96118841,-106.2164554,0,0,2.3,8128,0,0,0,0,0,0,0.2,0.2,3.8,-8.3,-111.3,248.7,P-GPS,Auto Fly,Takeoff (App Auto),11,5,TRUE,,Phantom 3 Standard,FALSE,FALSE,,Smart,RC,FALSE,TRUE,FALSE,,Other (151),TRUE,,FALSE,FALSE,FALSE,FALSE,TRUE,FALSE,FALSE,FALSE,FALSE,FALSE,0,Follow Yaw,0,0,-111,249,FALSE,FALSE,FALSE,FALSE,FALSE,FALSE,,TRUE,Normal,,,1024,1024,1024,1024,1,FALSE,FALSE,FALSE,FALSE,FALSE,0,FALSE,FALSE,FALSE,FALSE,66,15.853,2946,4464,16.07,FALSE,3.951,3.958,3.952,3.956,0.007,FALSE,FALSE,64.898,62.5,62.5,62.5,0,0,0,19,14,0,0,,Idle,0,30,FALSE,10,TRUE,4,Go Home,39.9611884,-106.2164555,0,8154,,TRUE,1,1,FALSE,FALSE,FALSE,FALSE,0,TRUE,FALSE,FALSE,Course Lock,98.4,,,Calm,13,Android, 3.1.38,df001,03Z1389682,,,5064506834,228.296,5512.7,176.8,39.1,7.6,0,0,df001,03Z1389682,,,5064506834,,Android, 3.1.38,,,,,,
7,6/20/2018,04:21.5,0m 1.6s,1.6,39.96118832,-106.2164553,-0.3,0,2.3,8128,0,0,0,0,0,0,0.2,0.2,3.9,-8.3,-111.3,248.7,P-GPS,Auto Fly,Takeoff (App Auto),11,5,TRUE,,Phantom 3 Standard,FALSE,FALSE,,Smart,RC,FALSE,TRUE,FALSE,,Other (151),TRUE,,FALSE,FALSE,FALSE,FALSE,TRUE,FALSE,FALSE,FALSE,FALSE,FALSE,0,Follow Yaw,0,0,-111,249,FALSE,FALSE,FALSE,FALSE,FALSE,FALSE,,TRUE,Normal,,,1024,1024,1024,1024,1,FALSE,FALSE,FALSE,FALSE,FALSE,0,FALSE,FALSE,FALSE,FALSE,66,15.853,2946,4464,16.07,FALSE,3.951,3.958,3.952,3.956,0.007,FALSE,FALSE,64.898,62.5,62.5,62.5,0,0,0,19,14,0,0,,Idle,0,30,FALSE,10,TRUE,4,Go Home,39.9611884,-106.2164555,0,8154,,TRUE,1,1,FALSE,FALSE,FALSE,FALSE,0,TRUE,FALSE,FALSE,Course Lock,98.4,,,Calm,13,Android, 3.1.38,df001,03Z1389682,,,5064506834,228.296,5512.7,176.8,39.1,7.6,0,0,df001,03Z1389682,,,5064506834,,Android, 3.1.38,,,,,,
8,6/20/2018,04:21.6,0m 1.7s,1.7,39.96118832,-106.2164553,-0.3,0,2.3,8128,0,0,0,0,0,0,0.5,0.5,4,-8.5,-111.3,248.7,P-GPS,Auto Fly,Takeoff (App Auto),11,5,TRUE,,Phantom 3 Standard,FALSE,FALSE,,Smart,RC,FALSE,TRUE,FALSE,,Other (151),TRUE,,FALSE,FALSE,FALSE,FALSE,TRUE,FALSE,FALSE,FALSE,FALSE,FALSE,0,Follow Yaw,0,0,-111,249,FALSE,FALSE,FALSE,FALSE,FALSE,FALSE,,TRUE,Normal,,,1024,1024,1198,1024,1,FALSE,FALSE,FALSE,FALSE,FALSE,0,FALSE,FALSE,TRUE,FALSE,66,15.853,2946,4464,16.07,FALSE,3.951,3.958,3.952,3.956,0.007,FALSE,FALSE,64.898,62.5,62.5,62.5,0,0,0,19,14,0,0,,Idle,0,30,FALSE,10,TRUE,4,Go Home,39.9611884,-106.2164555,0,8154,,TRUE,1,1,FALSE,FALSE,FALSE,FALSE,0,TRUE,FALSE,FALSE,Course Lock,98.4,,,Calm,13,Android, 3.1.38,df001,03Z1389682,,,5064506834,228.296,5512.7,176.8,39.1,7.6,0,0,df001,03Z1389682,,,5064506834,,Android, 3.1.38,,,,,,
9,6/20/2018,04:21.7,0m 1.8s,1.8,39.96118832,-106.2164552,-0.7,0,2.3,8127,1.1,1.1,0,0,0,0,0.5,0.5,4,-8.5,-111.3,248.7,P-GPS,Auto Fly,Takeoff (App Auto),11,5,TRUE,,Phantom 3 Standard,FALSE,FALSE,,Smart,RC,FALSE,TRUE,FALSE,,Other (151),TRUE,,FALSE,FALSE,FALSE,FALSE,TRUE,FALSE,FALSE,FALSE,FALSE,FALSE,0,Follow Yaw,0,0,-111,249,FALSE,FALSE,FALSE,FALSE,FALSE,FALSE,,TRUE,Normal,,,1024,1024,1455,1024,1,FALSE,FALSE,FALSE,FALSE,FALSE,0,FALSE,FALSE,FALSE,FALSE,66,15.853,2946,4464,16.07,FALSE,3.951,3.958,3.952,3.956,0.007,FALSE,FALSE,64.898,62.5,62.5,62.5,0,0,0,19,14,0,0,,Idle,0,30,FALSE,10,TRUE,4,Go Home,39.9611884,-106.2164555,0,8154,,TRUE,1,1,FALSE,FALSE,FALSE,FALSE,0,TRUE,FALSE,FALSE,Course Lock,98.4,,,Calm,13,Android, 3.1.38,df001,03Z1389682,,,5064506834,228.296,5512.7,176.8,39.1,7.6,0,0,df001,03Z1389682,,,5064506834,,Android, 3.1.38,,,,,,
10,6/20/2018,04:21.8,0m 1.9s,1.9,39.9611883,-106.2164553,-0.7,0,2.3,8127,0,1.1,0,0,0,0,0.5,0.5,3.9,-8.4,-111.2,248.8,P-GPS,Auto Fly,Takeoff (App Auto),11,5,TRUE,,Phantom 3 Standard,FALSE,FALSE,,Smart,RC,FALSE,TRUE,FALSE,,Other (151),TRUE,,FALSE,FALSE,FALSE,FALSE,TRUE,FALSE,FALSE,FALSE,FALSE,FALSE,0,Follow Yaw,0,0,-111,249,FALSE,FALSE,FALSE,FALSE,FALSE,FALSE,,TRUE,Normal,,,1024,1024,1684,1024,1,FALSE,FALSE,FALSE,FALSE,FALSE,0,FALSE,FALSE,FALSE,FALSE,66,15.853,2946,4464,16.07,FALSE,3.951,3.958,3.952,3.956,0.007,FALSE,FALSE,64.898,62.5,62.5,62.5,0,0,0,19,14,0,0,,Idle,0,30,FALSE,10,TRUE,4,Go Home,39.9611884,-106.2164555,0,8154,,TRUE,1,1,FALSE,FALSE,FALSE,FALSE,0,TRUE,FALSE,FALSE,Course Lock,98.4,,,Calm,13,Android, 3.1.38,df001,03Z1389682,,,5064506834,228.296,5512.7,176.8,39.1,7.6,0,0,df001,03Z1389682,,,5064506834,,Android, 3.1.38,,,,,Taking off.,
11,6/20/2018,04:21.9,0m 2.0s,2,39.9611883,-106.2164553,-1,0,2.3,8127,0,1.1,0,0,0,0,0.5,0.5,3.9,-8.4,-111.2,248.8,Auto Takeoff,Auto Fly,Takeoff (App Auto),11,5,TRUE,,Phantom 3 Standard,FALSE,FALSE,,Smart,RC,FALSE,TRUE,FALSE,,Other (151),TRUE,,FALSE,FALSE,FALSE,FALSE,TRUE,FALSE,FALSE,FALSE,FALSE,FALSE,0,Follow Yaw,0,0,-111,249,FALSE,FALSE,FALSE,FALSE,FALSE,FALSE,,TRUE,Normal,,,1024,1024,1684,1024,1,FALSE,FALSE,FALSE,FALSE,FALSE,0,FALSE,FALSE,FALSE,FALSE,66,15.813,2946,4464,16.036,FALSE,3.95,3.957,3.952,3.956,0.007,FALSE,FALSE,64.888,62.5,62.5,62.5,0,0,0,19,14,0,0,,Idle,0,30,FALSE,10,TRUE,4,Go Home,39.9611884,-106.2164555,0,8154,,TRUE,1,1,FALSE,FALSE,FALSE,FALSE,0,TRUE,FALSE,FALSE,Course Lock,98.4,,,Calm,13,Android, 3.1.38,df001,03Z1389682,,,5064506834,228.296,5512.7,176.8,39.1,7.6,0,0,df001,03Z1389682,,,5064506834,,Android, 3.1.38,,,,RTH Altitude: 98FT.,,
12,6/20/2018,04:22.0,0m 2.1s,2.1,39.9611883,-106.2164553,-1,0,2.3,8127,0,1.1,0,0,0,0,0.5,0.5,3.8,-8.2,-111.2,248.8,Auto Takeoff,Auto Fly,Takeoff (App Auto),11,5,TRUE,,Phantom 3 Standard,FALSE,FALSE,,Smart,RC,FALSE,TRUE,FALSE,,Other (151),TRUE,,FALSE,FALSE,FALSE,FALSE,TRUE,FALSE,FALSE,FALSE,FALSE,FALSE,0,Follow Yaw,0,0,-111,249,FALSE,FALSE,FALSE,FALSE,FALSE,FALSE,,TRUE,Normal,,,1024,1024,1684,1024,1,FALSE,FALSE,FALSE,FALSE,FALSE,0,FALSE,FALSE,FALSE,FALSE,66,15.813,2946,4464,16.036,FALSE,3.95,3.957,3.952,3.956,0.007,FALSE,FALSE,64.888,62.5,62.5,62.5,0,0,0,19,14,0,0,,Idle,0,30,FALSE,10,TRUE,4,Go Home,39.9611884,-106.2164555,0,8154,,TRUE,1,1,FALSE,FALSE,FALSE,FALSE,0,TRUE,FALSE,FALSE,Course Lock,98.4,,,Calm,13,Android, 3.1.38,df001,03Z1389682,,,5064506834,228.296,5512.7,176.8,39.1,7.6,0,0,df001,03Z1389682,,,5064506834,,Android, 3.1.38,,,,,,
13,6/20/2018,04:22.1,0m 2.2s,2.2,39.9611883,-106.2164553,-1,0,2.3,8127,0,1.1,0,0,0,0,0.2,0.5,3.5,-8.1,-111.2,248.8,Auto Takeoff,Auto Fly,Takeoff (App Auto),11,5,TRUE,,Phantom 3 Standard,FALSE,FALSE,,Smart,RC,FALSE,TRUE,FALSE,,Other (206),TRUE,,FALSE,FALSE,FALSE,FALSE,TRUE,FALSE,FALSE,FALSE,FALSE,FALSE,0,Follow Yaw,0,0,-111,249,FALSE,FALSE,FALSE,FALSE,FALSE,FALSE,,TRUE,Normal,,,1024,1024,1684,1024,1,FALSE,FALSE,FALSE,FALSE,FALSE,0,FALSE,FALSE,FALSE,FALSE,66,15.813,2946,4464,16.036,FALSE,3.95,3.957,3.952,3.956,0.007,FALSE,FALSE,64.888,62.5,62.5,62.5,0,0,0,19,14,0,0,,Idle,0,30,FALSE,10,TRUE,4,Go Home,39.9611884,-106.2164555,0,8154,,TRUE,1,1,FALSE,FALSE,FALSE,FALSE,0,TRUE,FALSE,FALSE,Course Lock,98.4,,,Calm,13,Android, 3.1.38,df001,03Z1389682,,,5064506834,228.296,5512.7,176.8,39.1,7.6,0,0,df001,03Z1389682,,,5064506834,,Android, 3.1.38,,,,,,
14,6/20/2018,04:22.2,0m 2.3s,2.3,39.9611883,-106.2164553,-1,0,2.3,8127,0,1.1,0,0,0,0,0.2,0.5,3.5,-8,-111.2,248.8,Auto Takeoff,Auto Fly,Takeoff (App Auto),11,5,TRUE,,Phantom 3 Standard,FALSE,FALSE,,Smart,RC,FALSE,TRUE,FALSE,,Other (206),TRUE,,FALSE,FALSE,FALSE,FALSE,TRUE,FALSE,FALSE,FALSE,FALSE,FALSE,0,Follow Yaw,0,0,-111,249,FALSE,FALSE,FALSE,FALSE,FALSE,FALSE,,TRUE,Normal,,,1024,1024,1684,1024,1,FALSE,FALSE,FALSE,FALSE,FALSE,0,FALSE,FALSE,FALSE,FALSE,66,15.813,2946,4464,16.036,FALSE,3.95,3.957,3.952,3.956,0.007,FALSE,FALSE,64.888,62.5,62.5,62.5,0,0,0,19,14,0,0,,Idle,0,30,FALSE,10,TRUE,4,Go Home,39.9611884,-106.2164555,0,8154,,TRUE,1,1,FALSE,FALSE,FALSE,FALSE,0,TRUE,FALSE,FALSE,Course Lock,98.4,,,Calm,13,Android, 3.1.38,df001,03Z1389682,,,5064506834,228.296,5512.7,176.8,39.1,7.6,0,0,df001,03Z1389682,,,5064506834,,Android, 3.1.38,,,,,,
15,6/20/2018,04:22.3,0m 2.4s,2.4,39.9611883,-106.2164553,-1.3,0,2.3,8127,0,1.1,0,0,0,0,0.2,0.5,3.4,-7.9,-111.1,248.9,Auto Takeoff,Auto Fly,Takeoff (App Auto),11,5,TRUE,,Phantom 3 Standard,FALSE,FALSE,,Smart,RC,FALSE,TRUE,FALSE,,Other (206),TRUE,,FALSE,FALSE,FALSE,FALSE,TRUE,FALSE,FALSE,FALSE,FALSE,FALSE,0,Follow Yaw,0,0,-111,249,FALSE,FALSE,FALSE,FALSE,FALSE,FALSE,,TRUE,Normal,,,1024,1024,1684,1024,1,FALSE,FALSE,FALSE,FALSE,FALSE,0,FALSE,FALSE,FALSE,FALSE,66,15.813,2946,4464,16.036,FALSE,3.95,3.957,3.952,3.956,0.007,FALSE,FALSE,64.888,62.5,62.5,62.5,0,0,0,19,14,0,0,,Idle,0,30,FALSE,10,TRUE,4,Go Home,39.9611884,-106.2164555,0,8154,,TRUE,1,1,FALSE,FALSE,FALSE,FALSE,0,TRUE,FALSE,FALSE,Course Lock,98.4,,,Calm,13,Android, 3.1.38,df001,03Z1389682,,,5064506834,228.296,5512.7,176.8,39.1,7.6,0,0,df001,03Z1389682,,,5064506834,,Android, 3.1.38,,,,,,
16,6/20/2018,04:22.4,0m 2.5s,2.5,39.96118831,-106.2164553,-1.3,0,2.3,8127,0,1.1,0,0,0,0,0.5,0.5,3.3,-7.9,-111.1,248.9,Auto Takeoff,Auto Fly,Takeoff (App Auto),11,5,TRUE,,Phantom 3 Standard,FALSE,FALSE,,Smart,RC,FALSE,TRUE,FALSE,,Other (206),TRUE,,FALSE,FALSE,FALSE,FALSE,TRUE,FALSE,FALSE,FALSE,FALSE,FALSE,0,Follow Yaw,0,0,-111,249,FALSE,FALSE,FALSE,FALSE,FALSE,FALSE,,TRUE,Normal,,,1024,1024,1684,1024,1,FALSE,FALSE,FALSE,FALSE,FALSE,0,FALSE,FALSE,FALSE,FALSE,66,15.813,2946,4464,16.036,FALSE,3.95,3.957,3.952,3.956,0.007,FALSE,FALSE,64.888,62.5,62.5,62.5,0,0,0,19,14,0,0,,Idle,0,30,FALSE,10,TRUE,4,Go Home,39.9611884,-106.2164555,0,8154,,TRUE,1,1,FALSE,FALSE,FALSE,FALSE,0,TRUE,FALSE,FALSE,Course Lock,98.4,,,Calm,13,Android, 3.1.38,df001,03Z1389682,,,5064506834,228.296,5512.7,176.8,39.1,7.6,0,0,df001,03Z1389682,,,5064506834,,Android, 3.1.38,,,,,,
17,6/20/2018,04:22.5,0m 2.6s,2.6,39.9611882,-106.2164554,-1.6,0,2.3,8126,0,1.1,0,0,0,0,0.5,0.5,3.4,-8,-111.1,248.9,Auto Takeoff,Auto Fly,Takeoff (App Auto),11,5,TRUE,,Phantom 3 Standard,FALSE,FALSE,,Smart,RC,FALSE,TRUE,FALSE,,Other (206),TRUE,,FALSE,FALSE,FALSE,FALSE,TRUE,FALSE,FALSE,FALSE,FALSE,FALSE,0,Follow Yaw,0,0,-111,249,FALSE,FALSE,FALSE,FALSE,FALSE,FALSE,,TRUE,Normal,,,1024,1024,1684,1024,1,FALSE,FALSE,FALSE,FALSE,FALSE,0,FALSE,FALSE,FALSE,FALSE,66,15.813,2946,4464,16.036,FALSE,3.95,3.957,3.952,3.956,0.007,FALSE,FALSE,64.888,62.5,62.5,62.5,0,0,0,19,14,0,0,,Idle,0,30,FALSE,10,TRUE,4,Go Home,39.9611884,-106.2164555,0,8154,,TRUE,1,1,FALSE,FALSE,FALSE,FALSE,0,TRUE,FALSE,FALSE,Course Lock,98.4,,,Calm,13,Android, 3.1.38,df001,03Z1389682,,,5064506834,228.296,5512.7,176.8,39.1,7.6,0,0,df001,03Z1389682,,,5064506834,,Android, 3.1.38,,,,,,
18,6/20/2018,04:22.6,0m 2.7s,2.7,39.9611882,-106.2164554,-2,0,2.3,8126,0,1.1,0,0,0,0,0.7,0.7,3.7,-8.1,-111.2,248.8,Auto Takeoff,Auto Fly,Takeoff (App Auto),11,5,TRUE,,Phantom 3 Standard,FALSE,FALSE,,Smart,RC,FALSE,TRUE,FALSE,,Other (206),TRUE,,FALSE,FALSE,FALSE,FALSE,TRUE,FALSE,FALSE,FALSE,FALSE,FALSE,0,Follow Yaw,0,0,-111,249,FALSE,FALSE,FALSE,FALSE,FALSE,FALSE,,TRUE,Normal,,,1024,1024,1684,1024,1,FALSE,FALSE,FALSE,FALSE,FALSE,0,FALSE,FALSE,FALSE,FALSE,66,15.813,2946,4464,16.036,FALSE,3.95,3.957,3.952,3.956,0.007,FALSE,FALSE,64.888,62.5,62.5,62.5,0,0,0,19,14,0,0,,Idle,0,30,FALSE,10,TRUE,4,Go Home,39.9611884,-106.2164555,0,8154,,TRUE,1,1,FALSE,FALSE,FALSE,FALSE,0,TRUE,FALSE,FALSE,Course Lock,98.4,,,Calm,13,Android, 3.1.38,df001,03Z1389682,,,5064506834,228.296,5512.7,176.8,39.1,7.6,0,0,df001,03Z1389682,,,5064506834,,Android, 3.1.38,,,,,,
19,6/20/2018,04:22.7,0m 2.8s,2.8,39.96118819,-106.2164554,-2.3,0,2.3,8126,0,1.1,0,0,0,0,0.9,0.9,3.9,-8.3,-111.3,248.7,Auto Takeoff,Auto Fly,Takeoff (App Auto),11,5,TRUE,,Phantom 3 Standard,FALSE,FALSE,,Smart,RC,FALSE,TRUE,FALSE,,Other (206),TRUE,,FALSE,FALSE,FALSE,FALSE,TRUE,FALSE,FALSE,FALSE,FALSE,FALSE,0,Follow Yaw,0,0,-111,249,FALSE,FALSE,FALSE,FALSE,FALSE,FALSE,,TRUE,Normal,,,1024,1024,1684,1024,1,FALSE,FALSE,FALSE,FALSE,FALSE,0,FALSE,FALSE,FALSE,FALSE,66,15.813,2946,4464,16.036,FALSE,3.95,3.957,3.952,3.956,0.007,FALSE,FALSE,64.888,62.5,62.5,62.5,0,0,0,19,14,0,0,,Idle,0,30,FALSE,10,TRUE,4,Go Home,39.9611884,-106.2164555,0,8154,,TRUE,1,1,FALSE,FALSE,FALSE,FALSE,0,TRUE,FALSE,FALSE,Course Lock,98.4,,,Calm,13,Android, 3.1.38,df001,03Z1389682,,,5064506834,228.296,5512.7,176.8,39.1,7.6,0,0,df001,03Z1389682,,,5064506834,,Android, 3.1.38,,,,,,
20,6/20/2018,04:22.8,0m 2.9s,2.9,39.96118819,-106.2164554,-2.6,0,2.3,8125,0,1.1,0,0,0,0,1.1,1.1,4.2,-8.5,-111.6,248.4,Auto Takeoff,Auto Fly,Takeoff (App Auto),11,5,TRUE,,Phantom 3 Standard,FALSE,FALSE,,Smart,RC,FALSE,TRUE,FALSE,,Other (206),TRUE,,FALSE,FALSE,FALSE,FALSE,TRUE,FALSE,FALSE,FALSE,FALSE,FALSE,0,Follow Yaw,0,0,-111,249,FALSE,FALSE,FALSE,FALSE,FALSE,FALSE,,TRUE,Normal,,,1024,1024,1684,1024,1,FALSE,FALSE,FALSE,FALSE,FALSE,0,FALSE,FALSE,FALSE,FALSE,66,15.813,2946,4464,16.036,FALSE,3.95,3.957,3.952,3.956,0.007,FALSE,FALSE,64.888,62.5,62.5,62.5,0,0,0,19,14,0,0,,Idle,0,30,FALSE,10,TRUE,4,Go Home,39.9611884,-106.2164555,0,8154,,TRUE,1,1,FALSE,FALSE,FALSE,FALSE,0,TRUE,FALSE,FALSE,Course Lock,98.4,,,Calm,13,Android, 3.1.38,df001,03Z1389682,,,5064506834,228.296,5512.7,176.8,39.1,7.6,0,0,df001,03Z1389682,,,5064506834,,Android, 3.1.38,,,,,,
21,6/20/2018,04:22.9,0m 3.0s,3,39.96118816,-106.2164554,-3,0,2.3,8125,0,1.1,0,0,0,0,1.3,1.3,4,-8.2,-112.4,247.6,Auto Takeoff,Auto Fly,Takeoff (App Auto),11,5,TRUE,,Phantom 3 Standard,FALSE,FALSE,,Smart,RC,FALSE,TRUE,FALSE,,Other (206),TRUE,,FALSE,FALSE,FALSE,FALSE,TRUE,FALSE,FALSE,FALSE,FALSE,FALSE,0,Follow Yaw,0,0,-111,249,FALSE,FALSE,FALSE,FALSE,FALSE,FALSE,,TRUE,Normal,,,1024,1024,1684,1024,1,FALSE,FALSE,FALSE,FALSE,FALSE,0,FALSE,FALSE,FALSE,FALSE,66,15.773,2946,4464,15.87,FALSE,3.941,3.95,3.943,3.95,0.009,FALSE,FALSE,64.754,62.5,62.5,62.5,0,0,0,19,14,0,0,,Idle,0,30,FALSE,10,TRUE,4,Go Home,39.9611884,-106.2164555,0,8154,,TRUE,1,1,FALSE,FALSE,FALSE,FALSE,0,TRUE,FALSE,FALSE,Course Lock,98.4,,,Calm,13,Android, 3.1.38,df001,03Z1389682,,,5064506834,228.296,5512.7,176.8,39.1,7.6,0,0,df001,03Z1389682,,,5064506834,,Android, 3.1.38,,,,,,
22,6/20/2018,04:23.0,0m 3.1s,3.1,39.96118811,-106.2164553,-3.6,0,2.3,8124,0,1.1,-0.2,0,0.2,0.2,1.6,1.6,3.6,-7.4,-113.7,246.3,Auto Takeoff,Auto Fly,Takeoff (App Auto),11,5,TRUE,,Phantom 3 Standard,FALSE,FALSE,,Smart,RC,FALSE,TRUE,FALSE,,Other (4),TRUE,,FALSE,FALSE,FALSE,FALSE,TRUE,FALSE,FALSE,FALSE,FALSE,FALSE,0,Follow Yaw,0,0,-111,249,FALSE,FALSE,FALSE,FALSE,FALSE,FALSE,,TRUE,Normal,,,1024,1024,1684,1024,1,FALSE,FALSE,FALSE,FALSE,FALSE,0,FALSE,FALSE,FALSE,FALSE,66,15.773,2946,4464,15.87,FALSE,3.941,3.95,3.943,3.95,0.009,FALSE,FALSE,64.754,62.5,62.5,62.5,0,0,0,19,14,0,0,,Idle,0,30,FALSE,10,TRUE,4,Go Home,39.9611884,-106.2164555,0,8154,,TRUE,1,1,FALSE,FALSE,FALSE,FALSE,0,TRUE,FALSE,FALSE,Course Lock,98.4,,,Calm,13,Android, 3.1.38,df001,03Z1389682,,,5064506834,228.296,5512.7,176.8,39.1,7.6,0,0,df001,03Z1389682,,,5064506834,,Android, 3.1.38,,,,,,
23,6/20/2018,04:23.1,0m 3.2s,3.2,39.96118797,-106.2164552,-3.9,0,2.3,8124,0,1.1,-0.5,0,0.2,0.2,1.6,1.6,3.7,-5.4,-115.3,244.7,Auto Takeoff,Auto Fly,Takeoff (App Auto),11,5,TRUE,,Phantom 3 Standard,FALSE,FALSE,,Smart,RC,FALSE,TRUE,FALSE,,Other (4),TRUE,,FALSE,FALSE,FALSE,FALSE,TRUE,FALSE,FALSE,FALSE,FALSE,FALSE,0,Follow Yaw,0,0,-111.1,248.9,FALSE,FALSE,FALSE,FALSE,FALSE,FALSE,,TRUE,Normal,,,1024,1024,1684,1024,1,FALSE,FALSE,FALSE,FALSE,FALSE,0,FALSE,FALSE,FALSE,FALSE,66,15.773,2946,4464,15.87,FALSE,3.941,3.95,3.943,3.95,0.009,FALSE,FALSE,64.754,62.5,62.5,62.5,0,0,0,19,14,0,0,,Idle,0,30,FALSE,10,TRUE,4,Go Home,39.9611884,-106.2164555,0,8154,,TRUE,1,1,FALSE,FALSE,FALSE,FALSE,0,TRUE,FALSE,FALSE,Course Lock,98.4,,,Calm,13,Android, 3.1.38,df001,03Z1389682,,,5064506834,228.296,5512.7,176.8,39.1,7.6,0,0,df001,03Z1389682,,,5064506834,,Android, 3.1.38,,,,,,
24,6/20/2018,04:23.2,0m 3.4s,3.4,39.96118745,-106.2164545,-4.6,0,2.3,8123,0.7,1.1,-0.7,0,0.7,0.7,0.9,1.6,2.9,-3.6,-117.9,242.1,Auto Takeoff,Auto Fly,Takeoff (App Auto),11,5,TRUE,,Phantom 3 Standard,FALSE,FALSE,,Smart,RC,FALSE,TRUE,FALSE,,Other (4),TRUE,,FALSE,FALSE,FALSE,FALSE,TRUE,FALSE,FALSE,FALSE,FALSE,FALSE,0,Follow Yaw,0,0,-111.4,248.6,FALSE,FALSE,FALSE,FALSE,FALSE,FALSE,,TRUE,Normal,,,1024,1024,1684,1024,1,FALSE,FALSE,FALSE,FALSE,FALSE,0,FALSE,FALSE,FALSE,FALSE,66,15.773,2946,4464,15.87,FALSE,3.941,3.95,3.943,3.95,0.009,FALSE,FALSE,64.754,62.5,62.5,62.5,0,0,0,19,14,0,0,,Idle,0,30,FALSE,10,TRUE,4,Go Home,39.9611884,-106.2164555,0.4,8154,,TRUE,1,1,FALSE,FALSE,FALSE,FALSE,0,TRUE,FALSE,FALSE,Course Lock,98.4,,,Calm,13,Android, 3.1.38,df001,03Z1389682,,,5064506834,228.296,5512.7,176.8,39.1,7.6,0,0,df001,03Z1389682,,,5064506834,,Android, 3.1.38,,,,,,
25,6/20/2018,04:23.4,0m 3.6s,3.6,39.96118666,-106.2164534,-4.9,0,2.6,8123,1.5,1.5,-0.7,0,0.7,0.7,0,1.6,1.1,0,-119.2,240.8,Auto Takeoff,Auto Fly,Takeoff (App Auto),11,5,TRUE,,Phantom 3 Standard,FALSE,FALSE,,Smart,RC,FALSE,TRUE,FALSE,,Other (4),TRUE,,FALSE,FALSE,FALSE,FALSE,TRUE,FALSE,FALSE,FALSE,FALSE,FALSE,0,Follow Yaw,0,0,-112.5,247.5,FALSE,FALSE,FALSE,FALSE,FALSE,FALSE,,TRUE,Normal,,,1024,1024,1681,1024,1,FALSE,FALSE,FALSE,FALSE,FALSE,0,FALSE,FALSE,FALSE,FALSE,66,15.773,2946,4464,15.87,FALSE,3.941,3.95,3.943,3.95,0.009,FALSE,FALSE,64.754,62.5,62.5,62.5,0,0,0,19,14,0,0,,Idle,0,30,FALSE,10,TRUE,4,Go Home,39.9611884,-106.2164555,0.9,8154,,TRUE,1,1,FALSE,FALSE,FALSE,FALSE,0,TRUE,FALSE,FALSE,Course Lock,98.4,,,Calm,13,Android, 3.1.38,df001,03Z1389682,,,5064506834,228.296,5512.7,176.8,39.1,7.6,0,0,df001,03Z1389682,,,5064506834,,Android, 3.1.38,,,,,,
26,6/20/2018,04:23.5,0m 3.7s,3.7,39.96118639,-106.216453,-4.6,0,2.6,8123,1.4,1.5,-0.7,0,0.7,0.7,-0.9,1.6,0.4,0.8,-119.3,240.7,Auto Takeoff,Auto Fly,Takeoff (App Auto),11,5,TRUE,,Phantom 3 Standard,FALSE,FALSE,,Smart,RC,FALSE,TRUE,FALSE,,Other (4),TRUE,,FALSE,FALSE,FALSE,FALSE,TRUE,FALSE,FALSE,FALSE,FALSE,FALSE,0,Follow Yaw,0,0,-113.1,246.9,FALSE,FALSE,FALSE,FALSE,FALSE,FALSE,,TRUE,Normal,,,1024,1024,1603,1024,1,FALSE,FALSE,FALSE,FALSE,FALSE,0,FALSE,FALSE,FALSE,FALSE,66,15.773,2946,4464,15.87,FALSE,3.941,3.95,3.943,3.95,0.009,FALSE,FALSE,64.754,62.5,62.5,62.5,0,0,0,19,14,0,0,,Idle,0,30,FALSE,10,TRUE,4,Go Home,39.9611884,-106.2164555,1,8154,,TRUE,1,1,FALSE,FALSE,FALSE,FALSE,0,TRUE,FALSE,FALSE,Course Lock,98.4,,,Calm,13,Android, 3.1.38,df001,03Z1389682,,,5064506834,228.296,5512.7,176.8,39.1,7.6,0,0,df001,03Z1389682,,,5064506834,,Android, 3.1.38,,,,,,
27,6/20/2018,04:23.6,0m 3.8s,3.8,39.96118596,-106.2164523,-4.3,0,2.6,8124,1.1,1.5,-0.7,0,0.7,0.7,-1.6,1.6,0.3,1.5,-119.2,240.8,Auto Takeoff,Auto Fly,Takeoff (App Auto),11,5,TRUE,,Phantom 3 Standard,FALSE,FALSE,,Smart,RC,FALSE,TRUE,FALSE,,Other (4),TRUE,,FALSE,FALSE,FALSE,FALSE,TRUE,FALSE,FALSE,FALSE,FALSE,FALSE,0,Follow Yaw,0,0,-113.7,246.3,FALSE,FALSE,FALSE,FALSE,FALSE,FALSE,,TRUE,Normal,,,1024,1024,1334,1024,1,FALSE,FALSE,FALSE,FALSE,FALSE,0,FALSE,FALSE,FALSE,FALSE,66,15.773,2946,4464,15.87,FALSE,3.941,3.95,3.943,3.95,0.009,FALSE,FALSE,64.754,62.5,62.5,62.5,0,0,0,19,14,0,0,,Idle,0,30,FALSE,10,TRUE,4,Go Home,39.9611884,-106.2164555,1.2,8154,,TRUE,1,1,FALSE,FALSE,FALSE,FALSE,0,TRUE,FALSE,FALSE,Course Lock,98.4,,,Calm,13,Android, 3.1.38,df001,03Z1389682,,,5064506834,228.296,5512.7,176.8,39.1,7.6,0,0,df001,03Z1389682,,,5064506834,,Android, 3.1.38,,,,,,
28,6/20/2018,04:23.8,0m 3.9s,3.9,39.96118561,-106.2164519,-3.6,0,3,8124,0,3,-0.7,0,0.7,0.7,-1.6,1.6,-0.1,2.4,-119,241,Auto Takeoff,Auto Fly,Takeoff (App Auto),11,5,TRUE,,Phantom 3 Standard,FALSE,FALSE,,Smart,RC,FALSE,TRUE,FALSE,,Other (4),TRUE,,FALSE,FALSE,FALSE,FALSE,TRUE,FALSE,FALSE,FALSE,FALSE,FALSE,0,Follow Yaw,0,0,-114.5,245.5,FALSE,FALSE,FALSE,FALSE,FALSE,FALSE,,TRUE,Normal,,,1024,1024,1024,1024,1,FALSE,FALSE,FALSE,FALSE,FALSE,0,FALSE,FALSE,FALSE,FALSE,66,15.773,2946,4464,15.87,FALSE,3.941,3.95,3.943,3.95,0.009,FALSE,FALSE,64.754,62.5,62.5,62.5,0,0,0,19,14,0,0,,Idle,0,30,FALSE,10,TRUE,4,Go Home,39.9611884,-106.2164555,1.5,8154,,TRUE,1,1,FALSE,FALSE,FALSE,FALSE,0,TRUE,FALSE,FALSE,Course Lock,98.4,,,Calm,13,Android, 3.1.38,df001,03Z1389682,,,5064506834,228.296,5512.7,176.8,39.1,7.6,0,0,df001,03Z1389682,,,5064506834,,Android, 3.1.38,,,,,,
29,6/20/2018,04:23.9,0m 4.0s,4,39.9611851,-106.2164514,-3.3,0,3,8125,1.5,3,-0.9,0,0.7,0.7,-1.3,1.6,-0.3,3.3,-118.5,241.5,Auto Takeoff,Auto Fly,Takeoff (App Auto),11,5,TRUE,,Phantom 3 Standard,FALSE,FALSE,,Smart,RC,FALSE,TRUE,FALSE,,Other (4),TRUE,,FALSE,FALSE,FALSE,FALSE,TRUE,FALSE,FALSE,FALSE,FALSE,FALSE,0,Follow Yaw,0,0,-114.8,245.2,FALSE,FALSE,FALSE,FALSE,FALSE,FALSE,,TRUE,Normal,,,1024,1024,1024,1024,1,FALSE,FALSE,FALSE,FALSE,FALSE,0,FALSE,FALSE,FALSE,FALSE,66,15.534,2946,4464,15.087,FALSE,3.906,3.895,3.9,3.922,0.027,FALSE,FALSE,63.396,62.5,62.5,62.5,0,0,0,19,14,0,0,,Idle,0,30,FALSE,10,TRUE,4,Go Home,39.9611884,-106.2164555,1.7,8154,,TRUE,1,1,FALSE,FALSE,FALSE,FALSE,0,TRUE,FALSE,FALSE,Course Lock,98.4,,,Calm,13,Android, 3.1.38,df001,03Z1389682,,,5064506834,228.296,5512.7,176.8,39.1,7.6,0,0,df001,03Z1389682,,,5064506834,,Android, 3.1.38,,,,,,
30,6/20/2018,04:24.0,0m 4.2s,4.2,39.9611843,-106.2164507,-2.3,0,3,8126,1.4,3,-0.7,0,0.5,0.7,-0.7,1.6,-0.4,4.1,-118.1,241.9,Auto Takeoff,Auto Fly,Takeoff (App Auto),11,5,TRUE,,Phantom 3 Standard,FALSE,FALSE,,Smart,RC,FALSE,TRUE,FALSE,,Other (59),TRUE,,FALSE,FALSE,FALSE,FALSE,TRUE,FALSE,FALSE,FALSE,FALSE,FALSE,0,Follow Yaw,0,0,-115,245,FALSE,FALSE,FALSE,FALSE,FALSE,FALSE,,TRUE,Normal,,,1024,1024,1024,1024,1,FALSE,FALSE,FALSE,FALSE,FALSE,0,FALSE,FALSE,FALSE,FALSE,66,15.534,2946,4464,15.087,FALSE,3.906,3.895,3.9,3.922,0.027,FALSE,FALSE,63.396,62.5,62.5,62.5,0,0,0,19,14,0,0,,Idle,0,30,FALSE,10,TRUE,4,Go Home,39.9611884,-106.2164555,2,8154,,TRUE,1,1,FALSE,FALSE,FALSE,FALSE,0,TRUE,FALSE,FALSE,Course Lock,98.4,,,Calm,13,Android, 3.1.38,df001,03Z1389682,,,5064506834,228.296,5512.7,176.8,39.1,7.6,0,0,df001,03Z1389682,,,5064506834,,Android, 3.1.38,,,,,,
31,6/20/2018,04:24.1,0m 4.3s,4.3,39.96118395,-106.2164504,-2,0,2.6,8126,1.2,3,-0.7,0,0.5,0.7,-0.9,1.6,0.1,3.9,-117.9,242.1,Auto Takeoff,Auto Fly,Takeoff (App Auto),11,5,TRUE,,Phantom 3 Standard,FALSE,FALSE,,Smart,RC,FALSE,TRUE,FALSE,,Other (59),TRUE,,FALSE,FALSE,FALSE,FALSE,TRUE,FALSE,FALSE,FALSE,FALSE,FALSE,0,Follow Yaw,0,0,-115.2,244.8,FALSE,FALSE,FALSE,FALSE,FALSE,FALSE,,TRUE,Normal,,,1024,1024,1410,1024,1,FALSE,FALSE,FALSE,FALSE,FALSE,0,FALSE,FALSE,FALSE,FALSE,66,15.534,2946,4464,15.087,FALSE,3.906,3.895,3.9,3.922,0.027,FALSE,FALSE,63.396,62.5,62.5,62.5,0,0,0,19,14,0,0,,Idle,0,30,FALSE,10,TRUE,4,Go Home,39.9611884,-106.2164555,2.2,8154,,TRUE,1,1,FALSE,FALSE,FALSE,FALSE,0,TRUE,FALSE,FALSE,Course Lock,98.4,,,Calm,13,Android, 3.1.38,df001,03Z1389682,,,5064506834,228.296,5512.7,176.8,39.1,7.6,0,0,df001,03Z1389682,,,5064506834,,Android, 3.1.38,,,,,,
32,6/20/2018,04:24.2,0m 4.4s,4.4,39.96118339,-106.2164502,-1.6,0,2.6,8126,1.5,3,-0.7,0,0.2,0.7,-1.1,1.6,0.5,3.4,-117.9,242.1,Auto Takeoff,Auto Fly,Takeoff (App Auto),11,5,TRUE,,Phantom 3 Standard,FALSE,FALSE,,Smart,RC,FALSE,TRUE,FALSE,,Other (59),TRUE,,FALSE,FALSE,FALSE,FALSE,TRUE,FALSE,FALSE,FALSE,FALSE,FALSE,0,Follow Yaw,0,0,-115.3,244.7,FALSE,FALSE,FALSE,FALSE,FALSE,FALSE,,TRUE,Normal,,,1024,1024,1684,1024,1,FALSE,FALSE,FALSE,FALSE,FALSE,0,FALSE,FALSE,FALSE,FALSE,66,15.534,2946,4464,15.087,FALSE,3.906,3.895,3.9,3.922,0.027,FALSE,FALSE,63.396,62.5,62.5,62.5,0,0,0,19,14,0,0,,Idle,0,30,FALSE,10,TRUE,4,Go Home,39.9611884,-106.2164555,2.4,8154,,TRUE,1,1,FALSE,FALSE,FALSE,FALSE,0,TRUE,FALSE,FALSE,Course Lock,98.4,,,Calm,13,Android, 3.1.38,df001,03Z1389682,,,5064506834,228.296,5512.7,176.8,39.1,7.6,0,0,df001,03Z1389682,,,5064506834,,Android, 3.1.38,,,,,,
33,6/20/2018,04:24.3,0m 4.5s,4.5,39.96118305,-106.21645,-1,0,2.6,8127,1.1,3,-0.7,0,0.2,0.7,-1.8,1.6,1,3.9,-118,242,Auto Takeoff,Auto Fly,Takeoff (App Auto),11,5,TRUE,,Phantom 3 Standard,FALSE,FALSE,,Smart,RC,FALSE,TRUE,FALSE,,Other (59),TRUE,,FALSE,FALSE,FALSE,FALSE,TRUE,FALSE,FALSE,FALSE,FALSE,FALSE,0,Follow Yaw,0,0,-115.4,244.6,FALSE,FALSE,FALSE,FALSE,FALSE,FALSE,,TRUE,Normal,,,1024,1024,1684,1024,1,FALSE,FALSE,FALSE,FALSE,FALSE,0,FALSE,FALSE,FALSE,FALSE,66,15.534,2946,4464,15.087,FALSE,3.906,3.895,3.9,3.922,0.027,FALSE,FALSE,63.396,62.5,62.5,62.5,0,0,0,19,14,0,0,,Idle,0,30,FALSE,10,TRUE,4,Go Home,39.9611884,-106.2164555,2.5,8154,,TRUE,1,1,FALSE,FALSE,FALSE,FALSE,0,TRUE,FALSE,FALSE,Course Lock,98.4,,,Calm,13,Android, 3.1.38,df001,03Z1389682,,,5064506834,228.296,5512.7,176.8,39.1,7.6,0,0,df001,03Z1389682,,,5064506834,,Android, 3.1.38,,,,,,
34,6/20/2018,04:24.4,0m 4.6s,4.6,39.96118282,-106.2164499,-0.7,0,2.6,8127,1.1,3,-0.7,0,0.2,0.7,-2.2,1.6,1.8,3.1,-118,242,Auto Takeoff,Auto Fly,Takeoff (App Auto),11,5,TRUE,,Phantom 3 Standard,FALSE,FALSE,,Smart,RC,FALSE,TRUE,FALSE,,Other (59),TRUE,,FALSE,FALSE,FALSE,FALSE,TRUE,FALSE,FALSE,FALSE,FALSE,FALSE,0,Follow Yaw,0,0,-115.5,244.5,FALSE,FALSE,FALSE,FALSE,FALSE,FALSE,,TRUE,Normal,,,1024,1024,1684,1024,1,FALSE,FALSE,FALSE,FALSE,FALSE,0,FALSE,FALSE,FALSE,FALSE,66,15.534,2946,4464,15.087,FALSE,3.906,3.895,3.9,3.922,0.027,FALSE,FALSE,63.396,62.5,62.5,62.5,0,0,0,19,14,0,0,,Idle,0,30,FALSE,10,TRUE,4,Go Home,39.9611884,-106.2164555,2.6,8154,,TRUE,1,1,FALSE,FALSE,FALSE,FALSE,0,TRUE,FALSE,FALSE,Course Lock,98.4,,,Calm,13,Android, 3.1.38,df001,03Z1389682,,,5064506834,228.296,5512.7,176.8,39.1,7.6,0,0,df001,03Z1389682,,,5064506834,,Android, 3.1.38,,,,,,
35,6/20/2018,04:24.5,0m 4.7s,4.7,39.96118244,-106.2164497,0,0,2.6,8128,0,3,-0.7,0,0,0.7,-2.7,1.6,1.7,2.7,-117.9,242.1,Auto Takeoff,Auto Fly,Takeoff (App Auto),11,5,TRUE,,Phantom 3 Standard,FALSE,FALSE,,Smart,RC,FALSE,TRUE,FALSE,,Other (59),TRUE,,FALSE,FALSE,FALSE,FALSE,TRUE,FALSE,FALSE,FALSE,FALSE,FALSE,0,Follow Yaw,0,0,-115.6,244.4,FALSE,FALSE,FALSE,FALSE,FALSE,FALSE,,TRUE,Normal,,,1024,1024,1684,1024,1,FALSE,FALSE,FALSE,FALSE,FALSE,0,FALSE,FALSE,FALSE,FALSE,66,15.534,2946,4464,15.087,FALSE,3.906,3.895,3.9,3.922,0.027,FALSE,FALSE,63.396,62.5,62.5,62.5,0,0,0,19,14,0,0,,Idle,0,30,FALSE,10,TRUE,4,Go Home,39.9611884,-106.2164555,2.7,8154,,TRUE,1,1,FALSE,FALSE,FALSE,FALSE,0,TRUE,FALSE,FALSE,Course Lock,98.4,,,Calm,13,Android, 3.1.38,df001,03Z1389682,,,5064506834,228.296,5512.7,176.8,39.1,7.6,0,0,df001,03Z1389682,,,5064506834,,Android, 3.1.38,,,,,,
36,6/20/2018,04:24.6,0m 4.8s,4.8,39.96118211,-106.2164497,0,0,3,8128,0,3,-0.7,0,0,0.7,-2.9,1.6,1.2,2.6,-117.8,242.2,Auto Takeoff,Auto Fly,Takeoff (App Auto),11,5,TRUE,,Phantom 3 Standard,FALSE,FALSE,,Smart,RC,FALSE,TRUE,FALSE,,Other (59),TRUE,,FALSE,FALSE,FALSE,FALSE,TRUE,FALSE,FALSE,FALSE,FALSE,FALSE,0,Follow Yaw,0,0,-115.7,244.3,FALSE,FALSE,FALSE,FALSE,FALSE,FALSE,,TRUE,Normal,,,1024,1024,1684,1024,1,FALSE,FALSE,FALSE,FALSE,FALSE,0,FALSE,FALSE,FALSE,FALSE,66,15.534,2946,4464,15.087,FALSE,3.906,3.895,3.9,3.922,0.027,FALSE,FALSE,63.396,62.5,62.5,62.5,0,0,0,19,14,0,0,,Idle,0,30,FALSE,10,TRUE,4,Go Home,39.9611884,-106.2164555,2.8,8154,,TRUE,1,1,FALSE,FALSE,FALSE,FALSE,0,TRUE,FALSE,FALSE,Course Lock,98.4,,,Calm,13,Android, 3.1.38,df001,03Z1389682,,,5064506834,228.296,5512.7,176.8,39.1,7.6,0,0,df001,03Z1389682,,,5064506834,,Android, 3.1.38,,,,,,
37,6/20/2018,04:24.7,0m 4.9s,4.9,39.96118185,-106.2164496,0.7,0.7,3.3,8129,0,3,-0.5,0,0,0.7,-3.1,1.6,0.6,2.8,-117.8,242.2,Auto Takeoff,Auto Fly,Takeoff (App Auto),11,5,TRUE,,Phantom 3 Standard,FALSE,FALSE,,Smart,RC,FALSE,TRUE,FALSE,,Other (59),TRUE,,FALSE,FALSE,FALSE,FALSE,TRUE,FALSE,FALSE,FALSE,FALSE,FALSE,0,Follow Yaw,0,0,-115.8,244.2,FALSE,FALSE,FALSE,FALSE,FALSE,FALSE,,TRUE,Normal,,,1024,1024,1684,1024,1,FALSE,FALSE,FALSE,FALSE,FALSE,0,FALSE,FALSE,FALSE,FALSE,66,15.534,2946,4464,15.087,FALSE,3.906,3.895,3.9,3.922,0.027,FALSE,FALSE,63.396,62.5,62.5,62.5,0,0,0,19,14,0,0,,Idle,0,30,FALSE,10,TRUE,4,Go Home,39.9611884,-106.2164555,2.9,8154,,TRUE,1,1,FALSE,FALSE,FALSE,FALSE,0,TRUE,FALSE,FALSE,Course Lock,98.4,,,Calm,13,Android, 3.1.38,df001,03Z1389682,,,5064506834,228.296,5512.7,176.8,39.1,7.6,0,0,df001,03Z1389682,,,5064506834,,Android, 3.1.38,,,,,,
38,6/20/2018,04:24.8,0m 5.0s,5,39.96118156,-106.2164497,1.3,1.3,3.6,8129,0,3,-0.5,0,0,0.7,-3.6,1.6,0.8,2.6,-117.7,242.3,Auto Takeoff,Auto Fly,Takeoff (App Auto),11,5,TRUE,,Phantom 3 Standard,FALSE,FALSE,,Smart,RC,FALSE,TRUE,FALSE,,Other (59),TRUE,,FALSE,FALSE,FALSE,FALSE,TRUE,FALSE,FALSE,FALSE,FALSE,FALSE,0,Follow Yaw,0,0,-115.9,244.1,FALSE,FALSE,FALSE,FALSE,FALSE,FALSE,,TRUE,Normal,,,1024,1024,1486,1024,1,FALSE,FALSE,FALSE,FALSE,FALSE,0,FALSE,FALSE,FALSE,FALSE,66,15.534,2946,4464,15.087,FALSE,3.906,3.895,3.9,3.922,0.027,FALSE,FALSE,63.396,62.5,62.5,62.5,0,0,0,19,14,0,0,,Idle,0,30,FALSE,10,TRUE,4,Go Home,39.9611884,-106.2164555,3,8154,,TRUE,1,1,FALSE,FALSE,FALSE,FALSE,0,TRUE,FALSE,FALSE,Course Lock,98.4,,,Calm,13,Android, 3.1.38,df001,03Z1389682,,,5064506834,228.296,5512.7,176.8,39.1,7.6,0,0,df001,03Z1389682,,,5064506834,,Android, 3.1.38,,,,,,
39,6/20/2018,04:25.0,0m 5.1s,5.1,39.96118133,-106.2164497,2.3,2.3,3.9,8130,1.1,3,-0.5,0,0,0.7,-3.8,1.6,0.9,2.5,-117.2,242.8,Auto Takeoff,Auto Fly,Takeoff (App Auto),11,5,TRUE,,Phantom 3 Standard,FALSE,FALSE,,Smart,RC,FALSE,TRUE,FALSE,,Other (113),TRUE,,FALSE,FALSE,FALSE,FALSE,TRUE,FALSE,FALSE,FALSE,FALSE,FALSE,0,Follow Yaw,0,0,-115.9,244.1,FALSE,FALSE,FALSE,FALSE,FALSE,FALSE,,TRUE,Normal,,,1024,1024,1410,1024,1,FALSE,FALSE,FALSE,FALSE,FALSE,0,FALSE,FALSE,FALSE,FALSE,66,14.496,2946,4464,14.727,FALSE,3.765,3.768,3.748,3.758,0.027,FALSE,FALSE,58.57,62.5,62.5,62.5,0,0,0,19,14,0,0,,Idle,0,30,FALSE,10,TRUE,4,Go Home,39.9611884,-106.2164555,3.1,8154,,TRUE,1,1,FALSE,FALSE,FALSE,FALSE,0,TRUE,FALSE,FALSE,Course Lock,98.4,,,Calm,13,Android, 3.1.38,df001,03Z1389682,,,5064506834,228.296,5512.7,176.8,39.1,7.6,0,0,df001,03Z1389682,,,5064506834,,Android, 3.1.38,,,,,,
40,6/20/2018,04:25.1,0m 5.3s,5.3,39.96118093,-106.2164497,3.6,3.6,4.6,8131,0.7,3,-0.5,0,0,0.7,-2.9,1.6,2.2,2.7,-116,244,Auto Takeoff,Auto Fly,Takeoff (App Auto),11,5,TRUE,,Phantom 3 Standard,FALSE,FALSE,,Smart,RC,FALSE,TRUE,FALSE,,Other (113),TRUE,,FALSE,FALSE,FALSE,FALSE,TRUE,FALSE,FALSE,FALSE,FALSE,FALSE,0,Follow Yaw,0,0,-116,244,FALSE,FALSE,FALSE,FALSE,FALSE,FALSE,,TRUE,Normal,,,1024,1024,1174,1024,1,FALSE,FALSE,FALSE,FALSE,FALSE,0,FALSE,FALSE,FALSE,FALSE,66,14.496,2946,4464,14.727,FALSE,3.765,3.768,3.748,3.758,0.027,FALSE,FALSE,58.57,62.5,62.5,62.5,0,0,0,19,14,0,0,,Idle,0,30,FALSE,10,TRUE,4,Go Home,39.9611884,-106.2164555,3.2,8154,,TRUE,1,1,FALSE,FALSE,FALSE,FALSE,0,TRUE,FALSE,FALSE,Course Lock,98.4,,,Calm,13,Android, 3.1.38,df001,03Z1389682,,,5064506834,228.296,5512.7,176.8,39.1,7.6,0,0,df001,03Z1389682,,,5064506834,,Android, 3.1.38,,,,,,
41,6/20/2018,04:25.2,0m 5.4s,5.4,39.96118076,-106.2164498,3.9,3.9,4.6,8132,0.7,3,-0.2,0,0,0.7,-2.7,1.6,2.6,2.8,-115.7,244.3,Auto Takeoff,Auto Fly,Takeoff (App Auto),11,5,TRUE,,Phantom 3 Standard,FALSE,FALSE,,Smart,RC,FALSE,TRUE,FALSE,,Other (113),TRUE,,FALSE,FALSE,FALSE,FALSE,TRUE,FALSE,FALSE,FALSE,FALSE,FALSE,0,Follow Yaw,0,0,-116,244,FALSE,FALSE,FALSE,FALSE,FALSE,FALSE,,TRUE,Normal,,,1024,1024,1068,1024,1,FALSE,FALSE,FALSE,FALSE,FALSE,0,FALSE,FALSE,FALSE,FALSE,66,14.496,2946,4464,14.727,FALSE,3.765,3.768,3.748,3.758,0.027,FALSE,FALSE,58.57,62.5,62.5,62.5,0,0,0,19,14,0,0,,Idle,0,30,FALSE,10,TRUE,4,Go Home,39.9611884,-106.2164555,3.2,8154,,TRUE,1,1,FALSE,FALSE,FALSE,FALSE,0,TRUE,FALSE,FALSE,Course Lock,98.4,,,Calm,13,Android, 3.1.38,df001,03Z1389682,,,5064506834,228.296,5512.7,176.8,39.1,7.6,0,0,df001,03Z1389682,,,5064506834,,Android, 3.1.38,,,,,,
42,6/20/2018,04:25.3,0m 5.5s,5.5,39.96118059,-106.2164498,4.6,4.6,4.9,8132,1.1,3,-0.2,0,0,0.7,-2,1.6,2.6,3.3,-115.4,244.6,Auto Takeoff,Auto Fly,Takeoff (App Auto),11,5,TRUE,,Phantom 3 Standard,FALSE,FALSE,,Smart,RC,FALSE,TRUE,FALSE,,Other (113),TRUE,,FALSE,FALSE,FALSE,FALSE,TRUE,FALSE,FALSE,FALSE,FALSE,FALSE,0,Follow Yaw,0,0,-116,244,FALSE,FALSE,FALSE,FALSE,FALSE,FALSE,,TRUE,Normal,,,1024,1024,1115,1024,1,FALSE,FALSE,FALSE,FALSE,FALSE,0,FALSE,FALSE,FALSE,FALSE,66,14.496,2946,4464,14.727,FALSE,3.765,3.768,3.748,3.758,0.027,FALSE,FALSE,58.57,62.5,62.5,62.5,0,0,0,19,14,0,0,,Idle,0,30,FALSE,10,TRUE,4,Go Home,39.9611884,-106.2164555,3.3,8154,,TRUE,1,1,FALSE,FALSE,FALSE,FALSE,0,TRUE,FALSE,FALSE,Course Lock,98.4,,,Calm,13,Android, 3.1.38,df001,03Z1389682,,,5064506834,228.296,5512.7,176.8,39.1,7.6,0,0,df001,03Z1389682,,,5064506834,,Android, 3.1.38,,,,,,
43,6/20/2018,04:25.4,0m 5.6s,5.6,39.96118039,-106.2164498,4.9,4.9,4.9,8133,0,3,-0.2,0,0,0.7,-2,1.6,2.5,3.7,-115.4,244.6,Auto Takeoff,Auto Fly,Takeoff (App Auto),11,5,TRUE,,Phantom 3 Standard,FALSE,FALSE,,Smart,RC,FALSE,TRUE,FALSE,,Other (113),TRUE,,FALSE,FALSE,FALSE,FALSE,TRUE,FALSE,FALSE,FALSE,FALSE,FALSE,0,Follow Yaw,0,0,-116,244,FALSE,FALSE,FALSE,FALSE,FALSE,FALSE,,TRUE,Normal,,,1024,1024,1068,1024,1,FALSE,FALSE,FALSE,FALSE,FALSE,0,FALSE,FALSE,FALSE,FALSE,66,14.496,2946,4464,14.727,FALSE,3.765,3.768,3.748,3.758,0.027,FALSE,FALSE,58.57,62.5,62.5,62.5,0,0,0,19,14,0,0,,Idle,0,30,FALSE,10,TRUE,4,Go Home,39.9611884,-106.2164555,3.3,8154,,TRUE,1,1,FALSE,FALSE,FALSE,FALSE,0,TRUE,FALSE,FALSE,Course Lock,98.4,,,Calm,13,Android, 3.1.38,df001,03Z1389682,,,5064506834,228.296,5512.7,176.8,39.1,7.6,0,0,df001,03Z1389682,,,5064506834,,Android, 3.1.38,,,,,,
44,6/20/2018,04:25.5,0m 5.7s,5.7,39.96118025,-106.2164498,5.2,5.2,5.2,8133,0,3,-0.2,0,0,0.7,-1.8,1.6,2.1,4,-115.5,244.5,Auto Takeoff,Auto Fly,Takeoff (App Auto),11,5,TRUE,,Phantom 3 Standard,FALSE,FALSE,,Smart,RC,FALSE,TRUE,FALSE,,Other (113),TRUE,,FALSE,FALSE,FALSE,FALSE,TRUE,FALSE,FALSE,FALSE,FALSE,FALSE,0,Follow Yaw,0,0,-116,244,FALSE,FALSE,FALSE,FALSE,FALSE,FALSE,,TRUE,Normal,,,1024,1024,1029,1024,1,FALSE,FALSE,FALSE,FALSE,FALSE,0,FALSE,FALSE,FALSE,FALSE,66,14.496,2946,4464,14.727,FALSE,3.765,3.768,3.748,3.758,0.027,FALSE,FALSE,58.57,62.5,62.5,62.5,0,0,0,19,14,0,0,,Idle,0,30,FALSE,10,TRUE,4,Go Home,39.9611884,-106.2164555,3.4,8154,,TRUE,1,1,FALSE,FALSE,FALSE,FALSE,0,TRUE,FALSE,FALSE,Course Lock,98.4,,,Calm,13,Android, 3.1.38,df001,03Z1389682,,,5064506834,228.296,5512.7,176.8,39.1,7.6,0,0,df001,03Z1389682,,,5064506834,,Android, 3.1.38,,,,,,
45,6/20/2018,04:25.6,0m 5.8s,5.8,39.96118002,-106.2164499,5.6,5.6,5.2,8133,0,3,-0.2,0,0,0.7,-1.8,1.6,1.7,4.5,-115.6,244.4,Auto Takeoff,Auto Fly,Takeoff (App Auto),11,5,TRUE,,Phantom 3 Standard,FALSE,FALSE,,Smart,RC,FALSE,TRUE,FALSE,,Other (113),TRUE,,FALSE,FALSE,FALSE,FALSE,TRUE,FALSE,FALSE,FALSE,FALSE,FALSE,0,Follow Yaw,0,0,-116,244,FALSE,FALSE,FALSE,FALSE,FALSE,FALSE,,TRUE,Normal,,,1024,1024,1024,1024,1,FALSE,FALSE,FALSE,FALSE,FALSE,0,FALSE,FALSE,FALSE,FALSE,66,14.496,2946,4464,14.727,FALSE,3.765,3.768,3.748,3.758,0.027,FALSE,FALSE,58.57,62.5,62.5,62.5,0,0,0,19,14,0,0,,Idle,0,30,FALSE,10,TRUE,4,Go Home,39.9611884,-106.2164555,3.4,8154,,TRUE,1,1,FALSE,FALSE,FALSE,FALSE,0,TRUE,FALSE,FALSE,Course Lock,98.4,,,Calm,13,Android, 3.1.38,df001,03Z1389682,,,5064506834,228.296,5512.7,176.8,39.1,7.6,0,0,df001,03Z1389682,,,5064506834,,Android, 3.1.38,,,,,,
46,6/20/2018,04:25.7,0m 5.9s,5.9,39.96117986,-106.21645,5.9,5.9,5.2,8134,0,3,-0.2,0,0,0.7,-1.3,1.6,1.3,4.6,-115.5,244.5,Auto Takeoff,Auto Fly,Takeoff (App Auto),11,5,TRUE,,Phantom 3 Standard,FALSE,FALSE,,Smart,RC,FALSE,TRUE,FALSE,,Other (113),TRUE,,FALSE,FALSE,FALSE,FALSE,TRUE,FALSE,FALSE,FALSE,FALSE,FALSE,0,Follow Yaw,0,0,-116,244,FALSE,FALSE,FALSE,FALSE,FALSE,FALSE,,TRUE,Normal,,,1024,1024,1024,1024,1,FALSE,FALSE,FALSE,FALSE,FALSE,0,FALSE,FALSE,FALSE,FALSE,66,14.496,2946,4464,14.727,FALSE,3.765,3.768,3.748,3.758,0.027,FALSE,FALSE,58.57,62.5,62.5,62.5,0,0,0,19,14,0,0,,Idle,0,30,FALSE,10,TRUE,4,Go Home,39.9611884,-106.2164555,3.5,8154,,TRUE,1,1,FALSE,FALSE,FALSE,FALSE,0,TRUE,FALSE,FALSE,Course Lock,98.4,,,Calm,13,Android, 3.1.38,df001,03Z1389682,,,5064506834,228.296,5512.7,176.8,39.1,7.6,0,0,df001,03Z1389682,,,5064506834,,Android, 3.1.38,,,,,,
47,6/20/2018,04:25.8,0m 6.0s,6,39.96117977,-106.2164501,6.2,6.2,5.2,8134,0,3,0,0,0,0.7,-1.1,1.6,1.5,4.5,-115.4,244.6,Auto Takeoff,Auto Fly,Takeoff (App Auto),11,5,TRUE,,Phantom 3 Standard,FALSE,FALSE,,Smart,RC,FALSE,TRUE,FALSE,,Other (113),TRUE,,FALSE,FALSE,FALSE,FALSE,TRUE,FALSE,FALSE,FALSE,FALSE,FALSE,0,Follow Yaw,0,0,-116,244,FALSE,FALSE,FALSE,FALSE,FALSE,FALSE,,TRUE,Normal,,,1024,1024,1024,1024,1,FALSE,FALSE,FALSE,FALSE,FALSE,0,FALSE,FALSE,FALSE,FALSE,66,14.496,2946,4464,14.727,FALSE,3.765,3.768,3.748,3.758,0.027,FALSE,FALSE,58.57,62.5,62.5,62.5,0,0,0,19,14,0,0,,Idle,0,30,FALSE,10,TRUE,4,Go Home,39.9611884,-106.2164555,3.5,8154,,TRUE,1,1,FALSE,FALSE,FALSE,FALSE,0,TRUE,FALSE,FALSE,Course Lock,98.4,,,Calm,13,Android, 3.1.38,df001,03Z1389682,,,5064506834,228.296,5512.7,176.8,39.1,7.6,0,0,df001,03Z1389682,,,5064506834,,Android, 3.1.38,,,,,,
48,6/20/2018,04:25.9,0m 6.1s,6.1,39.96117971,-106.2164503,6.6,6.6,5.2,8134,0,3,0,0,-0.2,0.7,-1.1,1.6,1.7,4.1,-115.4,244.6,Auto Takeoff,Auto Fly,Takeoff (App Auto),11,5,TRUE,,Phantom 3 Standard,FALSE,FALSE,,Smart,RC,FALSE,TRUE,FALSE,,Other (113),TRUE,,FALSE,FALSE,FALSE,FALSE,TRUE,FALSE,FALSE,FALSE,FALSE,FALSE,0,Follow Yaw,0,0,-116,244,FALSE,FALSE,FALSE,FALSE,FALSE,FALSE,,TRUE,Normal,,,1024,1024,1024,1024,1,FALSE,FALSE,FALSE,FALSE,FALSE,0,FALSE,FALSE,TRUE,FALSE,66,14.496,2946,4464,14.727,FALSE,3.765,3.768,3.748,3.758,0.027,FALSE,FALSE,58.57,62.5,62.5,62.5,0,0,0,19,14,0,0,,Idle,0,30,FALSE,10,TRUE,4,Go Home,39.9611884,-106.2164555,3.5,8154,,TRUE,1,1,FALSE,FALSE,FALSE,FALSE,0,TRUE,FALSE,FALSE,Course Lock,98.4,,,Calm,13,Android, 3.1.38,df001,03Z1389682,,,5064506834,228.296,5512.7,176.8,39.1,7.6,0,0,df001,03Z1389682,,,5064506834,,Android, 3.1.38,,,,,,
49,6/20/2018,04:26.0,0m 6.2s,6.2,39.96117954,-106.2164503,6.9,6.9,5.2,8135,0,3,0,0,-0.2,0.7,-1.3,1.6,2.1,3.6,-115.6,244.4,Auto Takeoff,Auto Fly,Takeoff (App Auto),11,5,TRUE,,Phantom 3 Standard,FALSE,FALSE,,Smart,RC,FALSE,TRUE,FALSE,,Other (168),TRUE,,FALSE,FALSE,FALSE,FALSE,TRUE,FALSE,FALSE,FALSE,FALSE,FALSE,0,Follow Yaw,0,0,-116,244,FALSE,FALSE,FALSE,FALSE,FALSE,FALSE,,TRUE,Normal,,,1024,1024,1024,1024,1,FALSE,FALSE,FALSE,FALSE,FALSE,0,FALSE,FALSE,TRUE,FALSE,66,14.016,2946,4464,14.578,FALSE,3.569,3.574,3.572,3.617,0.048,FALSE,FALSE,51.438,62.5,62.5,62.5,0,0,0,19,14,0,1.94,,Idle,0,30,FALSE,10,TRUE,4,Go Home,39.9611884,-106.2164555,3.6,8154,,TRUE,1,1,FALSE,FALSE,FALSE,FALSE,0,TRUE,FALSE,FALSE,Course Lock,98.4,,,Calm,13,Android, 3.1.38,df001,03Z1389682,,,5064506834,228.296,5512.7,176.8,39.1,7.6,0,0,df001,03Z1389682,,,5064506834,,Android, 3.1.38,,,,,,
50,6/20/2018,04:26.2,0m 6.3s,6.3,39.9611795,-106.2164505,7.2,7.2,5.2,8135,0,3,0,0,-0.2,0.7,-1.3,1.6,2.5,3,-115.8,244.2,P-GPS,Auto Fly,Takeoff (App Auto),11,5,TRUE,,Phantom 3 Standard,FALSE,FALSE,,Smart,RC,FALSE,TRUE,FALSE,,Other (168),TRUE,,FALSE,FALSE,FALSE,FALSE,TRUE,FALSE,FALSE,FALSE,FALSE,FALSE,0,Follow Yaw,0,0,-116,244,FALSE,FALSE,FALSE,FALSE,FALSE,FALSE,,TRUE,Normal,,,1024,1024,1024,1024,1,FALSE,FALSE,FALSE,FALSE,FALSE,0,FALSE,FALSE,FALSE,FALSE,66,14.016,2946,4464,14.578,FALSE,3.569,3.574,3.572,3.617,0.048,FALSE,FALSE,51.438,62.5,62.5,62.5,0,0,0,19,14,0,1.94,,Idle,0,30,FALSE,10,TRUE,4,Go Home,39.9611884,-106.2164555,3.5,8154,,TRUE,1,1,FALSE,FALSE,FALSE,FALSE,0,TRUE,FALSE,FALSE,Course Lock,98.4,,,Calm,13,Android, 3.1.38,df001,03Z1389682,,,5064506834,228.296,5512.7,176.8,39.1,7.6,0,0,df001,03Z1389682,,,5064506834,,Android, 3.1.38,,,,,,
51,6/20/2018,04:26.3,0m 6.4s,6.4,39.96117959,-106.2164507,7.5,7.5,5.2,8135,0,3,0,0,-0.2,0.7,-1.1,1.6,1.4,2.1,-116.1,243.9,P-GPS,Auto Fly,Takeoff (App Auto),11,5,TRUE,,Phantom 3 Standard,FALSE,FALSE,,Smart,RC,FALSE,TRUE,FALSE,,Other (168),TRUE,,FALSE,FALSE,FALSE,FALSE,TRUE,FALSE,FALSE,FALSE,FALSE,FALSE,0,Follow Yaw,0,0,-116,244,FALSE,FALSE,FALSE,FALSE,FALSE,FALSE,,TRUE,Normal,,,1024,1024,1024,1024,1,FALSE,FALSE,FALSE,FALSE,FALSE,0,FALSE,FALSE,FALSE,FALSE,66,14.016,2946,4464,14.578,FALSE,3.569,3.574,3.572,3.617,0.048,FALSE,FALSE,51.438,62.5,62.5,62.5,0,0,0,19,14,0,1.94,,Idle,0,30,FALSE,10,TRUE,4,Go Home,39.9611884,-106.2164555,3.5,8154,,TRUE,1,1,FALSE,FALSE,FALSE,FALSE,0,TRUE,FALSE,FALSE,Course Lock,98.4,,,Calm,13,Android, 3.1.38,df001,03Z1389682,,,5064506834,228.296,5512.7,176.8,39.1,7.6,0,0,df001,03Z1389682,,,5064506834,,Android, 3.1.38,,,,,,
52,6/20/2018,04:26.3,0m 6.5s,6.5,39.96117944,-106.2164508,7.9,7.9,5.2,8136,0,3,0,0,-0.2,0.7,-0.7,1.6,0.5,1.4,-116.2,243.8,P-GPS,Auto Fly,Takeoff (App Auto),11,5,TRUE,,Phantom 3 Standard,FALSE,FALSE,,Smart,RC,FALSE,TRUE,FALSE,,Other (168),TRUE,,FALSE,FALSE,FALSE,FALSE,TRUE,FALSE,FALSE,FALSE,FALSE,FALSE,0,Follow Yaw,0,0,-116,244,FALSE,FALSE,FALSE,FALSE,FALSE,FALSE,,TRUE,Normal,,,1024,1024,1024,1024,1,FALSE,FALSE,FALSE,FALSE,FALSE,0,FALSE,FALSE,TRUE,FALSE,66,14.016,2946,4464,14.578,FALSE,3.569,3.574,3.572,3.617,0.048,FALSE,FALSE,51.438,62.5,62.5,62.5,0,0,0,19,14,0,1.94,,Idle,0,30,FALSE,10,TRUE,4,Go Home,39.9611884,-106.2164555,3.5,8154,,TRUE,1,1,FALSE,FALSE,FALSE,FALSE,0,TRUE,FALSE,FALSE,Course Lock,98.4,,,Calm,13,Android, 3.1.38,df001,03Z1389682,,,5064506834,228.296,5512.7,176.8,39.1,7.6,0,0,df001,03Z1389682,,,5064506834,,Android, 3.1.38,,,,,,
53,6/20/2018,04:26.5,0m 6.6s,6.6,39.96117952,-106.216451,7.9,7.9,5.2,8136,0,3,0,0,-0.2,0.7,-0.7,1.6,0.5,1.4,-116.3,243.7,P-GPS,Auto Fly,Takeoff (App Auto),11,5,TRUE,,Phantom 3 Standard,FALSE,FALSE,,Smart,RC,FALSE,TRUE,FALSE,,Other (168),TRUE,,FALSE,FALSE,FALSE,FALSE,TRUE,FALSE,FALSE,FALSE,FALSE,FALSE,0,Follow Yaw,0,0,-116,244,FALSE,FALSE,FALSE,FALSE,FALSE,FALSE,,TRUE,Normal,,,1024,1024,1024,1024,1,FALSE,FALSE,FALSE,FALSE,FALSE,0,FALSE,FALSE,FALSE,FALSE,66,14.016,2946,4464,14.578,FALSE,3.569,3.574,3.572,3.617,0.048,FALSE,FALSE,51.438,62.5,62.5,62.5,0,0,0,19,14,0,1.94,,Idle,0,30,FALSE,10,TRUE,4,Go Home,39.9611884,-106.2164555,3.5,8154,,TRUE,1,1,FALSE,FALSE,FALSE,FALSE,0,TRUE,FALSE,FALSE,Course Lock,98.4,,,Calm,13,Android, 3.1.38,df001,03Z1389682,,,5064506834,228.296,5512.7,176.8,39.1,7.6,0,0,df001,03Z1389682,,,5064506834,,Android, 3.1.38,,,,,,
54,6/20/2018,04:26.6,0m 6.7s,6.7,39.96117945,-106.2164513,8.2,8.2,5.2,8136,0,3,0,0,-0.5,0.7,-0.5,1.6,0.9,1.5,-116.4,243.6,P-GPS,Auto Fly,Takeoff (App Auto),11,5,TRUE,,Phantom 3 Standard,FALSE,FALSE,,Smart,RC,FALSE,TRUE,FALSE,,Other (168),TRUE,,FALSE,FALSE,FALSE,FALSE,TRUE,FALSE,FALSE,FALSE,FALSE,FALSE,0,Follow Yaw,0,0,-116,244,FALSE,FALSE,FALSE,FALSE,FALSE,FALSE,,TRUE,Normal,,,1024,1024,1024,1024,1,FALSE,FALSE,FALSE,FALSE,FALSE,0,FALSE,FALSE,FALSE,FALSE,66,14.016,2946,4464,14.578,FALSE,3.569,3.574,3.572,3.617,0.048,FALSE,FALSE,51.438,62.5,62.5,62.5,0,0,0,19,14,0,1.94,,Idle,0,30,FALSE,10,TRUE,4,Go Home,39.9611884,-106.2164555,3.5,8154,,TRUE,1,1,FALSE,FALSE,FALSE,FALSE,0,TRUE,FALSE,FALSE,Course Lock,98.4,,,Calm,13,Android, 3.1.38,df001,03Z1389682,,,5064506834,228.296,5512.7,176.8,39.1,7.6,0,0,df001,03Z1389682,,,5064506834,,Android, 3.1.38,,,,,,
55,6/20/2018,04:26.6,0m 6.8s,6.8,39.96117944,-106.2164516,8.2,8.2,4.9,8136,0,3,0,0,-0.5,0.7,0,1.6,1.6,1.8,-116.5,243.5,P-GPS,Auto Fly,Takeoff (App Auto),11,5,TRUE,,Phantom 3 Standard,FALSE,FALSE,,Smart,RC,FALSE,TRUE,FALSE,,Other (168),TRUE,,FALSE,FALSE,FALSE,FALSE,TRUE,FALSE,FALSE,FALSE,FALSE,FALSE,0,Follow Yaw,0,0,-116,244,FALSE,FALSE,FALSE,FALSE,FALSE,FALSE,,TRUE,Normal,,,1024,1024,1024,1024,1,FALSE,FALSE,FALSE,FALSE,FALSE,0,FALSE,FALSE,TRUE,FALSE,66,14.016,2946,4464,14.578,FALSE,3.569,3.574,3.572,3.617,0.048,FALSE,FALSE,51.438,62.5,62.5,62.5,0,0,0,19,14,0,1.94,,Idle,0,30,FALSE,10,TRUE,4,Go Home,39.9611884,-106.2164555,3.4,8154,,TRUE,1,1,FALSE,FALSE,FALSE,FALSE,0,TRUE,FALSE,FALSE,Course Lock,98.4,,,Calm,13,Android, 3.1.38,df001,03Z1389682,,,5064506834,228.296,5512.7,176.8,39.1,7.6,0,0,df001,03Z1389682,,,5064506834,,Android, 3.1.38,,,,,,
56,6/20/2018,04:26.8,0m 6.9s,6.9,39.96117936,-106.2164519,8.2,8.2,4.9,8136,1.1,3,0,0,-0.5,0.7,0,1.6,2.4,2,-116.7,243.3,P-GPS,Auto Fly,Takeoff (App Auto),11,5,TRUE,,Phantom 3 Standard,FALSE,FALSE,,Smart,RC,FALSE,TRUE,FALSE,,Other (168),TRUE,,FALSE,FALSE,FALSE,FALSE,TRUE,FALSE,FALSE,FALSE,FALSE,FALSE,0,Follow Yaw,0,0,-116,244,FALSE,FALSE,FALSE,FALSE,FALSE,FALSE,,TRUE,Normal,,,1024,1024,1024,1024,1,FALSE,FALSE,FALSE,FALSE,FALSE,0,FALSE,FALSE,TRUE,FALSE,66,14.016,2946,4464,14.578,FALSE,3.569,3.574,3.572,3.617,0.048,FALSE,FALSE,51.438,62.5,62.5,62.5,0,0,0,19,14,0,1.94,,Idle,0,30,FALSE,10,TRUE,4,Go Home,39.9611884,-106.2164555,3.5,8154,,TRUE,1,1,FALSE,FALSE,FALSE,FALSE,0,TRUE,FALSE,FALSE,Course Lock,98.4,,,Calm,13,Android, 3.1.38,df001,03Z1389682,,,5064506834,228.296,5512.7,176.8,39.1,7.6,0,0,df001,03Z1389682,,,5064506834,,Android, 3.1.38,,,,,,
57,6/20/2018,04:26.9,0m 7.0s,7,39.96117927,-106.2164523,8.2,8.2,4.6,8136,1.5,3,0,0,-0.5,0.7,0,1.6,3.6,1.8,-116.7,243.3,P-GPS,Auto Fly,Takeoff (App Auto),11,5,TRUE,,Phantom 3 Standard,FALSE,FALSE,,Smart,RC,FALSE,TRUE,FALSE,,Other (168),TRUE,,FALSE,FALSE,FALSE,FALSE,TRUE,FALSE,FALSE,FALSE,FALSE,FALSE,0,Follow Yaw,0,0,-116,244,FALSE,FALSE,FALSE,FALSE,FALSE,FALSE,,TRUE,Normal,,,1024,1024,1024,1024,1,FALSE,FALSE,FALSE,FALSE,FALSE,0,FALSE,FALSE,FALSE,FALSE,66,14.016,2946,4464,14.578,FALSE,3.569,3.574,3.572,3.617,0.048,FALSE,FALSE,51.438,62.5,62.5,62.5,0,0,0,19,14,0,1.94,,Idle,0,30,FALSE,10,TRUE,4,Go Home,39.9611884,-106.2164555,3.5,8154,,TRUE,1,1,FALSE,FALSE,FALSE,FALSE,0,TRUE,FALSE,FALSE,Course Lock,98.4,,,Calm,13,Android, 3.1.38,df001,03Z1389682,,,5064506834,228.296,5512.7,176.8,39.1,7.6,0,0,df001,03Z1389682,,,5064506834,,Android, 3.1.38,,,,,,
58,6/20/2018,04:27.0,0m 7.1s,7.1,39.96117928,-106.2164526,8.2,8.2,4.6,8136,1.1,3,0,0,-0.5,0.7,-0.2,1.6,4.8,2,-116.7,243.3,P-GPS,Auto Fly,Takeoff (App Auto),11,5,TRUE,,Phantom 3 Standard,FALSE,FALSE,,Smart,RC,FALSE,TRUE,FALSE,,Other (168),TRUE,,FALSE,FALSE,FALSE,FALSE,TRUE,FALSE,FALSE,FALSE,FALSE,FALSE,0,Follow Yaw,0,0,-116,244,FALSE,FALSE,FALSE,FALSE,FALSE,FALSE,,TRUE,Normal,,,1024,1024,1024,1024,1,FALSE,FALSE,FALSE,FALSE,FALSE,0,FALSE,FALSE,FALSE,FALSE,66,14.016,2946,4464,14.578,FALSE,3.569,3.574,3.572,3.617,0.048,FALSE,FALSE,51.438,62.5,62.5,62.5,0,0,0,19,14,0,1.94,,Idle,0,30,FALSE,10,TRUE,4,Go Home,39.9611884,-106.2164555,3.4,8154,,TRUE,1,1,FALSE,FALSE,FALSE,FALSE,0,TRUE,FALSE,FALSE,Course Lock,98.4,,,Calm,13,Android, 3.1.38,df001,03Z1389682,,,5064506834,228.296,5512.7,176.8,39.1,7.6,0,0,df001,03Z1389682,,,5064506834,,Android, 3.1.38,,,,,,
59,6/20/2018,04:27.0,0m 7.2s,7.2,39.96117938,-106.2164528,8.2,8.2,4.3,8136,0,3,0,0,-0.5,0.7,-0.2,1.6,5.6,1.6,-116.4,243.6,P-GPS,Auto Fly,Takeoff (App Auto),11,5,TRUE,,Phantom 3 Standard,FALSE,FALSE,,Smart,RC,FALSE,TRUE,FALSE,,Other (222),TRUE,,FALSE,FALSE,FALSE,FALSE,TRUE,FALSE,FALSE,FALSE,FALSE,FALSE,0,Follow Yaw,0,0,-116,244,FALSE,FALSE,FALSE,FALSE,FALSE,FALSE,,TRUE,Normal,,,1024,1024,1024,1024,1,FALSE,FALSE,FALSE,FALSE,FALSE,0,FALSE,FALSE,TRUE,FALSE,66,14.416,2946,4464,14.543,FALSE,3.569,3.574,3.572,3.617,0.048,FALSE,FALSE,51.438,62.5,62.5,62.5,0,0,1,19,14,0,2.16,,Idle,0,30,FALSE,10,TRUE,4,Go Home,39.9611884,-106.2164555,3.4,8154,,TRUE,1,1,FALSE,FALSE,FALSE,FALSE,0,TRUE,FALSE,FALSE,Course Lock,98.4,,,Calm,13,Android, 3.1.38,df001,03Z1389682,,,5064506834,228.296,5512.7,176.8,39.1,7.6,0,0,df001,03Z1389682,,,5064506834,,Android, 3.1.38,,,,,,
60,6/20/2018,04:27.2,0m 7.3s,7.3,39.96117938,-106.216453,8.5,8.5,4.3,8136,0,3,0,0,-0.2,0.7,-0.2,1.6,6.1,1.6,-116.1,243.9,P-GPS,Auto Fly,Takeoff (App Auto),11,5,TRUE,,Phantom 3 Standard,FALSE,FALSE,,Smart,RC,FALSE,TRUE,FALSE,,Other (222),TRUE,,FALSE,FALSE,FALSE,FALSE,TRUE,FALSE,FALSE,FALSE,FALSE,FALSE,0,Follow Yaw,0,0,-116,244,FALSE,FALSE,FALSE,FALSE,FALSE,FALSE,,TRUE,Normal,,,1024,1024,1024,1024,1,FALSE,FALSE,FALSE,FALSE,FALSE,0,FALSE,FALSE,FALSE,FALSE,66,14.416,2946,4464,14.543,FALSE,3.569,3.574,3.572,3.617,0.048,FALSE,FALSE,51.438,62.5,62.5,62.5,0,0,1,19,14,0,2.16,,Idle,0,30,FALSE,10,TRUE,4,Go Home,39.9611884,-106.2164555,3.4,8154,,TRUE,1,1,FALSE,FALSE,FALSE,FALSE,0,TRUE,FALSE,FALSE,Course Lock,98.4,,,Calm,13,Android, 3.1.38,df001,03Z1389682,,,5064506834,228.296,5512.7,176.8,39.1,7.6,0,0,df001,03Z1389682,,,5064506834,,Android, 3.1.38,,,,,,
61,6/20/2018,04:27.3,0m 7.4s,7.4,39.96117941,-106.2164531,8.5,8.5,4.3,8136,0,3,0,0,-0.2,0.7,0,1.6,5.9,1.3,-115.8,244.2,P-GPS,Auto Fly,Takeoff (App Auto),11,5,TRUE,,Phantom 3 Standard,FALSE,FALSE,,Smart,RC,FALSE,TRUE,FALSE,,Other (222),TRUE,,FALSE,FALSE,FALSE,FALSE,TRUE,FALSE,FALSE,FALSE,FALSE,FALSE,0,Follow Yaw,0,0,-116,244,FALSE,FALSE,FALSE,FALSE,FALSE,FALSE,,TRUE,Normal,,,1024,1024,1024,1024,1,FALSE,FALSE,FALSE,FALSE,FALSE,0,FALSE,FALSE,TRUE,FALSE,66,14.416,2946,4464,14.543,FALSE,3.569,3.574,3.572,3.617,0.048,FALSE,FALSE,51.438,62.5,62.5,62.5,0,0,1,19,14,0,2.16,,Idle,0,30,FALSE,10,TRUE,4,Go Home,39.9611884,-106.2164555,3.4,8154,,TRUE,1,1,FALSE,FALSE,FALSE,FALSE,0,TRUE,FALSE,FALSE,Course Lock,98.4,,,Calm,13,Android, 3.1.38,df001,03Z1389682,,,5064506834,228.296,5512.7,176.8,39.1,7.6,0,0,df001,03Z1389682,,,5064506834,,Android, 3.1.38,,,,,,
62,6/20/2018,04:27.4,0m 7.5s,7.5,39.96117946,-106.2164532,8.2,8.5,3.9,8136,0,3,0,0,0,0.7,0.2,1.6,5.8,1.1,-115.7,244.3,P-GPS,Auto Fly,Takeoff (App Auto),11,5,TRUE,,Phantom 3 Standard,FALSE,FALSE,,Smart,RC,FALSE,TRUE,FALSE,,Other (222),TRUE,,FALSE,FALSE,FALSE,FALSE,TRUE,FALSE,FALSE,FALSE,FALSE,FALSE,0,Follow Yaw,0,0,-116,244,FALSE,FALSE,FALSE,FALSE,FALSE,FALSE,,TRUE,Normal,,,1024,1024,1024,1024,1,FALSE,FALSE,FALSE,FALSE,FALSE,0,FALSE,FALSE,TRUE,FALSE,66,14.416,2946,4464,14.543,FALSE,3.569,3.574,3.572,3.617,0.048,FALSE,FALSE,51.438,62.5,62.5,62.5,0,0,1,19,14,0,2.16,,Idle,0,30,FALSE,10,TRUE,4,Go Home,39.9611884,-106.2164555,3.3,8154,,TRUE,1,1,FALSE,FALSE,FALSE,FALSE,0,TRUE,FALSE,FALSE,Course Lock,98.4,,,Calm,13,Android, 3.1.38,df001,03Z1389682,,,5064506834,228.296,5512.7,176.8,39.1,7.6,0,0,df001,03Z1389682,,,5064506834,,Android, 3.1.38,,,,,,
63,6/20/2018,04:27.5,0m 7.6s,7.6,39.96117965,-106.2164532,8.2,8.5,3.9,8136,0,3,0,0,0,0.7,0.2,1.6,5.2,1.3,-115.8,244.2,P-GPS,Auto Fly,Takeoff (App Auto),11,5,TRUE,,Phantom 3 Standard,FALSE,FALSE,,Smart,RC,FALSE,TRUE,FALSE,,Other (222),TRUE,,FALSE,FALSE,FALSE,FALSE,TRUE,FALSE,FALSE,FALSE,FALSE,FALSE,0,Follow Yaw,0,0,-116,244,FALSE,FALSE,FALSE,FALSE,FALSE,FALSE,,TRUE,Normal,,,1024,1024,1024,1024,1,FALSE,FALSE,FALSE,FALSE,FALSE,0,FALSE,FALSE,FALSE,FALSE,66,14.416,2946,4464,14.543,FALSE,3.569,3.574,3.572,3.617,0.048,FALSE,FALSE,51.438,62.5,62.5,62.5,0,0,1,19,14,0,2.16,,Idle,0,30,FALSE,10,TRUE,4,Go Home,39.9611884,-106.2164555,3.3,8154,,TRUE,1,1,FALSE,FALSE,FALSE,FALSE,0,TRUE,FALSE,FALSE,Course Lock,98.4,,,Calm,13,Android, 3.1.38,df001,03Z1389682,,,5064506834,228.296,5512.7,176.8,39.1,7.6,0,0,df001,03Z1389682,,,5064506834,,Android, 3.1.38,,,,,,
64,6/20/2018,04:27.6,0m 7.7s,7.7,39.96117972,-106.2164532,8.2,8.5,3.6,8136,1.1,3,0,0,0,0.7,0,1.6,4.3,1.5,-116,244,P-GPS,Auto Fly,Takeoff (App Auto),11,5,TRUE,,Phantom 3 Standard,FALSE,FALSE,,Smart,RC,FALSE,TRUE,FALSE,,Other (222),TRUE,,FALSE,FALSE,FALSE,FALSE,TRUE,FALSE,FALSE,FALSE,FALSE,FALSE,0,Follow Yaw,0,0,-116,244,FALSE,FALSE,FALSE,FALSE,FALSE,FALSE,,TRUE,Normal,,,1024,1024,1024,1024,1,FALSE,FALSE,FALSE,FALSE,FALSE,0,FALSE,FALSE,FALSE,FALSE,66,14.416,2946,4464,14.543,FALSE,3.569,3.574,3.572,3.617,0.048,FALSE,FALSE,51.438,62.5,62.5,62.5,0,0,1,19,14,0,2.16,,Idle,0,30,FALSE,10,TRUE,4,Go Home,39.9611884,-106.2164555,3.2,8154,,TRUE,1,1,FALSE,FALSE,FALSE,FALSE,0,TRUE,FALSE,FALSE,Course Lock,98.4,,,Calm,13,Android, 3.1.38,df001,03Z1389682,,,5064506834,228.296,5512.7,176.8,39.1,7.6,0,0,df001,03Z1389682,,,5064506834,,Android, 3.1.38,,,,,,
65,6/20/2018,04:27.7,0m 7.8s,7.8,39.96117983,-106.2164532,8.2,8.5,3.6,8136,0,3,0.2,0.2,0,0.7,-0.2,1.6,3.6,1.6,-116.3,243.7,P-GPS,Auto Fly,Takeoff (App Auto),11,5,TRUE,,Phantom 3 Standard,FALSE,FALSE,,Smart,RC,FALSE,TRUE,FALSE,,Other (222),TRUE,,FALSE,FALSE,FALSE,FALSE,TRUE,FALSE,FALSE,FALSE,FALSE,FALSE,0,Follow Yaw,0,0,-116,244,FALSE,FALSE,FALSE,FALSE,FALSE,FALSE,,TRUE,Normal,,,1024,1024,1024,1024,1,FALSE,FALSE,FALSE,FALSE,FALSE,0,FALSE,FALSE,TRUE,FALSE,66,14.416,2946,4464,14.543,FALSE,3.569,3.574,3.572,3.617,0.048,FALSE,FALSE,51.438,62.5,62.5,62.5,0,0,1,19,14,0,2.16,,Idle,0,30,FALSE,10,TRUE,4,Go Home,39.9611884,-106.2164555,3.2,8154,,TRUE,1,1,FALSE,FALSE,FALSE,FALSE,0,TRUE,FALSE,FALSE,Course Lock,98.4,,,Calm,13,Android, 3.1.38,df001,03Z1389682,,,5064506834,228.296,5512.7,176.8,39.1,7.6,0,0,df001,03Z1389682,,,5064506834,,Android, 3.1.38,,,,,,
66,6/20/2018,04:27.8,0m 7.9s,7.9,39.96117988,-106.2164531,8.5,8.5,3.3,8136,0,3,0.2,0.2,0,0.7,0,1.6,3,1.7,-116.6,243.4,P-GPS,Auto Fly,Takeoff (App Auto),11,5,TRUE,,Phantom 3 Standard,FALSE,FALSE,,Smart,RC,FALSE,TRUE,FALSE,,Other (222),TRUE,,FALSE,FALSE,FALSE,FALSE,TRUE,FALSE,FALSE,FALSE,FALSE,FALSE,0,Follow Yaw,0,0,-116,244,FALSE,FALSE,FALSE,FALSE,FALSE,FALSE,,TRUE,Normal,,,1024,1024,1024,1024,1,FALSE,FALSE,FALSE,FALSE,FALSE,0,FALSE,FALSE,FALSE,FALSE,66,14.416,2946,4464,14.543,FALSE,3.569,3.574,3.572,3.617,0.048,FALSE,FALSE,51.438,62.5,62.5,62.5,0,0,1,19,14,0,2.16,,Idle,0,30,FALSE,10,TRUE,4,Go Home,39.9611884,-106.2164555,3.2,8154,,TRUE,1,1,FALSE,FALSE,FALSE,FALSE,0,TRUE,FALSE,FALSE,Course Lock,98.4,,,Calm,13,Android, 3.1.38,df001,03Z1389682,,,5064506834,228.296,5512.7,176.8,39.1,7.6,0,0,df001,03Z1389682,,,5064506834,,Android, 3.1.38,,,,,,
