#,CUSTOM.date [local], CUSTOM.updateTime [local], OSD.flyTime, OSD.flyTime [s], OSD.latitude, OSD.longitude, OSD.height [ft], OSD.heightMax [ft], OSD.vpsHeight [ft], OSD.altitude [ft], OSD.hSpeed [MPH], OSD.hSpeedMax [MPH], OSD.xSpeed [MPH], OSD.xSpeedMax [MPH], OSD.ySpeed [MPH], OSD.ySpeedMax [MPH], OSD.zSpeed [MPH], OSD.zSpeedMax [MPH], OSD.pitch, OSD.roll, OSD.yaw, OSD.yaw [360], OSD.flycState, OSD.flycCommand, OSD.flightAction, OSD.gpsNum, OSD.gpsLevel, OSD.isGPSUsed, OSD.nonGPSCause, OSD.droneType, OSD.isSwaveWork, OSD.waveError, OSD.goHomeStatus, OSD.batteryType, OSD.ctrlDevice, OSD.isOnGround, OSD.isMotorOn, OSD.isMotorBlocked, OSD.motorStartFailedCause, OSD.motorFailReason, OSD.isImuPreheated, OSD.imuInitFailReason, OSD.isAcceletorOverRange, OSD.isBarometerDeadInAir, OSD.isCompassError, OSD.isGoHomeHeightModified, OSD.canIOCWork, OSD.isNotEnoughForce, OSD.isOutOfLimit, OSD.isPropellerCatapult, OSD.isVibrating, OSD.isVisionUsed, OSD.voltageWarning, GIMBAL.mode, GIMBAL.pitch, GIMBAL.roll, GIMBAL.yaw, GIMBAL.yaw [360], GIMBAL.isPitchAtLimit, GIMBAL.isRollAtLimit, GIMBAL.isYawAtLimit, GIMBAL.isStuck, CAMERA.isPhoto, CAMERA.isVideo, CAMERA.filename, CAMERA.sdCardIsInserted, CAMERA.sdCardState, RC.downlinkSignal, RC.uplinkSignal, RC.aileron, RC.elevator, RC.throttle, RC.rudder, RC.mode, RC.goHomeDepressed, RC.recordDepressed, RC.shutterDepressed, RC.playbackDepressed, RC.wheelDepressed, RC.wheelOffset, RC.custom1Depressed, RC.custom2Depressed, RC.custom3Depressed, RC.custom4Depressed, BATTERY.chargeLevel, BATTERY.currentPV [V], BATTERY.currentCapacity [mAh], BATTERY.fullCapacity [mAh], BATTERY.voltage [V], BATTERY.isCellVoltageEstimated, BATTERY.cellVoltage1 [V], BATTERY.cellVoltage2 [V], BATTERY.cellVoltage3 [V], BATTERY.maxCellVoltageDeviation, BATTERY.isCellVoltageDeviationHigh, BATTERY.isVoltageLow, BATTERY.current [A], BATTERY.temperature [F], BATTERY.minTemperature [F], BATTERY.maxTemperature [F], BATTERY.usefulTime [s], BATTERY.goHomeTime [s], BATTERY.landTime [s], BATTERY.goHomeBattery, BATTERY.landBattery, BATTERY.safeFlyRadius, BATTERY.volumeConsume, BATTERY.status, BATTERY.goHomeStatus, BATTERY.goHomeCountdown, BATTERY.lowWarning, BATTERY.lowWarningGoHome, BATTERY.seriousLowWarning, BATTERY.seriousLowWarningLanding, BATTERY.timesCharged, MC.failSafeAction, HOME.latitude, HOME.longitude, HOME.distance [ft], HOME.height [ft], HOME.heightLimit [ft], HOME.isHomeRecord, HOME.goHomeMode, HOME.aircraftHeadDirection, HOME.isDynamicHomePointEnabled, HOME.isReachedLimitDistance, HOME.isReachedLimitHeight, HOME.isCompassCeleing, HOME.compassCeleStatus, HOME.isMultipleFlightModeEnabled, HOME.isBeginnerMode, HOME.isIOCEnabled, HOME.iocMode, HOME.goHomeHeight [ft], HOME.courseLockAngle, HOME.forceLandingHeight [ft], HOME.wind, HOME.dataRecorderFileIndex, RECOVER.appType, RECOVER.appVersion, RECOVER.aircraftName, RECOVER.aircraftSerial, RECOVER.cameraSerial, RECOVER.rcSerial, RECOVER.batterySerial, DETAILS.totalTime [s], DETAILS.totalDistance [ft], DETAILS.maxHeight [ft], DETAILS.maxHorizontalSpeed [MPH], DETAILS.maxVerticalSpeed [MPH], DETAILS.photoNum, DETAILS.videoTime [s], DETAILS.aircraftName, DETAILS.aircraftSerial, DETAILS.cameraSerial, DETAILS.rcSerial, DETAILS.batterySerial, DETAILS.appName, DETAILS.appType, DETAILS.appVersion, APPGPS.latitude, APPGPS.longitude, APPGPS.accuracy, APP.message, APP.tip, APP.warning
1,6/19/2018,50:35.2,0m 0.2s,0.2,39.96119772,-106.2164677,0,0,0.3,8128,0,0,0,0,0,0,0,0,9.2,0.7,66.2,66.2,Starting Motors,Other (34),Takeoff (App Auto),15,5,TRUE,,Mavic Air,TRUE,FALSE,,Smart,RC,TRUE,TRUE,FALSE,,,TRUE,,FALSE,FALSE,FALSE,FALSE,FALSE,FALSE,FALSE,FALSE,FALSE,FALSE,0,Follow Yaw,0,0,66,66,FALSE,FALSE,FALSE,FALSE,FALSE,FALSE,,TRUE,Card Too Slow,,,1024,1024,1024,1024,0,FALSE,FALSE,FALSE,FALSE,FALSE,0,FALSE,FALSE,FALSE,FALSE,95,,,,12.697,FALSE,4.229,4.233,4.235,0.006,FALSE,FALSE,,,,,0,1,0,15,10,4165.8,1068.16,,Idle,0,30,FALSE,10,TRUE,,Go Home,39.96120051,-106.2164571,3.1,7877.7,164,TRUE,1,1,FALSE,FALSE,FALSE,FALSE,0,TRUE,FALSE,FALSE,Course Lock,98.4,115.6,16.4,Calm,57,Android, 4.2.16,dronefo...-Mavic Air,0K1DF313BD4PR1,,,0K4AEBQA3400DT,305.3,1458.9,93.5,6.5,4.7,0,300,dronefo...-Mavic Air,0K1DF313BD4PR1,,,0K4AEBQA3400DT,,Android, 4.2.16,,,,Data Recorder File Index is 57.,,
2,6/19/2018,50:35.3,0m 0.3s,0.3,39.96119757,-106.2164676,0,0,0.3,8128,0,0,0,0,0,0,0,0,9.2,0.8,66.2,66.2,Starting Motors,Other (34),Takeoff (App Auto),15,5,TRUE,,Mavic Air,TRUE,FALSE,,Smart,RC,TRUE,TRUE,FALSE,,,TRUE,,FALSE,FALSE,FALSE,FALSE,FALSE,FALSE,FALSE,FALSE,FALSE,FALSE,0,Follow Yaw,0,0,66,66,FALSE,FALSE,FALSE,FALSE,FALSE,FALSE,,TRUE,Card Too Slow,,,1024,1024,1024,1024,0,FALSE,FALSE,FALSE,FALSE,FALSE,0,FALSE,FALSE,FALSE,FALSE,95,,,,12.697,FALSE,4.229,4.233,4.235,0.006,FALSE,FALSE,,,,,0,1,0,15,10,4165.8,1068.16,,Idle,0,30,FALSE,10,TRUE,,Go Home,39.96120051,-106.2164571,3.1,7877.7,164,TRUE,1,1,FALSE,FALSE,FALSE,FALSE,0,TRUE,FALSE,FALSE,Course Lock,98.4,115.6,16.4,Calm,57,Android, 4.2.16,dronefo...-Mavic Air,0K1DF313BD4PR1,,,0K4AEBQA3400DT,305.3,1458.9,93.5,6.5,4.7,0,300,dronefo...-Mavic Air,0K1DF313BD4PR1,,,0K4AEBQA3400DT,,Android, 4.2.16,,,,,,
3,6/19/2018,50:35.3,0m 0.4s,0.4,39.96119755,-106.2164676,0,0,0.3,8128,0,0,0,0,0,0,0,0,9.2,0.8,66.2,66.2,Starting Motors,Other (34),Takeoff (App Auto),15,5,TRUE,,Mavic Air,TRUE,FALSE,,Smart,RC,TRUE,TRUE,FALSE,,,TRUE,,FALSE,FALSE,FALSE,FALSE,FALSE,FALSE,FALSE,FALSE,FALSE,FALSE,0,Follow Yaw,0,0,66,66,FALSE,FALSE,FALSE,FALSE,FALSE,FALSE,,TRUE,Card Too Slow,,,1024,1024,1024,1024,0,FALSE,FALSE,FALSE,FALSE,FALSE,0,FALSE,FALSE,FALSE,FALSE,95,,,,12.697,FALSE,4.229,4.233,4.235,0.006,FALSE,FALSE,,,,,0,1,0,15,10,4165.8,1068.16,,Idle,0,30,FALSE,10,TRUE,,Go Home,39.96120051,-106.2164571,3.1,7877.7,164,TRUE,1,1,FALSE,FALSE,FALSE,FALSE,0,TRUE,FALSE,FALSE,Course Lock,98.4,115.6,16.4,Calm,57,Android, 4.2.16,dronefo...-Mavic Air,0K1DF313BD4PR1,,,0K4AEBQA3400DT,305.3,1458.9,93.5,6.5,4.7,0,300,dronefo...-Mavic Air,0K1DF313BD4PR1,,,0K4AEBQA3400DT,,Android, 4.2.16,,,,,,
4,6/19/2018,50:35.3,0m 0.5s,0.5,39.96119774,-106.2164676,0,0,0.3,8128,0,0,0,0,0,0,0,0,9.3,0.7,66.2,66.2,Starting Motors,Other (34),Takeoff (App Auto),15,5,TRUE,,Mavic Air,TRUE,FALSE,,Smart,RC,TRUE,TRUE,FALSE,,,TRUE,,FALSE,FALSE,FALSE,FALSE,FALSE,FALSE,FALSE,FALSE,FALSE,FALSE,0,Follow Yaw,0,0,66,66,FALSE,FALSE,FALSE,FALSE,FALSE,FALSE,,TRUE,Card Too Slow,,,1024,1024,1024,1024,0,FALSE,FALSE,FALSE,FALSE,FALSE,0,FALSE,FALSE,FALSE,FALSE,95,,,,12.697,FALSE,4.229,4.233,4.235,0.006,FALSE,FALSE,,,,,0,1,0,15,10,4165.8,1068.16,,Idle,0,30,FALSE,10,TRUE,,Go Home,39.96120051,-106.2164571,3.1,7877.7,164,TRUE,1,1,FALSE,FALSE,FALSE,FALSE,0,TRUE,FALSE,FALSE,Course Lock,98.4,115.6,16.4,Calm,57,Android, 4.2.16,dronefo...-Mavic Air,0K1DF313BD4PR1,,,0K4AEBQA3400DT,305.3,1458.9,93.5,6.5,4.7,0,300,dronefo...-Mavic Air,0K1DF313BD4PR1,,,0K4AEBQA3400DT,,Android, 4.2.16,,,,,,
5,6/19/2018,50:35.4,0m 0.6s,0.6,39.96119774,-106.2164676,0,0,0.3,8128,0,0,0,0,0,0,0,0,9.2,0.7,66.2,66.2,Starting Motors,Other (34),Takeoff (App Auto),15,5,TRUE,,Mavic Air,TRUE,FALSE,,Smart,RC,TRUE,TRUE,FALSE,,,TRUE,,FALSE,FALSE,FALSE,FALSE,FALSE,FALSE,FALSE,FALSE,FALSE,FALSE,0,Follow Yaw,0,0,66,66,FALSE,FALSE,FALSE,FALSE,FALSE,FALSE,,TRUE,Card Too Slow,,,1024,1024,1024,1024,0,FALSE,FALSE,FALSE,FALSE,FALSE,0,FALSE,FALSE,FALSE,FALSE,95,,,,12.697,FALSE,4.229,4.233,4.235,0.006,FALSE,FALSE,,,,,0,1,0,15,10,4165.8,1068.16,,Idle,0,30,FALSE,10,TRUE,,Go Home,39.96120051,-106.2164571,3.1,7877.7,164,TRUE,1,1,FALSE,FALSE,FALSE,FALSE,0,TRUE,FALSE,FALSE,Course Lock,98.4,115.6,16.4,Calm,57,Android, 4.2.16,dronefo...-Mavic Air,0K1DF313BD4PR1,,,0K4AEBQA3400DT,305.3,1458.9,93.5,6.5,4.7,0,300,dronefo...-Mavic Air,0K1DF313BD4PR1,,,0K4AEBQA3400DT,,Android, 4.2.16,,,,,,
6,6/19/2018,50:35.5,0m 0.7s,0.7,39.96119774,-106.2164676,0,0,0.3,8128,0,0,0,0,0,0,0,0,9.2,0.7,66.2,66.2,Starting Motors,Other (34),Takeoff (App Auto),15,5,TRUE,,Mavic Air,TRUE,FALSE,,Smart,RC,TRUE,TRUE,FALSE,,,TRUE,,FALSE,FALSE,FALSE,FALSE,FALSE,FALSE,FALSE,FALSE,FALSE,FALSE,0,Follow Yaw,0,0,66,66,FALSE,FALSE,FALSE,FALSE,FALSE,FALSE,,TRUE,Card Too Slow,,,1024,1024,1024,1024,0,FALSE,FALSE,FALSE,FALSE,FALSE,0,FALSE,FALSE,FALSE,FALSE,95,,,,12.697,FALSE,4.229,4.233,4.235,0.006,FALSE,FALSE,,,,,0,1,0,15,10,4165.8,1068.16,,Idle,0,30,FALSE,10,TRUE,,Go Home,39.96120051,-106.2164571,3.1,7877.7,164,TRUE,1,1,FALSE,FALSE,FALSE,FALSE,0,TRUE,FALSE,FALSE,Course Lock,98.4,115.6,16.4,Calm,57,Android, 4.2.16,dronefo...-Mavic Air,0K1DF313BD4PR1,,,0K4AEBQA3400DT,305.3,1458.9,93.5,6.5,4.7,0,300,dronefo...-Mavic Air,0K1DF313BD4PR1,,,0K4AEBQA3400DT,,Android, 4.2.16,,,,,,
7,6/19/2018,50:35.6,0m 0.8s,0.8,39.96119774,-106.2164676,0,0,0.3,8128,0,0,0,0,0,0,0,0,9.2,0.7,66.2,66.2,Starting Motors,Other (34),Takeoff (App Auto),15,5,TRUE,,Mavic Air,TRUE,FALSE,,Smart,RC,TRUE,TRUE,FALSE,,,TRUE,,FALSE,FALSE,FALSE,FALSE,FALSE,FALSE,FALSE,FALSE,FALSE,FALSE,0,Follow Yaw,0,0,66,66,FALSE,FALSE,FALSE,FALSE,FALSE,FALSE,,TRUE,Card Too Slow,,,1024,1024,1024,1024,0,FALSE,FALSE,FALSE,FALSE,FALSE,0,FALSE,FALSE,FALSE,FALSE,95,,,,12.697,FALSE,4.229,4.233,4.235,0.006,FALSE,FALSE,,,,,0,1,0,15,10,4165.8,1068.16,,Idle,0,30,FALSE,10,TRUE,,Go Home,39.96120051,-106.2164571,3.1,7877.7,164,TRUE,1,1,FALSE,FALSE,FALSE,FALSE,0,TRUE,FALSE,FALSE,Course Lock,98.4,115.6,16.4,Calm,57,Android, 4.2.16,dronefo...-Mavic Air,0K1DF313BD4PR1,,,0K4AEBQA3400DT,305.3,1458.9,93.5,6.5,4.7,0,300,dronefo...-Mavic Air,0K1DF313BD4PR1,,,0K4AEBQA3400DT,,Android, 4.2.16,,,,,,
8,6/19/2018,50:35.7,0m 0.9s,0.9,39.96119774,-106.2164676,0,0,0.3,8128,0,0,0,0,0,0,0,0,9.2,0.7,66.2,66.2,Starting Motors,Other (34),Takeoff (App Auto),15,5,TRUE,,Mavic Air,TRUE,FALSE,,Smart,RC,TRUE,TRUE,FALSE,,,TRUE,,FALSE,FALSE,FALSE,FALSE,FALSE,FALSE,FALSE,FALSE,FALSE,FALSE,0,Follow Yaw,0,0,66,66,FALSE,FALSE,FALSE,FALSE,FALSE,FALSE,,TRUE,Card Too Slow,,,1024,1024,1024,1024,0,FALSE,FALSE,FALSE,FALSE,FALSE,0,FALSE,FALSE,FALSE,FALSE,95,,,,12.697,FALSE,4.229,4.233,4.235,0.006,FALSE,FALSE,,,,,0,1,0,15,10,4165.8,1068.16,,Idle,0,30,FALSE,10,TRUE,,Go Home,39.96120051,-106.2164571,3.1,7877.7,164,TRUE,1,1,FALSE,FALSE,FALSE,FALSE,0,TRUE,FALSE,FALSE,Course Lock,98.4,115.6,16.4,Calm,57,Android, 4.2.16,dronefo...-Mavic Air,0K1DF313BD4PR1,,,0K4AEBQA3400DT,305.3,1458.9,93.5,6.5,4.7,0,300,dronefo...-Mavic Air,0K1DF313BD4PR1,,,0K4AEBQA3400DT,,Android, 4.2.16,,,,,,
9,6/19/2018,50:35.8,0m 1.0s,1,39.96119774,-106.2164676,0,0,0.3,8128,0,0,0,0,0,0,0,0,9.2,0.8,66.2,66.2,Starting Motors,Other (34),Takeoff (App Auto),15,5,TRUE,,Mavic Air,TRUE,FALSE,,Smart,RC,TRUE,TRUE,FALSE,,,TRUE,,FALSE,FALSE,FALSE,FALSE,FALSE,FALSE,FALSE,FALSE,FALSE,FALSE,0,Follow Yaw,0,0,66,66,FALSE,FALSE,FALSE,FALSE,FALSE,FALSE,,TRUE,Card Too Slow,,,1024,1024,1024,1024,0,FALSE,FALSE,FALSE,FALSE,FALSE,0,FALSE,FALSE,FALSE,FALSE,95,,,,12.697,FALSE,4.229,4.233,4.235,0.006,FALSE,FALSE,,,,,0,1,0,15,10,4165.8,1068.16,,Idle,0,30,FALSE,10,TRUE,,Go Home,39.96120051,-106.2164571,3.1,7877.7,164,TRUE,1,1,FALSE,FALSE,FALSE,FALSE,0,TRUE,FALSE,FALSE,Course Lock,98.4,115.6,16.4,Calm,57,Android, 4.2.16,dronefo...-Mavic Air,0K1DF313BD4PR1,,,0K4AEBQA3400DT,305.3,1458.9,93.5,6.5,4.7,0,300,dronefo...-Mavic Air,0K1DF313BD4PR1,,,0K4AEBQA3400DT,,Android, 4.2.16,,,,,,
10,6/19/2018,50:35.9,0m 1.1s,1.1,39.96119774,-106.2164678,0,0,0.3,8128,0,0,0,0,0,0,0,0,9.1,0.8,66.2,66.2,Starting Motors,Other (34),Takeoff (App Auto),15,5,TRUE,,Mavic Air,TRUE,FALSE,,Smart,RC,TRUE,TRUE,FALSE,,,TRUE,,FALSE,FALSE,FALSE,FALSE,FALSE,FALSE,FALSE,FALSE,FALSE,FALSE,0,Follow Yaw,0,0,66,66,FALSE,FALSE,FALSE,FALSE,FALSE,FALSE,,TRUE,Card Too Slow,,,1024,1024,1024,1024,0,FALSE,FALSE,FALSE,FALSE,FALSE,0,FALSE,FALSE,FALSE,FALSE,95,,,,12.697,FALSE,4.229,4.233,4.235,0.006,FALSE,FALSE,,,,,0,1,0,15,10,4165.8,1068.16,,Idle,0,30,FALSE,10,TRUE,,Go Home,39.96120051,-106.2164571,3.2,7877.7,164,TRUE,1,1,FALSE,FALSE,FALSE,FALSE,0,TRUE,FALSE,FALSE,Course Lock,98.4,115.6,16.4,Calm,57,Android, 4.2.16,dronefo...-Mavic Air,0K1DF313BD4PR1,,,0K4AEBQA3400DT,305.3,1458.9,93.5,6.5,4.7,0,300,dronefo...-Mavic Air,0K1DF313BD4PR1,,,0K4AEBQA3400DT,,Android, 4.2.16,,,,,,
11,6/19/2018,50:36.0,0m 1.2s,1.2,39.96119774,-106.2164678,0,0,0.3,8128,0,0,0,0,0,0,0,0,9.2,0.7,66.2,66.2,Starting Motors,Other (34),Takeoff (App Auto),15,5,TRUE,,Mavic Air,TRUE,FALSE,,Smart,RC,TRUE,TRUE,FALSE,,,TRUE,,FALSE,FALSE,FALSE,FALSE,FALSE,FALSE,FALSE,FALSE,FALSE,FALSE,0,Follow Yaw,0,0,66,66,FALSE,FALSE,FALSE,FALSE,FALSE,FALSE,,TRUE,Card Too Slow,,,1024,1024,1024,1024,0,FALSE,FALSE,FALSE,FALSE,FALSE,0,FALSE,FALSE,FALSE,FALSE,95,,,,12.692,FALSE,4.225,4.232,4.235,0.01,FALSE,FALSE,,,,,0,1,0,15,10,4233.5,1085.5,,Idle,0,30,FALSE,10,TRUE,,Go Home,39.96120051,-106.2164571,3.2,7877.7,164,TRUE,1,1,FALSE,FALSE,FALSE,FALSE,0,TRUE,FALSE,FALSE,Course Lock,98.4,115.6,16.4,Calm,57,Android, 4.2.16,dronefo...-Mavic Air,0K1DF313BD4PR1,,,0K4AEBQA3400DT,305.3,1458.9,93.5,6.5,4.7,0,300,dronefo...-Mavic Air,0K1DF313BD4PR1,,,0K4AEBQA3400DT,,Android, 4.2.16,,,,,,
12,6/19/2018,50:36.1,0m 1.3s,1.3,39.96119774,-106.2164677,0,0,0.3,8128,0,0,0,0,0,0,0,0,9.2,0.7,66.2,66.2,Starting Motors,Other (34),Takeoff (App Auto),15,5,TRUE,,Mavic Air,TRUE,FALSE,,Smart,RC,TRUE,TRUE,FALSE,,,TRUE,,FALSE,FALSE,FALSE,FALSE,FALSE,FALSE,FALSE,FALSE,FALSE,FALSE,0,Follow Yaw,0,0,66,66,FALSE,FALSE,FALSE,FALSE,FALSE,FALSE,,TRUE,Card Too Slow,,,1024,1024,1024,1024,0,FALSE,FALSE,FALSE,FALSE,FALSE,0,FALSE,FALSE,FALSE,FALSE,95,,,,12.692,FALSE,4.225,4.232,4.235,0.01,FALSE,FALSE,,,,,0,1,0,15,10,4233.5,1085.5,,Idle,0,30,FALSE,10,TRUE,,Go Home,39.96120051,-106.2164571,3.2,7877.7,164,TRUE,1,1,FALSE,FALSE,FALSE,FALSE,0,TRUE,FALSE,FALSE,Course Lock,98.4,115.6,16.4,Calm,57,Android, 4.2.16,dronefo...-Mavic Air,0K1DF313BD4PR1,,,0K4AEBQA3400DT,305.3,1458.9,93.5,6.5,4.7,0,300,dronefo...-Mavic Air,0K1DF313BD4PR1,,,0K4AEBQA3400DT,,Android, 4.2.16,,,,,,
13,6/19/2018,50:36.2,0m 1.4s,1.4,39.96119774,-106.2164678,0,0,0.3,8128,0,0,0,0,0,0,0,0,9.1,0.8,66.2,66.2,Starting Motors,Other (34),Takeoff (App Auto),15,5,TRUE,,Mavic Air,TRUE,FALSE,,Smart,RC,TRUE,TRUE,FALSE,,,TRUE,,FALSE,FALSE,FALSE,FALSE,FALSE,FALSE,FALSE,FALSE,FALSE,FALSE,0,Follow Yaw,0,0,66,66,FALSE,FALSE,FALSE,FALSE,FALSE,FALSE,,TRUE,Card Too Slow,,,1024,1024,1024,1024,0,FALSE,FALSE,FALSE,FALSE,FALSE,0,FALSE,FALSE,FALSE,FALSE,95,,,,12.692,FALSE,4.225,4.232,4.235,0.01,FALSE,FALSE,,,,,0,1,0,15,10,4233.5,1085.5,,Idle,0,30,FALSE,10,TRUE,,Go Home,39.96120051,-106.2164571,3.2,7877.7,164,TRUE,1,1,FALSE,FALSE,FALSE,FALSE,0,TRUE,FALSE,FALSE,Course Lock,98.4,115.6,16.4,Calm,57,Android, 4.2.16,dronefo...-Mavic Air,0K1DF313BD4PR1,,,0K4AEBQA3400DT,305.3,1458.9,93.5,6.5,4.7,0,300,dronefo...-Mavic Air,0K1DF313BD4PR1,,,0K4AEBQA3400DT,,Android, 4.2.16,,,,,,
14,6/19/2018,50:36.3,0m 1.5s,1.5,39.96119774,-106.2164677,0,0,0.3,8128,0,0,0,0,0,0,0,0,9.1,0.8,66.2,66.2,Auto Takeoff,Other (34),Takeoff (App Auto),15,5,TRUE,,Mavic Air,TRUE,FALSE,,Smart,RC,TRUE,TRUE,FALSE,,,TRUE,,FALSE,FALSE,FALSE,FALSE,FALSE,FALSE,FALSE,FALSE,FALSE,FALSE,0,Follow Yaw,0,0,66,66,FALSE,FALSE,FALSE,FALSE,FALSE,FALSE,,TRUE,Card Too Slow,,,1024,1024,1024,1024,0,FALSE,FALSE,FALSE,FALSE,FALSE,0,FALSE,FALSE,FALSE,FALSE,95,,,,12.692,FALSE,4.225,4.232,4.235,0.01,FALSE,FALSE,,,,,0,1,0,15,10,4233.5,1085.5,,Idle,0,30,FALSE,10,TRUE,,Go Home,39.96120051,-106.2164571,3.2,7877.7,164,TRUE,1,1,FALSE,FALSE,FALSE,FALSE,0,TRUE,FALSE,FALSE,Course Lock,98.4,115.6,16.4,Calm,57,Android, 4.2.16,dronefo...-Mavic Air,0K1DF313BD4PR1,,,0K4AEBQA3400DT,305.3,1458.9,93.5,6.5,4.7,0,300,dronefo...-Mavic Air,0K1DF313BD4PR1,,,0K4AEBQA3400DT,,Android, 4.2.16,,,,,,
15,6/19/2018,50:36.4,0m 1.6s,1.6,39.96119774,-106.2164677,0,0,0.3,8128,0,0,0,0,0,0,0,0,9,0.8,66.2,66.2,Auto Takeoff,Other (34),Takeoff (App Auto),15,5,TRUE,,Mavic Air,TRUE,FALSE,,Smart,RC,TRUE,TRUE,FALSE,,,TRUE,,FALSE,FALSE,FALSE,FALSE,FALSE,FALSE,FALSE,FALSE,FALSE,FALSE,0,Follow Yaw,0,0,66,66,FALSE,FALSE,FALSE,FALSE,FALSE,FALSE,,TRUE,Card Too Slow,,,1024,1024,1024,1024,0,FALSE,FALSE,FALSE,FALSE,FALSE,0,FALSE,FALSE,FALSE,FALSE,95,,,,12.692,FALSE,4.225,4.232,4.235,0.01,FALSE,FALSE,,,,,0,1,0,15,10,4233.5,1085.5,,Idle,0,30,FALSE,10,TRUE,,Go Home,39.96120051,-106.2164571,3.2,7877.7,164,TRUE,1,1,FALSE,FALSE,FALSE,FALSE,0,TRUE,FALSE,FALSE,Course Lock,98.4,115.6,16.4,Calm,57,Android, 4.2.16,dronefo...-Mavic Air,0K1DF313BD4PR1,,,0K4AEBQA3400DT,305.3,1458.9,93.5,6.5,4.7,0,300,dronefo...-Mavic Air,0K1DF313BD4PR1,,,0K4AEBQA3400DT,,Android, 4.2.16,,,,,,
16,6/19/2018,50:36.5,0m 1.7s,1.7,39.96119773,-106.2164677,0,0,0.3,8128,0,0,0,0,0,0,0,0,8.9,0.9,66.2,66.2,Auto Takeoff,Other (34),Takeoff (App Auto),15,5,TRUE,,Mavic Air,TRUE,FALSE,,Smart,RC,TRUE,TRUE,FALSE,,,TRUE,,FALSE,FALSE,FALSE,FALSE,FALSE,FALSE,FALSE,FALSE,FALSE,FALSE,0,Follow Yaw,0,0,66,66,FALSE,FALSE,FALSE,FALSE,FALSE,FALSE,,TRUE,Card Too Slow,,,1024,1024,1024,1024,0,FALSE,FALSE,FALSE,FALSE,FALSE,0,FALSE,FALSE,FALSE,FALSE,95,,,,12.692,FALSE,4.225,4.232,4.235,0.01,FALSE,FALSE,,,,,0,1,0,15,10,4233.5,1085.5,,Idle,0,30,FALSE,10,TRUE,,Go Home,39.96120051,-106.2164571,3.1,7877.7,164,TRUE,1,1,FALSE,FALSE,FALSE,FALSE,0,TRUE,FALSE,FALSE,Course Lock,98.4,115.6,16.4,Calm,57,Android, 4.2.16,dronefo...-Mavic Air,0K1DF313BD4PR1,,,0K4AEBQA3400DT,305.3,1458.9,93.5,6.5,4.7,0,300,dronefo...-Mavic Air,0K1DF313BD4PR1,,,0K4AEBQA3400DT,,Android, 4.2.16,,,,,,
17,6/19/2018,50:36.6,0m 1.8s,1.8,39.96119774,-106.2164677,0,0,0.3,8128,0,0,0,0,0,0,0,0,8.7,1,66.2,66.2,Auto Takeoff,Other (34),Takeoff (App Auto),15,5,TRUE,,Mavic Air,TRUE,FALSE,,Smart,RC,TRUE,TRUE,FALSE,,,TRUE,,FALSE,FALSE,FALSE,FALSE,FALSE,FALSE,FALSE,FALSE,FALSE,FALSE,0,Follow Yaw,0,0,66,66,FALSE,FALSE,FALSE,FALSE,FALSE,FALSE,,TRUE,Card Too Slow,,,1024,1024,1024,1024,0,FALSE,FALSE,FALSE,FALSE,FALSE,0,FALSE,FALSE,FALSE,FALSE,95,,,,12.692,FALSE,4.225,4.232,4.235,0.01,FALSE,FALSE,,,,,0,1,0,15,10,4233.5,1085.5,,Idle,0,30,FALSE,10,TRUE,,Go Home,39.96120051,-106.2164571,3.1,7877.7,164,TRUE,1,1,FALSE,FALSE,FALSE,FALSE,0,TRUE,FALSE,FALSE,Course Lock,98.4,115.6,16.4,Calm,57,Android, 4.2.16,dronefo...-Mavic Air,0K1DF313BD4PR1,,,0K4AEBQA3400DT,305.3,1458.9,93.5,6.5,4.7,0,300,dronefo...-Mavic Air,0K1DF313BD4PR1,,,0K4AEBQA3400DT,,Android, 4.2.16,,,,,,
18,6/19/2018,50:36.7,0m 1.9s,1.9,39.96119773,-106.2164677,0,0,0.3,8128,0,0,0,0,0,0,0,0,8.3,1.3,66.3,66.3,Auto Takeoff,Other (34),Takeoff (App Auto),15,5,TRUE,,Mavic Air,TRUE,FALSE,,Smart,RC,TRUE,TRUE,FALSE,,,TRUE,,FALSE,FALSE,FALSE,FALSE,FALSE,FALSE,FALSE,FALSE,FALSE,FALSE,0,Follow Yaw,0,0,66,66,FALSE,FALSE,FALSE,FALSE,FALSE,FALSE,,TRUE,Card Too Slow,,,1024,1024,1024,1024,0,FALSE,FALSE,FALSE,FALSE,FALSE,0,FALSE,FALSE,FALSE,FALSE,95,,,,12.692,FALSE,4.225,4.232,4.235,0.01,FALSE,FALSE,,,,,0,1,0,15,10,4233.5,1085.5,,Idle,0,30,FALSE,10,TRUE,,Go Home,39.96120051,-106.2164571,3.1,7877.7,164,TRUE,1,1,FALSE,FALSE,FALSE,FALSE,0,TRUE,FALSE,FALSE,Course Lock,98.4,115.6,16.4,Calm,57,Android, 4.2.16,dronefo...-Mavic Air,0K1DF313BD4PR1,,,0K4AEBQA3400DT,305.3,1458.9,93.5,6.5,4.7,0,300,dronefo...-Mavic Air,0K1DF313BD4PR1,,,0K4AEBQA3400DT,,Android, 4.2.16,,,,,,
19,6/19/2018,50:36.9,0m 2.0s,2,39.96119773,-106.2164677,0,0,0.3,8128,0,0,0,0,0,0,0,0,7.4,1.9,66.2,66.2,Auto Takeoff,Other (34),Takeoff (App Auto),15,5,TRUE,,Mavic Air,TRUE,FALSE,,Smart,RC,TRUE,TRUE,FALSE,,,TRUE,,FALSE,FALSE,FALSE,FALSE,FALSE,FALSE,FALSE,FALSE,FALSE,FALSE,0,Follow Yaw,0,0,66,66,FALSE,FALSE,FALSE,FALSE,FALSE,FALSE,,TRUE,Card Too Slow,,,1024,1024,1024,1024,0,FALSE,FALSE,FALSE,FALSE,FALSE,0,FALSE,FALSE,FALSE,FALSE,95,,,,12.692,FALSE,4.225,4.232,4.235,0.01,FALSE,FALSE,,,,,0,1,0,15,10,4233.5,1085.5,,Idle,0,30,FALSE,10,TRUE,,Go Home,39.96120051,-106.2164571,3.1,7877.7,164,TRUE,1,1,FALSE,FALSE,FALSE,FALSE,0,TRUE,FALSE,FALSE,Course Lock,98.4,115.6,16.4,Calm,57,Android, 4.2.16,dronefo...-Mavic Air,0K1DF313BD4PR1,,,0K4AEBQA3400DT,305.3,1458.9,93.5,6.5,4.7,0,300,dronefo...-Mavic Air,0K1DF313BD4PR1,,,0K4AEBQA3400DT,,Android, 4.2.16,,,,,,
20,6/19/2018,50:37.0,0m 2.1s,2.1,39.9611977,-106.2164678,0,0,0.3,8128,0,0,0,0,0,0,0,0,5.3,2.3,65.1,65.1,Auto Takeoff,Other (34),Takeoff (App Auto),16,5,TRUE,,Mavic Air,TRUE,FALSE,,Smart,RC,TRUE,TRUE,FALSE,,,TRUE,,FALSE,FALSE,FALSE,FALSE,FALSE,FALSE,FALSE,FALSE,FALSE,FALSE,0,Follow Yaw,0,0,66,66,FALSE,FALSE,FALSE,FALSE,FALSE,FALSE,,TRUE,Card Too Slow,,,1024,1024,1024,1024,0,FALSE,FALSE,FALSE,FALSE,FALSE,0,FALSE,FALSE,FALSE,FALSE,95,,,,12.692,FALSE,4.225,4.232,4.235,0.01,FALSE,FALSE,,,,,0,1,0,15,10,4233.5,1085.5,,Idle,0,30,FALSE,10,TRUE,,Go Home,39.96120051,-106.2164571,3.2,7877.7,164,TRUE,1,1,FALSE,FALSE,FALSE,FALSE,0,TRUE,FALSE,FALSE,Course Lock,98.4,115.6,16.4,Calm,57,Android, 4.2.16,dronefo...-Mavic Air,0K1DF313BD4PR1,,,0K4AEBQA3400DT,305.3,1458.9,93.5,6.5,4.7,0,300,dronefo...-Mavic Air,0K1DF313BD4PR1,,,0K4AEBQA3400DT,,Android, 4.2.16,,,,,,
21,6/19/2018,50:37.1,0m 2.2s,2.2,39.96119762,-106.2164678,0,0,0.3,8128,0,0,-0.2,0,0,0,0,0,1.2,2.6,63.7,63.7,Auto Takeoff,Other (34),Takeoff (App Auto),16,5,TRUE,,Mavic Air,TRUE,FALSE,,Smart,RC,TRUE,TRUE,FALSE,,,TRUE,,FALSE,FALSE,FALSE,FALSE,FALSE,FALSE,FALSE,FALSE,FALSE,FALSE,0,Follow Yaw,0,0,66,66,FALSE,FALSE,FALSE,FALSE,FALSE,FALSE,,TRUE,Card Too Slow,,,1024,1024,1024,1024,0,FALSE,FALSE,FALSE,FALSE,FALSE,0,FALSE,FALSE,FALSE,FALSE,95,,,,12.692,FALSE,4.225,4.232,4.235,0.01,FALSE,FALSE,,,,,0,1,0,15,10,4599.1,1179.27,,Idle,0,30,FALSE,10,TRUE,,Go Home,39.96119753,-106.2164678,0,7877.7,164,TRUE,1,1,FALSE,FALSE,FALSE,FALSE,0,TRUE,FALSE,FALSE,Course Lock,98.4,115.6,16.4,Calm,57,Android, 4.2.16,dronefo...-Mavic Air,0K1DF313BD4PR1,,,0K4AEBQA3400DT,305.3,1458.9,93.5,6.5,4.7,0,300,dronefo...-Mavic Air,0K1DF313BD4PR1,,,0K4AEBQA3400DT,,Android, 4.2.16,,,,Home Point Updated.,,
22,6/19/2018,50:37.2,0m 2.3s,2.3,39.96119749,-106.2164678,0,0,0.3,8128,0,0,-0.2,0,0,0,-0.5,0,-0.9,3.1,63.3,63.3,Auto Takeoff,Other (34),Takeoff (App Auto),15,5,TRUE,,Mavic Air,TRUE,FALSE,,Smart,RC,FALSE,TRUE,FALSE,,,TRUE,,FALSE,FALSE,FALSE,FALSE,FALSE,FALSE,FALSE,FALSE,FALSE,FALSE,0,Follow Yaw,0,0,65.9,65.9,FALSE,FALSE,FALSE,FALSE,FALSE,FALSE,,TRUE,Card Too Slow,,,1024,1024,1024,1024,0,FALSE,FALSE,FALSE,FALSE,FALSE,0,FALSE,FALSE,FALSE,FALSE,95,,,,12.692,FALSE,4.225,4.232,4.235,0.01,FALSE,FALSE,,,,,0,1,0,15,10,4599.1,1179.27,,Idle,0,30,FALSE,10,TRUE,,Go Home,39.96119753,-106.2164678,0,7877.7,164,TRUE,1,1,FALSE,FALSE,FALSE,FALSE,0,TRUE,FALSE,FALSE,Course Lock,98.4,115.6,16.4,Calm,57,Android, 4.2.16,dronefo...-Mavic Air,0K1DF313BD4PR1,,,0K4AEBQA3400DT,305.3,1458.9,93.5,6.5,4.7,0,300,dronefo...-Mavic Air,0K1DF313BD4PR1,,,0K4AEBQA3400DT,,Android, 4.2.16,,,,,,
23,6/19/2018,50:37.3,0m 2.4s,2.4,39.96119733,-106.2164677,0,0,0.3,8128,0,0,-0.2,0,0.2,0.2,-0.7,0,-0.2,-2.4,63.4,63.4,Auto Takeoff,Other (34),Takeoff (App Auto),15,5,TRUE,,Mavic Air,TRUE,FALSE,,Smart,RC,FALSE,TRUE,FALSE,,,TRUE,,FALSE,FALSE,FALSE,FALSE,FALSE,FALSE,FALSE,FALSE,FALSE,FALSE,0,Follow Yaw,0,0,65.7,65.7,FALSE,FALSE,FALSE,FALSE,FALSE,FALSE,,TRUE,Card Too Slow,,,1024,1024,1024,1024,0,FALSE,FALSE,FALSE,FALSE,FALSE,0,FALSE,FALSE,FALSE,FALSE,95,,,,12.692,FALSE,4.225,4.232,4.235,0.01,FALSE,FALSE,,,,,0,1,0,15,10,4599.1,1179.27,,Idle,0,30,FALSE,10,TRUE,,Go Home,39.96119753,-106.2164678,0,7877.7,164,TRUE,1,1,FALSE,FALSE,FALSE,FALSE,0,TRUE,FALSE,FALSE,Course Lock,98.4,115.6,16.4,Calm,57,Android, 4.2.16,dronefo...-Mavic Air,0K1DF313BD4PR1,,,0K4AEBQA3400DT,305.3,1458.9,93.5,6.5,4.7,0,300,dronefo...-Mavic Air,0K1DF313BD4PR1,,,0K4AEBQA3400DT,,Android, 4.2.16,,,,,,
24,6/19/2018,50:37.4,0m 2.5s,2.5,39.96119709,-106.2164675,0,0,0.3,8128,0,0,-0.2,0,0.2,0.2,-0.7,0,0.2,-2.3,63.5,63.5,Auto Takeoff,Other (34),Takeoff (App Auto),16,5,TRUE,,Mavic Air,TRUE,FALSE,,Smart,RC,FALSE,TRUE,FALSE,,,TRUE,,FALSE,FALSE,FALSE,FALSE,FALSE,FALSE,FALSE,FALSE,FALSE,FALSE,0,Follow Yaw,0,0,65.6,65.6,FALSE,FALSE,FALSE,FALSE,FALSE,FALSE,,TRUE,Card Too Slow,,,1024,1024,1024,1024,0,FALSE,FALSE,FALSE,FALSE,FALSE,0,FALSE,FALSE,FALSE,FALSE,95,,,,12.692,FALSE,4.225,4.232,4.235,0.01,FALSE,FALSE,,,,,0,1,0,15,10,4599.1,1179.27,,Idle,0,30,FALSE,10,TRUE,,Go Home,39.96119753,-106.2164678,0,7877.7,164,TRUE,1,1,FALSE,FALSE,FALSE,FALSE,0,TRUE,FALSE,FALSE,Course Lock,98.4,115.6,16.4,Calm,57,Android, 4.2.16,dronefo...-Mavic Air,0K1DF313BD4PR1,,,0K4AEBQA3400DT,305.3,1458.9,93.5,6.5,4.7,0,300,dronefo...-Mavic Air,0K1DF313BD4PR1,,,0K4AEBQA3400DT,,Android, 4.2.16,,,,,,
25,6/19/2018,50:37.5,0m 2.6s,2.6,39.96119697,-106.2164674,0.3,0.3,0.3,8128,0,0,-0.2,0,0.2,0.2,-0.7,0,-0.2,-2.6,63.6,63.6,Auto Takeoff,Other (34),Takeoff (App Auto),16,5,TRUE,,Mavic Air,TRUE,FALSE,,Smart,RC,FALSE,TRUE,FALSE,,,TRUE,,FALSE,FALSE,FALSE,FALSE,FALSE,FALSE,FALSE,FALSE,FALSE,FALSE,0,Follow Yaw,0,0,65.4,65.4,FALSE,FALSE,FALSE,FALSE,FALSE,FALSE,,TRUE,Card Too Slow,,,1024,1024,1024,1024,0,FALSE,FALSE,FALSE,FALSE,FALSE,0,FALSE,FALSE,FALSE,FALSE,95,,,,12.692,FALSE,4.225,4.232,4.235,0.01,FALSE,FALSE,,,,,0,1,0,15,10,4599.1,1179.27,,Idle,0,30,FALSE,10,TRUE,,Go Home,39.96119753,-106.2164678,0,7877.7,164,TRUE,1,1,FALSE,FALSE,FALSE,FALSE,0,TRUE,FALSE,FALSE,Course Lock,98.4,115.6,16.4,Calm,57,Android, 4.2.16,dronefo...-Mavic Air,0K1DF313BD4PR1,,,0K4AEBQA3400DT,305.3,1458.9,93.5,6.5,4.7,0,300,dronefo...-Mavic Air,0K1DF313BD4PR1,,,0K4AEBQA3400DT,,Android, 4.2.16,,,,,,
26,6/19/2018,50:37.6,0m 2.7s,2.7,39.9611968,-106.2164672,0.3,0.3,0.3,8128,0,0,0,0,0.2,0.2,-0.7,0,0.1,-2.1,63.7,63.7,Auto Takeoff,Other (34),Takeoff (App Auto),16,5,TRUE,,Mavic Air,TRUE,FALSE,,Smart,RC,FALSE,TRUE,FALSE,,,TRUE,,FALSE,FALSE,FALSE,FALSE,FALSE,FALSE,FALSE,FALSE,FALSE,FALSE,0,Follow Yaw,0,0,65.4,65.4,FALSE,FALSE,FALSE,FALSE,FALSE,FALSE,,TRUE,Card Too Slow,,,1024,1024,1024,1024,0,FALSE,FALSE,FALSE,FALSE,FALSE,0,FALSE,FALSE,FALSE,FALSE,95,,,,12.692,FALSE,4.225,4.232,4.235,0.01,FALSE,FALSE,,,,,0,1,0,15,10,4599.1,1179.27,,Idle,0,30,FALSE,10,TRUE,,Go Home,39.96119753,-106.2164678,0.4,7877.7,164,TRUE,1,1,FALSE,FALSE,FALSE,FALSE,0,TRUE,FALSE,FALSE,Course Lock,98.4,115.6,16.4,Calm,57,Android, 4.2.16,dronefo...-Mavic Air,0K1DF313BD4PR1,,,0K4AEBQA3400DT,305.3,1458.9,93.5,6.5,4.7,0,300,dronefo...-Mavic Air,0K1DF313BD4PR1,,,0K4AEBQA3400DT,,Android, 4.2.16,,,,,,
27,6/19/2018,50:37.7,0m 2.8s,2.8,39.96119673,-106.216467,0.3,0.3,0.7,8128,0,0,0,0,0.2,0.2,-0.7,0,2.1,-1.4,63.4,63.4,Auto Takeoff,Other (34),Takeoff (App Auto),16,5,TRUE,,Mavic Air,TRUE,FALSE,,Smart,RC,FALSE,TRUE,FALSE,,,TRUE,,FALSE,FALSE,FALSE,FALSE,FALSE,FALSE,FALSE,FALSE,FALSE,FALSE,0,Follow Yaw,0,0,65.3,65.3,FALSE,FALSE,FALSE,FALSE,FALSE,FALSE,,TRUE,Card Too Slow,,,1024,1024,1024,1024,0,FALSE,FALSE,FALSE,FALSE,FALSE,0,FALSE,FALSE,FALSE,FALSE,95,,,,12.692,FALSE,4.225,4.232,4.235,0.01,FALSE,FALSE,,,,,0,1,0,15,10,4599.1,1179.27,,Idle,0,30,FALSE,10,TRUE,,Go Home,39.96119753,-106.2164678,0.4,7877.7,164,TRUE,1,1,FALSE,FALSE,FALSE,FALSE,0,TRUE,FALSE,FALSE,Course Lock,98.4,115.6,16.4,Calm,57,Android, 4.2.16,dronefo...-Mavic Air,0K1DF313BD4PR1,,,0K4AEBQA3400DT,305.3,1458.9,93.5,6.5,4.7,0,300,dronefo...-Mavic Air,0K1DF313BD4PR1,,,0K4AEBQA3400DT,,Android, 4.2.16,,,,,,
28,6/19/2018,50:37.8,0m 2.9s,2.9,39.96119657,-106.2164667,0.7,0.7,0.7,8129,0,0,0,0,0.5,0.5,-0.7,0,3.6,-1.1,63.1,63.1,Auto Takeoff,Other (34),Takeoff (App Auto),16,5,TRUE,,Mavic Air,TRUE,FALSE,,Smart,RC,FALSE,TRUE,FALSE,,,TRUE,,FALSE,FALSE,FALSE,FALSE,FALSE,FALSE,FALSE,FALSE,FALSE,FALSE,0,Follow Yaw,0,0,65.2,65.2,FALSE,FALSE,FALSE,FALSE,FALSE,FALSE,,TRUE,Card Too Slow,,,1024,1024,1024,1024,0,FALSE,FALSE,FALSE,FALSE,FALSE,0,FALSE,FALSE,FALSE,FALSE,95,,,,12.692,FALSE,4.225,4.232,4.235,0.01,FALSE,FALSE,,,,,0,1,0,15,10,4599.1,1179.27,,Idle,0,30,FALSE,10,TRUE,,Go Home,39.96119753,-106.2164678,0.4,7877.7,164,TRUE,1,1,FALSE,FALSE,FALSE,FALSE,0,TRUE,FALSE,FALSE,Course Lock,98.4,115.6,16.4,Calm,57,Android, 4.2.16,dronefo...-Mavic Air,0K1DF313BD4PR1,,,0K4AEBQA3400DT,305.3,1458.9,93.5,6.5,4.7,0,300,dronefo...-Mavic Air,0K1DF313BD4PR1,,,0K4AEBQA3400DT,,Android, 4.2.16,,,,,,
29,6/19/2018,50:37.8,0m 3.0s,3,39.96119645,-106.2164665,0.7,0.7,0.7,8129,0,0,-0.2,0,0.5,0.5,-0.7,0,3.7,-2.1,63.2,63.2,Auto Takeoff,Other (34),Takeoff (App Auto),16,5,TRUE,,Mavic Air,TRUE,FALSE,,Smart,RC,FALSE,TRUE,FALSE,,,TRUE,,FALSE,FALSE,FALSE,FALSE,FALSE,FALSE,FALSE,FALSE,FALSE,FALSE,0,Follow Yaw,0,0,65.1,65.1,FALSE,FALSE,FALSE,FALSE,FALSE,FALSE,,TRUE,Card Too Slow,,,1024,1024,1024,1024,0,FALSE,FALSE,FALSE,FALSE,FALSE,0,FALSE,FALSE,FALSE,FALSE,95,,,,12.692,FALSE,4.225,4.232,4.235,0.01,FALSE,FALSE,,,,,0,1,0,15,10,4599.1,1179.27,,Idle,0,30,FALSE,10,TRUE,,Go Home,39.96119753,-106.2164678,0.4,7877.7,164,TRUE,1,1,FALSE,FALSE,FALSE,FALSE,0,TRUE,FALSE,FALSE,Course Lock,98.4,115.6,16.4,Calm,57,Android, 4.2.16,dronefo...-Mavic Air,0K1DF313BD4PR1,,,0K4AEBQA3400DT,305.3,1458.9,93.5,6.5,4.7,0,300,dronefo...-Mavic Air,0K1DF313BD4PR1,,,0K4AEBQA3400DT,,Android, 4.2.16,,,,,,
30,6/19/2018,50:38.1,0m 3.1s,3.1,39.96119636,-106.2164664,0.7,0.7,1,8129,0,0,-0.2,0,0.5,0.5,-0.7,0,3.3,-3.5,63.3,63.3,Auto Takeoff,Other (34),Takeoff (App Auto),16,5,TRUE,,Mavic Air,TRUE,FALSE,,Smart,RC,FALSE,TRUE,FALSE,,,TRUE,,FALSE,FALSE,FALSE,FALSE,FALSE,FALSE,FALSE,FALSE,FALSE,FALSE,0,Follow Yaw,0,0,65,65,FALSE,FALSE,FALSE,FALSE,FALSE,FALSE,,TRUE,Card Too Slow,,,1024,1024,1024,1024,0,FALSE,FALSE,FALSE,FALSE,FALSE,0,FALSE,FALSE,FALSE,FALSE,95,,,,12.692,FALSE,4.225,4.232,4.235,0.01,FALSE,FALSE,,,,,0,1,0,15,10,4599.1,1179.27,,Idle,0,30,FALSE,10,TRUE,,Go Home,39.96119753,-106.2164678,0.6,7877.7,164,TRUE,1,1,FALSE,FALSE,FALSE,FALSE,0,TRUE,FALSE,FALSE,Course Lock,98.4,115.6,16.4,Calm,57,Android, 4.2.16,dronefo...-Mavic Air,0K1DF313BD4PR1,,,0K4AEBQA3400DT,305.3,1458.9,93.5,6.5,4.7,0,300,dronefo...-Mavic Air,0K1DF313BD4PR1,,,0K4AEBQA3400DT,,Android, 4.2.16,,,,,,
31,6/19/2018,50:38.2,0m 3.2s,3.2,39.96119622,-106.2164662,0.7,0.7,1,8129,0,0,-0.2,0,0.5,0.5,-0.7,0,2.8,-5.1,63.3,63.3,Auto Takeoff,Other (34),Takeoff (App Auto),16,5,TRUE,,Mavic Air,TRUE,FALSE,,Smart,RC,FALSE,TRUE,FALSE,,,TRUE,,FALSE,FALSE,FALSE,FALSE,FALSE,FALSE,FALSE,FALSE,FALSE,FALSE,0,Follow Yaw,0,0,64.9,64.9,FALSE,FALSE,FALSE,FALSE,FALSE,FALSE,,TRUE,Card Too Slow,,,1024,1024,1024,1024,0,FALSE,FALSE,FALSE,FALSE,FALSE,0,FALSE,FALSE,FALSE,FALSE,95,,,,12.563,FALSE,4.225,4.232,4.235,0.01,FALSE,FALSE,,,,,0,0,0,15,10,5442.1,1395.41,,Idle,0,30,FALSE,10,TRUE,,Go Home,39.96119753,-106.2164678,0.6,7877.7,164,TRUE,1,1,FALSE,FALSE,FALSE,FALSE,0,TRUE,FALSE,FALSE,Course Lock,98.4,115.6,16.4,Calm,57,Android, 4.2.16,dronefo...-Mavic Air,0K1DF313BD4PR1,,,0K4AEBQA3400DT,305.3,1458.9,93.5,6.5,4.7,0,300,dronefo...-Mavic Air,0K1DF313BD4PR1,,,0K4AEBQA3400DT,,Android, 4.2.16,,,,,,
32,6/19/2018,50:38.2,0m 3.3s,3.3,39.96119587,-106.2164657,1,1,1.3,8129,1.5,1.5,0,0,0.5,0.5,-0.9,0,3.3,-7,63.2,63.2,Auto Takeoff,Other (34),Takeoff (App Auto),16,5,TRUE,,Mavic Air,TRUE,FALSE,,Smart,RC,FALSE,TRUE,FALSE,,,TRUE,,FALSE,FALSE,FALSE,FALSE,FALSE,FALSE,FALSE,FALSE,FALSE,FALSE,0,Follow Yaw,0,0,64.9,64.9,FALSE,FALSE,FALSE,FALSE,FALSE,FALSE,,TRUE,Card Too Slow,,,1024,1024,1024,1024,0,FALSE,FALSE,FALSE,FALSE,FALSE,0,FALSE,FALSE,FALSE,FALSE,95,,,,12.563,FALSE,4.225,4.232,4.235,0.01,FALSE,FALSE,,,,,0,0,0,15,10,5442.1,1395.41,,Idle,0,30,FALSE,10,TRUE,,Go Home,39.96119753,-106.2164678,0.9,7877.7,164,TRUE,1,1,FALSE,FALSE,FALSE,FALSE,0,TRUE,FALSE,FALSE,Course Lock,98.4,115.6,16.4,Calm,57,Android, 4.2.16,dronefo...-Mavic Air,0K1DF313BD4PR1,,,0K4AEBQA3400DT,305.3,1458.9,93.5,6.5,4.7,0,300,dronefo...-Mavic Air,0K1DF313BD4PR1,,,0K4AEBQA3400DT,,Android, 4.2.16,,,,,,
33,6/19/2018,50:38.4,0m 3.4s,3.4,39.96119579,-106.2164654,1,1,1.3,8129,0,1.5,0,0,0.5,0.5,-0.9,0,4.2,-6.5,63.2,63.2,Auto Takeoff,Other (34),Takeoff (App Auto),16,5,TRUE,,Mavic Air,TRUE,FALSE,,Smart,RC,FALSE,TRUE,FALSE,,,TRUE,,FALSE,FALSE,FALSE,FALSE,FALSE,FALSE,FALSE,FALSE,FALSE,FALSE,0,Follow Yaw,0,0,64.9,64.9,FALSE,FALSE,FALSE,FALSE,FALSE,FALSE,,TRUE,Card Too Slow,,,1024,1024,1024,1024,0,FALSE,FALSE,FALSE,FALSE,FALSE,0,FALSE,FALSE,FALSE,FALSE,95,,,,12.573,FALSE,4.195,4.192,4.186,0.01,FALSE,FALSE,,,,,0,0,0,15,10,5442.1,1395.41,,Idle,0,30,FALSE,10,TRUE,,Go Home,39.96119753,-106.2164678,0.9,7877.7,164,TRUE,1,1,FALSE,FALSE,FALSE,FALSE,0,TRUE,FALSE,FALSE,Course Lock,98.4,115.6,16.4,Calm,57,Android, 4.2.16,dronefo...-Mavic Air,0K1DF313BD4PR1,,,0K4AEBQA3400DT,305.3,1458.9,93.5,6.5,4.7,0,300,dronefo...-Mavic Air,0K1DF313BD4PR1,,,0K4AEBQA3400DT,,Android, 4.2.16,,,,,,
34,6/19/2018,50:38.6,0m 3.5s,3.5,39.96119579,-106.2164654,1,1,1.6,8129,0,1.5,0,0,0.2,0.5,-1.1,0,6,-3.2,63.1,63.1,Auto Takeoff,Other (34),Takeoff (App Auto),16,5,TRUE,,Mavic Air,TRUE,FALSE,,Smart,RC,FALSE,TRUE,FALSE,,,TRUE,,FALSE,FALSE,FALSE,FALSE,FALSE,FALSE,FALSE,FALSE,FALSE,FALSE,0,Follow Yaw,0,0,64.8,64.8,FALSE,FALSE,FALSE,FALSE,FALSE,FALSE,,TRUE,Card Too Slow,,,1024,1024,1024,1024,0,FALSE,FALSE,FALSE,FALSE,FALSE,0,FALSE,FALSE,FALSE,FALSE,95,,,,12.573,FALSE,4.195,4.192,4.186,0.01,FALSE,FALSE,,,,,0,0,0,15,10,5442.1,1395.41,,Idle,0,30,FALSE,10,TRUE,,Go Home,39.96119753,-106.2164678,0.9,7877.7,164,TRUE,1,1,FALSE,FALSE,FALSE,FALSE,0,TRUE,FALSE,FALSE,Course Lock,98.4,115.6,16.4,Calm,57,Android, 4.2.16,dronefo...-Mavic Air,0K1DF313BD4PR1,,,0K4AEBQA3400DT,305.3,1458.9,93.5,6.5,4.7,0,300,dronefo...-Mavic Air,0K1DF313BD4PR1,,,0K4AEBQA3400DT,,Android, 4.2.16,,,,,,
35,6/19/2018,50:38.6,0m 3.6s,3.6,39.9611958,-106.2164651,1.3,1.3,2,8129,0,1.5,0,0,0.2,0.5,-1.1,0,7.8,-1.7,62.9,62.9,Auto Takeoff,Other (34),Takeoff (App Auto),16,5,TRUE,,Mavic Air,TRUE,FALSE,,Smart,RC,FALSE,TRUE,FALSE,,,TRUE,,FALSE,FALSE,FALSE,FALSE,FALSE,FALSE,FALSE,FALSE,FALSE,FALSE,0,Follow Yaw,0,0,64.8,64.8,FALSE,FALSE,FALSE,FALSE,FALSE,FALSE,,TRUE,Card Too Slow,,,1024,1024,1024,1024,0,FALSE,FALSE,FALSE,FALSE,FALSE,0,FALSE,FALSE,FALSE,FALSE,95,,,,12.573,FALSE,4.195,4.192,4.186,0.01,FALSE,FALSE,,,,,0,0,0,15,10,5442.1,1395.41,,Idle,0,30,FALSE,10,TRUE,,Go Home,39.96119753,-106.2164678,1,7877.7,164,TRUE,1,1,FALSE,FALSE,FALSE,FALSE,0,TRUE,FALSE,FALSE,Course Lock,98.4,115.6,16.4,Calm,57,Android, 4.2.16,dronefo...-Mavic Air,0K1DF313BD4PR1,,,0K4AEBQA3400DT,305.3,1458.9,93.5,6.5,4.7,0,300,dronefo...-Mavic Air,0K1DF313BD4PR1,,,0K4AEBQA3400DT,,Android, 4.2.16,,,,,,
36,6/19/2018,50:38.7,0m 3.7s,3.7,39.96119592,-106.216465,1.3,1.3,2,8129,0,1.5,0,0,0.2,0.5,-1.1,0,5.9,-2.3,62.9,62.9,Auto Takeoff,Other (34),Takeoff (App Auto),16,5,TRUE,,Mavic Air,TRUE,FALSE,,Smart,RC,FALSE,TRUE,FALSE,,,TRUE,,FALSE,FALSE,FALSE,FALSE,FALSE,FALSE,FALSE,FALSE,FALSE,FALSE,0,Follow Yaw,0,0,64.7,64.7,FALSE,FALSE,FALSE,FALSE,FALSE,FALSE,,TRUE,Card Too Slow,,,1024,1024,1024,1024,0,FALSE,FALSE,FALSE,FALSE,FALSE,0,FALSE,FALSE,FALSE,FALSE,95,,,,12.573,FALSE,4.195,4.192,4.186,0.01,FALSE,FALSE,,,,,0,0,0,15,10,5442.1,1395.41,,Idle,0,30,FALSE,10,TRUE,,Go Home,39.96119753,-106.2164678,1,7877.7,164,TRUE,1,1,FALSE,FALSE,FALSE,FALSE,0,TRUE,FALSE,FALSE,Course Lock,98.4,115.6,16.4,Calm,57,Android, 4.2.16,dronefo...-Mavic Air,0K1DF313BD4PR1,,,0K4AEBQA3400DT,305.3,1458.9,93.5,6.5,4.7,0,300,dronefo...-Mavic Air,0K1DF313BD4PR1,,,0K4AEBQA3400DT,,Android, 4.2.16,,,,,,
37,6/19/2018,50:38.7,0m 3.8s,3.8,39.96119588,-106.2164649,1.6,1.6,2.3,8130,0,1.5,0,0,0.2,0.5,-1.1,0,4.1,-3.4,63.3,63.3,Auto Takeoff,Other (34),Takeoff (App Auto),16,5,TRUE,,Mavic Air,TRUE,FALSE,,Smart,RC,FALSE,TRUE,FALSE,,,TRUE,,FALSE,FALSE,FALSE,FALSE,FALSE,FALSE,FALSE,FALSE,FALSE,FALSE,0,Follow Yaw,0,0,64.6,64.6,FALSE,FALSE,FALSE,FALSE,FALSE,FALSE,,TRUE,Card Too Slow,,,1024,1024,1024,1024,0,FALSE,FALSE,FALSE,FALSE,FALSE,0,FALSE,FALSE,FALSE,FALSE,95,,,,12.573,FALSE,4.195,4.192,4.186,0.01,FALSE,FALSE,,,,,0,0,0,15,10,5442.1,1395.41,,Idle,0,30,FALSE,10,TRUE,,Go Home,39.96119753,-106.2164678,1,7877.7,164,TRUE,1,1,FALSE,FALSE,FALSE,FALSE,0,TRUE,FALSE,FALSE,Course Lock,98.4,115.6,16.4,Calm,57,Android, 4.2.16,dronefo...-Mavic Air,0K1DF313BD4PR1,,,0K4AEBQA3400DT,305.3,1458.9,93.5,6.5,4.7,0,300,dronefo...-Mavic Air,0K1DF313BD4PR1,,,0K4AEBQA3400DT,,Android, 4.2.16,,,,,,
38,6/19/2018,50:38.8,0m 3.9s,3.9,39.9611959,-106.2164644,1.6,1.6,2.3,8130,1.1,1.5,0,0,0.2,0.5,-1.1,0,4.9,-4.7,63.4,63.4,Auto Takeoff,Other (34),Takeoff (App Auto),16,5,TRUE,,Mavic Air,TRUE,FALSE,,Smart,RC,FALSE,TRUE,FALSE,,,TRUE,,FALSE,FALSE,FALSE,FALSE,FALSE,FALSE,FALSE,FALSE,FALSE,FALSE,0,Follow Yaw,0,0,64.6,64.6,FALSE,FALSE,FALSE,FALSE,FALSE,FALSE,,TRUE,Card Too Slow,,,1024,1024,1024,1024,0,FALSE,FALSE,FALSE,FALSE,FALSE,0,FALSE,FALSE,FALSE,FALSE,95,,,,12.573,FALSE,4.195,4.192,4.186,0.01,FALSE,FALSE,,,,,0,0,0,15,10,5442.1,1395.41,,Idle,0,30,FALSE,10,TRUE,,Go Home,39.96119753,-106.2164678,1.1,7877.7,164,TRUE,1,1,FALSE,FALSE,FALSE,FALSE,0,TRUE,FALSE,FALSE,Course Lock,98.4,115.6,16.4,Calm,57,Android, 4.2.16,dronefo...-Mavic Air,0K1DF313BD4PR1,,,0K4AEBQA3400DT,305.3,1458.9,93.5,6.5,4.7,0,300,dronefo...-Mavic Air,0K1DF313BD4PR1,,,0K4AEBQA3400DT,,Android, 4.2.16,,,,,,
39,6/19/2018,50:38.9,0m 4.0s,4,39.96119591,-106.2164643,2,2,2.6,8130,1.1,1.5,0,0,0.2,0.5,-0.9,0,6,-3.9,63.3,63.3,Auto Takeoff,Other (34),Takeoff (App Auto),16,5,TRUE,,Mavic Air,TRUE,FALSE,,Smart,RC,FALSE,TRUE,FALSE,,,TRUE,,FALSE,FALSE,FALSE,FALSE,FALSE,FALSE,FALSE,FALSE,FALSE,FALSE,0,Follow Yaw,0,0,64.6,64.6,FALSE,FALSE,FALSE,FALSE,FALSE,FALSE,,TRUE,Card Too Slow,,,1024,1024,1024,1024,0,FALSE,FALSE,FALSE,FALSE,FALSE,0,FALSE,FALSE,FALSE,FALSE,95,,,,12.573,FALSE,4.195,4.192,4.186,0.01,FALSE,FALSE,,,,,0,0,0,15,10,5442.1,1395.41,,Idle,0,30,FALSE,10,TRUE,,Go Home,39.96119753,-106.2164678,1.2,7877.7,164,TRUE,1,1,FALSE,FALSE,FALSE,FALSE,0,TRUE,FALSE,FALSE,Course Lock,98.4,115.6,16.4,Calm,57,Android, 4.2.16,dronefo...-Mavic Air,0K1DF313BD4PR1,,,0K4AEBQA3400DT,305.3,1458.9,93.5,6.5,4.7,0,300,dronefo...-Mavic Air,0K1DF313BD4PR1,,,0K4AEBQA3400DT,,Android, 4.2.16,,,,,,
40,6/19/2018,50:38.9,0m 4.1s,4.1,39.96119573,-106.2164644,2,2,2.6,8130,0,1.5,0,0,0.2,0.5,-0.9,0,6.3,-2.7,63.3,63.3,Auto Takeoff,Other (34),Takeoff (App Auto),16,5,TRUE,,Mavic Air,TRUE,FALSE,,Smart,RC,FALSE,TRUE,FALSE,,,TRUE,,FALSE,FALSE,FALSE,FALSE,FALSE,FALSE,FALSE,FALSE,FALSE,FALSE,0,Follow Yaw,0,0,64.6,64.6,FALSE,FALSE,FALSE,FALSE,FALSE,FALSE,,TRUE,Card Too Slow,,,1024,1024,1024,1024,0,FALSE,FALSE,FALSE,FALSE,FALSE,0,FALSE,FALSE,FALSE,FALSE,95,,,,12.573,FALSE,4.195,4.192,4.186,0.01,FALSE,FALSE,,,,,0,0,0,15,10,5442.1,1395.41,,Idle,0,30,FALSE,10,TRUE,,Go Home,39.96119753,-106.2164678,1.2,7877.7,164,TRUE,1,1,FALSE,FALSE,FALSE,FALSE,0,TRUE,FALSE,FALSE,Course Lock,98.4,115.6,16.4,Calm,57,Android, 4.2.16,dronefo...-Mavic Air,0K1DF313BD4PR1,,,0K4AEBQA3400DT,305.3,1458.9,93.5,6.5,4.7,0,300,dronefo...-Mavic Air,0K1DF313BD4PR1,,,0K4AEBQA3400DT,,Android, 4.2.16,,,,,,
41,6/19/2018,50:39.0,0m 4.2s,4.2,39.96119571,-106.2164643,2.3,2.3,3,8130,0,1.5,0,0,0.2,0.5,-0.9,0,6.3,-3,63.3,63.3,Auto Takeoff,Other (34),Takeoff (App Auto),16,5,TRUE,,Mavic Air,TRUE,FALSE,,Smart,RC,FALSE,TRUE,FALSE,,,TRUE,,FALSE,FALSE,FALSE,FALSE,FALSE,FALSE,FALSE,FALSE,FALSE,FALSE,0,Follow Yaw,0,0,64.5,64.5,FALSE,FALSE,FALSE,FALSE,FALSE,FALSE,,TRUE,Card Too Slow,,,1024,1024,1024,1024,0,FALSE,FALSE,FALSE,FALSE,FALSE,0,FALSE,FALSE,FALSE,FALSE,95,,,,12.42,FALSE,4.195,4.192,4.186,0.01,FALSE,FALSE,,,,,0,0,0,15,10,6954.3,1783.15,,Idle,0,30,FALSE,10,TRUE,,Go Home,39.96119753,-106.2164678,1.2,7877.7,164,TRUE,1,1,FALSE,FALSE,FALSE,FALSE,0,TRUE,FALSE,FALSE,Course Lock,98.4,115.6,16.4,Calm,57,Android, 4.2.16,dronefo...-Mavic Air,0K1DF313BD4PR1,,,0K4AEBQA3400DT,305.3,1458.9,93.5,6.5,4.7,0,300,dronefo...-Mavic Air,0K1DF313BD4PR1,,,0K4AEBQA3400DT,,Android, 4.2.16,,,,,,
42,6/19/2018,50:39.1,0m 4.3s,4.3,39.96119584,-106.2164641,2.3,2.3,3,8130,0,1.5,0,0,0,0.5,-0.9,0,5.8,-2.6,63.2,63.2,Auto Takeoff,Other (34),Takeoff (App Auto),16,5,TRUE,,Mavic Air,TRUE,FALSE,,Smart,RC,FALSE,TRUE,FALSE,,,TRUE,,FALSE,FALSE,FALSE,FALSE,FALSE,FALSE,FALSE,FALSE,FALSE,FALSE,0,Follow Yaw,0,0,64.5,64.5,FALSE,FALSE,FALSE,FALSE,FALSE,FALSE,,TRUE,Card Too Slow,,,1024,1024,1024,1024,0,FALSE,FALSE,FALSE,FALSE,FALSE,0,FALSE,FALSE,FALSE,FALSE,95,,,,12.42,FALSE,4.195,4.192,4.186,0.01,FALSE,FALSE,,,,,0,0,0,15,10,6954.3,1783.15,,Idle,0,30,FALSE,10,TRUE,,Go Home,39.96119753,-106.2164678,1.2,7877.7,164,TRUE,1,1,FALSE,FALSE,FALSE,FALSE,0,TRUE,FALSE,FALSE,Course Lock,98.4,115.6,16.4,Calm,57,Android, 4.2.16,dronefo...-Mavic Air,0K1DF313BD4PR1,,,0K4AEBQA3400DT,305.3,1458.9,93.5,6.5,4.7,0,300,dronefo...-Mavic Air,0K1DF313BD4PR1,,,0K4AEBQA3400DT,,Android, 4.2.16,,,,,,
43,6/19/2018,50:39.2,0m 4.4s,4.4,39.96119581,-106.216464,2.6,2.6,3.3,8131,0,1.5,0,0,0.2,0.5,-1.1,0,5.7,-3.1,63.3,63.3,Auto Takeoff,Other (34),Takeoff (App Auto),16,5,TRUE,,Mavic Air,TRUE,FALSE,,Smart,RC,FALSE,TRUE,FALSE,,,TRUE,,FALSE,FALSE,FALSE,FALSE,FALSE,FALSE,FALSE,FALSE,FALSE,FALSE,0,Follow Yaw,0,0,64.5,64.5,FALSE,FALSE,FALSE,FALSE,FALSE,FALSE,,TRUE,Card Too Slow,,,1024,1024,1024,1024,0,FALSE,FALSE,FALSE,FALSE,FALSE,0,FALSE,FALSE,FALSE,FALSE,95,,,,12.428,FALSE,4.147,4.142,4.139,0.01,FALSE,FALSE,,,,,0,0,0,15,10,6954.3,1783.15,,Idle,0,30,FALSE,10,TRUE,,Go Home,39.96119753,-106.2164678,1.2,7877.7,164,TRUE,1,1,FALSE,FALSE,FALSE,FALSE,0,TRUE,FALSE,FALSE,Course Lock,98.4,115.6,16.4,Calm,57,Android, 4.2.16,dronefo...-Mavic Air,0K1DF313BD4PR1,,,0K4AEBQA3400DT,305.3,1458.9,93.5,6.5,4.7,0,300,dronefo...-Mavic Air,0K1DF313BD4PR1,,,0K4AEBQA3400DT,,Android, 4.2.16,,,,,,
44,6/19/2018,50:39.3,0m 4.5s,4.5,39.96119575,-106.2164638,2.6,2.6,3.3,8131,0,1.5,0,0,0.2,0.5,-1.1,0,6.6,-3.8,63.3,63.3,Auto Takeoff,Other (34),Takeoff (App Auto),16,5,TRUE,,Mavic Air,TRUE,FALSE,,Smart,RC,FALSE,TRUE,FALSE,,,TRUE,,FALSE,FALSE,FALSE,FALSE,FALSE,FALSE,FALSE,FALSE,FALSE,FALSE,0,Follow Yaw,0,0,64.5,64.5,FALSE,FALSE,FALSE,FALSE,FALSE,FALSE,,TRUE,Card Too Slow,,,1024,1024,1024,1024,0,FALSE,FALSE,FALSE,FALSE,FALSE,0,FALSE,FALSE,FALSE,FALSE,95,,,,12.428,FALSE,4.147,4.142,4.139,0.01,FALSE,FALSE,,,,,0,0,0,15,10,6954.3,1783.15,,Idle,0,30,FALSE,10,TRUE,,Go Home,39.96119753,-106.2164678,1.3,7877.7,164,TRUE,1,1,FALSE,FALSE,FALSE,FALSE,0,TRUE,FALSE,FALSE,Course Lock,98.4,115.6,16.4,Calm,57,Android, 4.2.16,dronefo...-Mavic Air,0K1DF313BD4PR1,,,0K4AEBQA3400DT,305.3,1458.9,93.5,6.5,4.7,0,300,dronefo...-Mavic Air,0K1DF313BD4PR1,,,0K4AEBQA3400DT,,Android, 4.2.16,,,,,,
45,6/19/2018,50:39.4,0m 4.6s,4.6,39.96119571,-106.2164637,3,3,3.6,8131,0,1.5,0,0,0.2,0.5,-0.9,0,7.2,-4.2,63.1,63.1,Auto Takeoff,Other (34),Takeoff (App Auto),16,5,TRUE,,Mavic Air,TRUE,FALSE,,Smart,RC,FALSE,TRUE,FALSE,,,TRUE,,FALSE,FALSE,FALSE,FALSE,FALSE,FALSE,FALSE,FALSE,FALSE,FALSE,0,Follow Yaw,0,0,64.5,64.5,FALSE,FALSE,FALSE,FALSE,FALSE,FALSE,,TRUE,Card Too Slow,,,1024,1024,1024,1024,0,FALSE,FALSE,FALSE,FALSE,FALSE,0,FALSE,FALSE,FALSE,FALSE,95,,,,12.428,FALSE,4.147,4.142,4.139,0.01,FALSE,FALSE,,,,,0,0,0,15,10,6954.3,1783.15,,Idle,0,30,FALSE,10,TRUE,,Go Home,39.96119753,-106.2164678,1.3,7877.7,164,TRUE,1,1,FALSE,FALSE,FALSE,FALSE,0,TRUE,FALSE,FALSE,Course Lock,98.4,115.6,16.4,Calm,57,Android, 4.2.16,dronefo...-Mavic Air,0K1DF313BD4PR1,,,0K4AEBQA3400DT,305.3,1458.9,93.5,6.5,4.7,0,300,dronefo...-Mavic Air,0K1DF313BD4PR1,,,0K4AEBQA3400DT,,Android, 4.2.16,,,,,,
46,6/19/2018,50:39.5,0m 4.7s,4.7,39.96119553,-106.2164633,3,3,3.6,8131,0,1.5,0,0,0,0.5,-0.9,0,6.8,-4.3,63.1,63.1,Auto Takeoff,Other (34),Takeoff (App Auto),16,5,TRUE,,Mavic Air,TRUE,FALSE,,Smart,RC,FALSE,TRUE,FALSE,,,TRUE,,FALSE,FALSE,FALSE,FALSE,FALSE,FALSE,FALSE,FALSE,FALSE,FALSE,0,Follow Yaw,0,0,64.4,64.4,FALSE,FALSE,FALSE,FALSE,FALSE,FALSE,,TRUE,Card Too Slow,,,1024,1024,1024,1024,0,FALSE,FALSE,FALSE,FALSE,FALSE,0,FALSE,FALSE,FALSE,FALSE,95,,,,12.428,FALSE,4.147,4.142,4.139,0.01,FALSE,FALSE,,,,,0,0,0,15,10,6954.3,1783.15,,Idle,0,30,FALSE,10,TRUE,,Go Home,39.96119753,-106.2164678,1.5,7877.7,164,TRUE,1,1,FALSE,FALSE,FALSE,FALSE,0,TRUE,FALSE,FALSE,Course Lock,98.4,115.6,16.4,Calm,57,Android, 4.2.16,dronefo...-Mavic Air,0K1DF313BD4PR1,,,0K4AEBQA3400DT,305.3,1458.9,93.5,6.5,4.7,0,300,dronefo...-Mavic Air,0K1DF313BD4PR1,,,0K4AEBQA3400DT,,Android, 4.2.16,,,,,,
47,6/19/2018,50:39.6,0m 4.8s,4.8,39.96119546,-106.2164632,3.3,3.3,3.9,8131,0,1.5,0,0,0,0.5,-0.9,0,6.2,-4.3,63.1,63.1,Auto Takeoff,Other (34),Takeoff (App Auto),16,5,TRUE,,Mavic Air,TRUE,FALSE,,Smart,RC,FALSE,TRUE,FALSE,,,TRUE,,FALSE,FALSE,FALSE,FALSE,FALSE,FALSE,FALSE,FALSE,FALSE,FALSE,0,Follow Yaw,0,0,64.4,64.4,FALSE,FALSE,FALSE,FALSE,FALSE,FALSE,,TRUE,Card Too Slow,,,1024,1024,1024,1024,0,FALSE,FALSE,FALSE,FALSE,FALSE,0,FALSE,FALSE,FALSE,FALSE,95,,,,12.428,FALSE,4.147,4.142,4.139,0.01,FALSE,FALSE,,,,,0,0,0,15,10,6954.3,1783.15,,Idle,0,30,FALSE,10,TRUE,,Go Home,39.96119753,-106.2164678,1.5,7877.7,164,TRUE,1,1,FALSE,FALSE,FALSE,FALSE,0,TRUE,FALSE,FALSE,Course Lock,98.4,115.6,16.4,Calm,57,Android, 4.2.16,dronefo...-Mavic Air,0K1DF313BD4PR1,,,0K4AEBQA3400DT,305.3,1458.9,93.5,6.5,4.7,0,300,dronefo...-Mavic Air,0K1DF313BD4PR1,,,0K4AEBQA3400DT,,Android, 4.2.16,,,,,,
48,6/19/2018,50:39.7,0m 4.9s,4.9,39.96119536,-106.2164633,3.3,3.3,3.9,8131,0,1.5,0,0,0,0.5,-0.9,0,5.8,-4.2,63.1,63.1,Auto Takeoff,Other (34),Takeoff (App Auto),16,5,TRUE,,Mavic Air,TRUE,FALSE,,Smart,RC,FALSE,TRUE,FALSE,,,TRUE,,FALSE,FALSE,FALSE,FALSE,FALSE,FALSE,FALSE,FALSE,FALSE,FALSE,0,Follow Yaw,0,0,64.4,64.4,FALSE,FALSE,FALSE,FALSE,FALSE,FALSE,,TRUE,Card Too Slow,,,1024,1024,1024,1024,0,FALSE,FALSE,FALSE,FALSE,FALSE,0,FALSE,FALSE,FALSE,FALSE,95,,,,12.428,FALSE,4.147,4.142,4.139,0.01,FALSE,FALSE,,,,,0,0,0,15,10,6954.3,1783.15,,Idle,0,30,FALSE,10,TRUE,,Go Home,39.96119753,-106.2164678,1.5,7877.7,164,TRUE,1,1,FALSE,FALSE,FALSE,FALSE,0,TRUE,FALSE,FALSE,Course Lock,98.4,115.6,16.4,Calm,57,Android, 4.2.16,dronefo...-Mavic Air,0K1DF313BD4PR1,,,0K4AEBQA3400DT,305.3,1458.9,93.5,6.5,4.7,0,300,dronefo...-Mavic Air,0K1DF313BD4PR1,,,0K4AEBQA3400DT,,Android, 4.2.16,,,,,,
49,6/19/2018,50:39.9,0m 5.0s,5,39.96119527,-106.2164632,3.6,3.6,4.3,8132,0,1.5,0,0,0,0.5,-0.9,0,5.5,-4.6,63.1,63.1,Auto Takeoff,Other (34),Takeoff (App Auto),16,5,TRUE,,Mavic Air,TRUE,FALSE,,Smart,RC,FALSE,TRUE,FALSE,,,TRUE,,FALSE,FALSE,FALSE,FALSE,FALSE,FALSE,FALSE,FALSE,FALSE,FALSE,0,Follow Yaw,0,0,64.4,64.4,FALSE,FALSE,FALSE,FALSE,FALSE,TRUE,,TRUE,Card Too Slow,,,1024,1024,1024,1024,0,FALSE,FALSE,FALSE,FALSE,FALSE,0,FALSE,FALSE,FALSE,FALSE,95,,,,12.428,FALSE,4.147,4.142,4.139,0.01,FALSE,FALSE,,,,,0,0,0,15,10,6954.3,1783.15,,Idle,0,30,FALSE,10,TRUE,,Go Home,39.96119753,-106.2164678,1.5,7877.7,164,TRUE,1,1,FALSE,FALSE,FALSE,FALSE,0,TRUE,FALSE,FALSE,Course Lock,98.4,115.6,16.4,Calm,57,Android, 4.2.16,dronefo...-Mavic Air,0K1DF313BD4PR1,,,0K4AEBQA3400DT,305.3,1458.9,93.5,6.5,4.7,0,300,dronefo...-Mavic Air,0K1DF313BD4PR1,,,0K4AEBQA3400DT,,Android, 4.2.16,,,,,,
50,6/19/2018,50:40.0,0m 5.1s,5.1,39.96119538,-106.2164634,3.6,3.6,4.3,8132,0,1.5,0,0,0,0.5,-1.1,0,5.5,-4.5,63.2,63.2,Auto Takeoff,Other (34),Takeoff (App Auto),16,5,TRUE,,Mavic Air,TRUE,FALSE,,Smart,RC,FALSE,TRUE,FALSE,,,TRUE,,FALSE,FALSE,FALSE,FALSE,FALSE,FALSE,FALSE,FALSE,FALSE,FALSE,0,Follow Yaw,0,0,64.4,64.4,FALSE,FALSE,FALSE,FALSE,FALSE,TRUE,,TRUE,Card Too Slow,,,1024,1024,1024,1024,0,FALSE,FALSE,FALSE,FALSE,FALSE,0,FALSE,FALSE,FALSE,FALSE,95,,,,12.428,FALSE,4.147,4.142,4.139,0.01,FALSE,FALSE,,,,,0,0,0,15,10,6954.3,1783.15,,Idle,0,30,FALSE,10,TRUE,,Go Home,39.96119753,-106.2164678,1.5,7877.7,164,TRUE,1,1,FALSE,FALSE,FALSE,FALSE,0,TRUE,FALSE,FALSE,Course Lock,98.4,115.6,16.4,Calm,57,Android, 4.2.16,dronefo...-Mavic Air,0K1DF313BD4PR1,,,0K4AEBQA3400DT,305.3,1458.9,93.5,6.5,4.7,0,300,dronefo...-Mavic Air,0K1DF313BD4PR1,,,0K4AEBQA3400DT,,Android, 4.2.16,,,,,,
51,6/19/2018,50:40.1,0m 5.2s,5.2,39.96119533,-106.2164633,3.9,3.9,4.3,8132,0,1.5,0,0,0,0.5,-1.1,0,5.1,-4.6,63.2,63.2,Auto Takeoff,Other (34),Takeoff (App Auto),16,5,TRUE,,Mavic Air,TRUE,FALSE,,Smart,RC,FALSE,TRUE,FALSE,,,TRUE,,FALSE,FALSE,FALSE,FALSE,FALSE,FALSE,FALSE,FALSE,FALSE,FALSE,0,Follow Yaw,0,0,64.3,64.3,FALSE,FALSE,FALSE,FALSE,FALSE,TRUE,,TRUE,Card Too Slow,,,1024,1024,1024,1024,0,FALSE,FALSE,FALSE,FALSE,FALSE,0,FALSE,FALSE,FALSE,FALSE,95,,,,12.402,FALSE,4.147,4.142,4.139,0.01,FALSE,FALSE,,,,,0,0,0,15,10,9328.4,2391.89,,Idle,0,30,FALSE,10,TRUE,,Go Home,39.96119753,-106.2164678,1.5,7877.7,164,TRUE,1,1,FALSE,FALSE,FALSE,FALSE,0,TRUE,FALSE,FALSE,Course Lock,98.4,115.6,16.4,Calm,57,Android, 4.2.16,dronefo...-Mavic Air,0K1DF313BD4PR1,,,0K4AEBQA3400DT,305.3,1458.9,93.5,6.5,4.7,0,300,dronefo...-Mavic Air,0K1DF313BD4PR1,,,0K4AEBQA3400DT,,Android, 4.2.16,,,,,,
52,6/19/2018,50:40.2,0m 5.3s,5.3,39.9611952,-106.2164633,3.9,3.9,4.6,8132,0,1.5,0,0,0,0.5,-1.1,0,4.8,-4.7,63.3,63.3,Auto Takeoff,Other (34),Takeoff (App Auto),16,5,TRUE,,Mavic Air,TRUE,FALSE,,Smart,RC,FALSE,TRUE,FALSE,,,TRUE,,FALSE,FALSE,FALSE,FALSE,FALSE,FALSE,FALSE,FALSE,FALSE,FALSE,0,Follow Yaw,0,0,64.3,64.3,FALSE,FALSE,FALSE,FALSE,FALSE,TRUE,,TRUE,Card Too Slow,,,1024,1024,1024,1024,0,FALSE,FALSE,FALSE,FALSE,FALSE,0,FALSE,FALSE,FALSE,FALSE,95,,,,12.402,FALSE,4.147,4.142,4.139,0.01,FALSE,FALSE,,,,,0,0,0,15,10,9328.4,2391.89,,Idle,0,30,FALSE,10,TRUE,,Go Home,39.96119753,-106.2164678,1.5,7877.7,164,TRUE,1,1,FALSE,FALSE,FALSE,FALSE,0,TRUE,FALSE,FALSE,Course Lock,98.4,115.6,16.4,Calm,57,Android, 4.2.16,dronefo...-Mavic Air,0K1DF313BD4PR1,,,0K4AEBQA3400DT,305.3,1458.9,93.5,6.5,4.7,0,300,dronefo...-Mavic Air,0K1DF313BD4PR1,,,0K4AEBQA3400DT,,Android, 4.2.16,,,,,,
53,6/19/2018,50:40.3,0m 5.4s,5.4,39.96119518,-106.2164633,4.3,4.3,4.9,8132,0,1.5,0,0,0,0.5,-1.1,0,5.8,-3.9,63.2,63.2,Auto Takeoff,Other (34),Takeoff (App Auto),16,5,TRUE,,Mavic Air,TRUE,FALSE,,Smart,RC,FALSE,TRUE,FALSE,,,TRUE,,FALSE,FALSE,FALSE,FALSE,FALSE,FALSE,FALSE,FALSE,FALSE,FALSE,0,Follow Yaw,0,0,64.3,64.3,FALSE,FALSE,FALSE,FALSE,FALSE,TRUE,,TRUE,Card Too Slow,,,1024,1024,1024,1024,0,FALSE,FALSE,FALSE,FALSE,FALSE,0,FALSE,FALSE,FALSE,FALSE,95,,,,12.408,FALSE,4.144,4.134,4.13,0.014,FALSE,FALSE,,,,,0,0,0,15,10,9328.4,2391.89,,Idle,0,30,FALSE,10,TRUE,,Go Home,39.96119753,-106.2164678,1.5,7877.7,164,TRUE,1,1,FALSE,FALSE,FALSE,FALSE,0,TRUE,FALSE,FALSE,Course Lock,98.4,115.6,16.4,Calm,57,Android, 4.2.16,dronefo...-Mavic Air,0K1DF313BD4PR1,,,0K4AEBQA3400DT,305.3,1458.9,93.5,6.5,4.7,0,300,dronefo...-Mavic Air,0K1DF313BD4PR1,,,0K4AEBQA3400DT,,Android, 4.2.16,,,,,,
54,6/19/2018,50:40.5,0m 5.5s,5.5,39.96119526,-106.216463,4.3,4.3,4.9,8132,0,1.5,0,0,0,0.5,-1.1,0,6.7,-3.9,63.1,63.1,Auto Takeoff,Other (34),Takeoff (App Auto),16,5,TRUE,,Mavic Air,TRUE,FALSE,,Smart,RC,FALSE,TRUE,FALSE,,,TRUE,,FALSE,FALSE,FALSE,FALSE,FALSE,FALSE,FALSE,FALSE,FALSE,FALSE,0,Follow Yaw,0,0,64.3,64.3,FALSE,FALSE,FALSE,FALSE,FALSE,TRUE,,TRUE,Card Too Slow,,,1024,1024,1024,1024,0,FALSE,FALSE,FALSE,FALSE,FALSE,0,FALSE,FALSE,FALSE,FALSE,95,,,,12.408,FALSE,4.144,4.134,4.13,0.014,FALSE,FALSE,,,,,0,0,0,15,10,9328.4,2391.89,,Idle,0,30,FALSE,10,TRUE,,Go Home,39.96119753,-106.2164678,1.6,7877.7,164,TRUE,1,1,FALSE,FALSE,FALSE,FALSE,0,TRUE,FALSE,FALSE,Course Lock,98.4,115.6,16.4,Calm,57,Android, 4.2.16,dronefo...-Mavic Air,0K1DF313BD4PR1,,,0K4AEBQA3400DT,305.3,1458.9,93.5,6.5,4.7,0,300,dronefo...-Mavic Air,0K1DF313BD4PR1,,,0K4AEBQA3400DT,,Android, 4.2.16,,,,,,
55,6/19/2018,50:40.7,0m 5.6s,5.6,39.96119528,-106.2164629,4.6,4.6,5.2,8133,0,1.5,0,0,0,0.5,-1.1,0,7.1,-3.9,63.1,63.1,Auto Takeoff,Other (34),Takeoff (App Auto),16,5,TRUE,,Mavic Air,TRUE,FALSE,,Smart,RC,FALSE,TRUE,FALSE,,,TRUE,,FALSE,FALSE,FALSE,FALSE,FALSE,FALSE,FALSE,FALSE,FALSE,FALSE,0,Follow Yaw,0,0,64.3,64.3,FALSE,FALSE,FALSE,FALSE,FALSE,TRUE,,TRUE,Card Too Slow,,,1024,1024,1024,1024,0,FALSE,FALSE,FALSE,FALSE,FALSE,0,FALSE,FALSE,FALSE,FALSE,95,,,,12.408,FALSE,4.144,4.134,4.13,0.014,FALSE,FALSE,,,,,0,0,0,15,10,9328.4,2391.89,,Idle,0,30,FALSE,10,TRUE,,Go Home,39.96119753,-106.2164678,1.6,7877.7,164,TRUE,1,1,FALSE,FALSE,FALSE,FALSE,0,TRUE,FALSE,FALSE,Course Lock,98.4,115.6,16.4,Calm,57,Android, 4.2.16,dronefo...-Mavic Air,0K1DF313BD4PR1,,,0K4AEBQA3400DT,305.3,1458.9,93.5,6.5,4.7,0,300,dronefo...-Mavic Air,0K1DF313BD4PR1,,,0K4AEBQA3400DT,,Android, 4.2.16,,,,,,
56,6/19/2018,50:40.7,0m 5.7s,5.7,39.96119529,-106.2164624,4.6,4.6,5.2,8133,0,1.5,0,0,0.2,0.5,-1.1,0,7.6,-4.1,63.1,63.1,Auto Takeoff,Other (34),Takeoff (App Auto),16,5,TRUE,,Mavic Air,TRUE,FALSE,,Smart,RC,FALSE,TRUE,FALSE,,,TRUE,,FALSE,FALSE,FALSE,FALSE,FALSE,FALSE,FALSE,FALSE,FALSE,FALSE,0,Follow Yaw,0,0,64.3,64.3,FALSE,FALSE,FALSE,FALSE,FALSE,TRUE,,TRUE,Card Too Slow,,,1024,1024,1024,1024,0,FALSE,FALSE,FALSE,FALSE,FALSE,0,FALSE,FALSE,FALSE,FALSE,95,,,,12.408,FALSE,4.144,4.134,4.13,0.014,FALSE,FALSE,,,,,0,0,0,15,10,9328.4,2391.89,,Idle,0,30,FALSE,10,TRUE,,Go Home,39.96119753,-106.2164678,1.7,7877.7,164,TRUE,1,1,FALSE,FALSE,FALSE,FALSE,0,TRUE,FALSE,FALSE,Course Lock,98.4,115.6,16.4,Calm,57,Android, 4.2.16,dronefo...-Mavic Air,0K1DF313BD4PR1,,,0K4AEBQA3400DT,305.3,1458.9,93.5,6.5,4.7,0,300,dronefo...-Mavic Air,0K1DF313BD4PR1,,,0K4AEBQA3400DT,,Android, 4.2.16,,,,,,
57,6/19/2018,50:40.9,0m 5.8s,5.8,39.96119533,-106.2164623,4.9,4.9,5.6,8133,1.1,1.5,0,0,0.2,0.5,-1.1,0,8.5,-3.9,63.1,63.1,Auto Takeoff,Other (34),Takeoff (App Auto),16,5,TRUE,,Mavic Air,TRUE,FALSE,,Smart,RC,FALSE,TRUE,FALSE,,,TRUE,,FALSE,FALSE,FALSE,FALSE,FALSE,FALSE,FALSE,FALSE,FALSE,FALSE,0,Follow Yaw,0,0,64.3,64.3,FALSE,FALSE,FALSE,FALSE,FALSE,TRUE,,TRUE,Card Too Slow,,,1024,1024,1024,1024,0,FALSE,FALSE,FALSE,FALSE,FALSE,0,FALSE,FALSE,FALSE,FALSE,95,,,,12.408,FALSE,4.144,4.134,4.13,0.014,FALSE,FALSE,,,,,0,0,0,15,10,9328.4,2391.89,,Idle,0,30,FALSE,10,TRUE,,Go Home,39.96119753,-106.2164678,1.8,7877.7,164,TRUE,1,1,FALSE,FALSE,FALSE,FALSE,0,TRUE,FALSE,FALSE,Course Lock,98.4,115.6,16.4,Calm,57,Android, 4.2.16,dronefo...-Mavic Air,0K1DF313BD4PR1,,,0K4AEBQA3400DT,305.3,1458.9,93.5,6.5,4.7,0,300,dronefo...-Mavic Air,0K1DF313BD4PR1,,,0K4AEBQA3400DT,,Android, 4.2.16,,,,,,
58,6/19/2018,50:40.9,0m 5.9s,5.9,39.96119552,-106.2164622,4.9,4.9,5.6,8133,0,1.5,0,0,0.2,0.5,-0.9,0,9.2,-3.2,63,63,Auto Takeoff,Other (34),Takeoff (App Auto),16,5,TRUE,,Mavic Air,TRUE,FALSE,,Smart,RC,FALSE,TRUE,FALSE,,,TRUE,,FALSE,FALSE,FALSE,FALSE,FALSE,FALSE,FALSE,FALSE,FALSE,FALSE,0,Follow Yaw,0,0,64.3,64.3,FALSE,FALSE,FALSE,FALSE,FALSE,TRUE,,TRUE,Card Too Slow,,,1024,1024,1024,1024,0,FALSE,FALSE,FALSE,FALSE,FALSE,0,FALSE,FALSE,FALSE,FALSE,95,,,,12.408,FALSE,4.144,4.134,4.13,0.014,FALSE,FALSE,,,,,0,0,0,15,10,9328.4,2391.89,,Idle,0,30,FALSE,10,TRUE,,Go Home,39.96119753,-106.2164678,1.7,7877.7,164,TRUE,1,1,FALSE,FALSE,FALSE,FALSE,0,TRUE,FALSE,FALSE,Course Lock,98.4,115.6,16.4,Calm,57,Android, 4.2.16,dronefo...-Mavic Air,0K1DF313BD4PR1,,,0K4AEBQA3400DT,305.3,1458.9,93.5,6.5,4.7,0,300,dronefo...-Mavic Air,0K1DF313BD4PR1,,,0K4AEBQA3400DT,,Android, 4.2.16,,,,,,
59,6/19/2018,50:41.0,0m 6.0s,6,39.96119556,-106.216462,5.2,5.2,5.9,8133,0,1.5,0,0,0,0.5,-0.9,0,9.1,-3.4,63,63,Auto Takeoff,Other (34),Takeoff (App Auto),16,5,TRUE,,Mavic Air,TRUE,FALSE,,Smart,RC,FALSE,TRUE,FALSE,,,TRUE,,FALSE,FALSE,FALSE,FALSE,FALSE,FALSE,FALSE,FALSE,FALSE,FALSE,0,Follow Yaw,0,0,64.2,64.2,FALSE,FALSE,FALSE,FALSE,FALSE,TRUE,,TRUE,Card Too Slow,,,1024,1024,1024,1024,0,FALSE,FALSE,FALSE,FALSE,FALSE,0,FALSE,FALSE,FALSE,FALSE,95,,,,12.408,FALSE,4.144,4.134,4.13,0.014,FALSE,FALSE,,,,,0,0,0,15,10,9328.4,2391.89,,Idle,0,30,FALSE,10,TRUE,,Go Home,39.96119753,-106.2164678,1.8,7877.7,164,TRUE,1,1,FALSE,FALSE,FALSE,FALSE,0,TRUE,FALSE,FALSE,Course Lock,98.4,115.6,16.4,Calm,57,Android, 4.2.16,dronefo...-Mavic Air,0K1DF313BD4PR1,,,0K4AEBQA3400DT,305.3,1458.9,93.5,6.5,4.7,0,300,dronefo...-Mavic Air,0K1DF313BD4PR1,,,0K4AEBQA3400DT,,Android, 4.2.16,,,,,,
60,6/19/2018,50:41.2,0m 6.1s,6.1,39.96119579,-106.2164618,5.2,5.2,5.9,8133,0,1.5,0,0,0,0.5,-0.9,0,8.8,-3.3,63,63,Auto Takeoff,Other (34),Takeoff (App Auto),16,5,TRUE,,Mavic Air,TRUE,FALSE,,Smart,RC,FALSE,TRUE,FALSE,,,TRUE,,FALSE,FALSE,FALSE,FALSE,FALSE,FALSE,FALSE,FALSE,FALSE,FALSE,0,Follow Yaw,0,0,64.2,64.2,FALSE,FALSE,FALSE,FALSE,FALSE,TRUE,,TRUE,Card Too Slow,,,1024,1024,1024,1024,0,FALSE,FALSE,FALSE,FALSE,FALSE,0,FALSE,FALSE,FALSE,FALSE,95,,,,12.408,FALSE,4.144,4.134,4.13,0.014,FALSE,FALSE,,,,,0,0,0,15,10,9328.4,2391.89,,Idle,0,30,FALSE,10,TRUE,,Go Home,39.96119753,-106.2164678,1.8,7877.7,164,TRUE,1,1,FALSE,FALSE,FALSE,FALSE,0,TRUE,FALSE,FALSE,Course Lock,98.4,115.6,16.4,Calm,57,Android, 4.2.16,dronefo...-Mavic Air,0K1DF313BD4PR1,,,0K4AEBQA3400DT,305.3,1458.9,93.5,6.5,4.7,0,300,dronefo...-Mavic Air,0K1DF313BD4PR1,,,0K4AEBQA3400DT,,Android, 4.2.16,,,,,,
61,6/19/2018,50:41.3,0m 6.2s,6.2,39.96119583,-106.2164616,5.6,5.6,6.2,8134,0,1.5,0,0,0,0.5,-0.9,0,8.4,-2.6,63.1,63.1,Auto Takeoff,Other (34),Takeoff (App Auto),16,5,TRUE,,Mavic Air,TRUE,FALSE,,Smart,RC,FALSE,TRUE,FALSE,,,TRUE,,FALSE,FALSE,FALSE,FALSE,FALSE,FALSE,FALSE,FALSE,FALSE,FALSE,0,Follow Yaw,0,0,64.2,64.2,FALSE,FALSE,FALSE,FALSE,FALSE,TRUE,,TRUE,Card Too Slow,,,1024,1024,1024,1024,0,FALSE,FALSE,FALSE,FALSE,FALSE,0,FALSE,FALSE,FALSE,FALSE,95,,,,12.394,FALSE,4.144,4.134,4.13,0.014,FALSE,FALSE,,,,,0,1,0,15,10,12335.2,3162.88,,Idle,0,30,FALSE,10,TRUE,,Go Home,39.96119753,-106.2164678,1.8,7877.7,164,TRUE,1,1,FALSE,FALSE,FALSE,FALSE,0,TRUE,FALSE,FALSE,Course Lock,98.4,115.6,16.4,Calm,57,Android, 4.2.16,dronefo...-Mavic Air,0K1DF313BD4PR1,,,0K4AEBQA3400DT,305.3,1458.9,93.5,6.5,4.7,0,300,dronefo...-Mavic Air,0K1DF313BD4PR1,,,0K4AEBQA3400DT,,Android, 4.2.16,,,,,,
62,6/19/2018,50:41.3,0m 6.3s,6.3,39.96119565,-106.2164619,5.6,5.6,6.6,8134,0,1.5,0,0,0,0.5,-0.9,0,8.1,-2.9,63.1,63.1,Auto Takeoff,Other (34),Takeoff (App Auto),16,5,TRUE,,Mavic Air,TRUE,FALSE,,Smart,RC,FALSE,TRUE,FALSE,,,TRUE,,FALSE,FALSE,FALSE,FALSE,FALSE,FALSE,FALSE,FALSE,FALSE,FALSE,0,Follow Yaw,0,0,64.2,64.2,FALSE,FALSE,FALSE,FALSE,FALSE,TRUE,,TRUE,Card Too Slow,,,1024,1024,1024,1024,0,FALSE,FALSE,FALSE,FALSE,FALSE,0,FALSE,FALSE,FALSE,FALSE,95,,,,12.394,FALSE,4.144,4.134,4.13,0.014,FALSE,FALSE,,,,,0,1,0,15,10,12335.2,3162.88,,Idle,0,30,FALSE,10,TRUE,,Go Home,39.96119753,-106.2164678,1.8,7877.7,164,TRUE,1,1,FALSE,FALSE,FALSE,FALSE,0,TRUE,FALSE,FALSE,Course Lock,98.4,115.6,16.4,Calm,57,Android, 4.2.16,dronefo...-Mavic Air,0K1DF313BD4PR1,,,0K4AEBQA3400DT,305.3,1458.9,93.5,6.5,4.7,0,300,dronefo...-Mavic Air,0K1DF313BD4PR1,,,0K4AEBQA3400DT,,Android, 4.2.16,,,,,,
63,6/19/2018,50:41.4,0m 6.4s,6.4,39.96119565,-106.2164619,5.9,5.9,6.9,8134,0,1.5,0,0,0,0.5,-0.9,0,8.1,-3.7,63.1,63.1,Auto Takeoff,Other (34),Takeoff (App Auto),16,5,TRUE,,Mavic Air,TRUE,FALSE,,Smart,RC,FALSE,TRUE,FALSE,,,TRUE,,FALSE,FALSE,FALSE,FALSE,FALSE,FALSE,FALSE,FALSE,FALSE,FALSE,0,Follow Yaw,0,0,64.2,64.2,FALSE,FALSE,FALSE,FALSE,FALSE,TRUE,,TRUE,Card Too Slow,,,1024,1024,1024,1024,0,FALSE,FALSE,FALSE,FALSE,FALSE,0,FALSE,FALSE,FALSE,FALSE,95,,,,12.406,FALSE,4.139,4.131,4.136,0.014,FALSE,FALSE,,,,,0,1,0,15,10,12335.2,3162.88,,Idle,0,30,FALSE,10,TRUE,,Go Home,39.96119753,-106.2164678,1.8,7877.7,164,TRUE,1,1,FALSE,FALSE,FALSE,FALSE,0,TRUE,FALSE,FALSE,Course Lock,98.4,115.6,16.4,Calm,57,Android, 4.2.16,dronefo...-Mavic Air,0K1DF313BD4PR1,,,0K4AEBQA3400DT,305.3,1458.9,93.5,6.5,4.7,0,300,dronefo...-Mavic Air,0K1DF313BD4PR1,,,0K4AEBQA3400DT,,Android, 4.2.16,,,,,,
64,6/19/2018,50:41.4,0m 6.5s,6.5,39.96119585,-106.2164619,5.9,5.9,7.2,8134,1.5,1.5,0,0,0,0.5,-0.9,0,7.9,-3,63.1,63.1,Auto Takeoff,Other (34),Takeoff (App Auto),16,5,TRUE,,Mavic Air,TRUE,FALSE,,Smart,RC,FALSE,TRUE,FALSE,,,TRUE,,FALSE,FALSE,FALSE,FALSE,FALSE,FALSE,FALSE,FALSE,FALSE,FALSE,0,Follow Yaw,0,0,64.2,64.2,FALSE,FALSE,FALSE,FALSE,FALSE,TRUE,,TRUE,Card Too Slow,,,1024,1024,1024,1024,0,FALSE,FALSE,FALSE,FALSE,FALSE,0,FALSE,FALSE,FALSE,FALSE,95,,,,12.406,FALSE,4.139,4.131,4.136,0.014,FALSE,FALSE,,,,,0,1,0,15,10,12335.2,3162.88,,Idle,0,30,FALSE,10,TRUE,,Go Home,39.96119753,-106.2164678,1.8,7877.7,164,TRUE,1,1,FALSE,FALSE,FALSE,FALSE,0,TRUE,FALSE,FALSE,Course Lock,98.4,115.6,16.4,Calm,57,Android, 4.2.16,dronefo...-Mavic Air,0K1DF313BD4PR1,,,0K4AEBQA3400DT,305.3,1458.9,93.5,6.5,4.7,0,300,dronefo...-Mavic Air,0K1DF313BD4PR1,,,0K4AEBQA3400DT,,Android, 4.2.16,,,,,,
65,6/19/2018,50:41.5,0m 6.6s,6.6,39.96119586,-106.2164618,6.2,6.2,7.5,8134,0,1.5,0,0,0,0.5,-0.9,0,8,-3,63.1,63.1,Auto Takeoff,Other (34),Takeoff (App Auto),16,5,TRUE,,Mavic Air,TRUE,FALSE,,Smart,RC,FALSE,TRUE,FALSE,,,TRUE,,FALSE,FALSE,FALSE,FALSE,FALSE,FALSE,FALSE,FALSE,FALSE,FALSE,0,Follow Yaw,0,0,64.2,64.2,FALSE,FALSE,FALSE,FALSE,FALSE,TRUE,,TRUE,Card Too Slow,,,1024,1024,1024,1024,0,FALSE,FALSE,FALSE,FALSE,FALSE,0,FALSE,FALSE,FALSE,FALSE,95,,,,12.406,FALSE,4.139,4.131,4.136,0.014,FALSE,FALSE,,,,,0,1,0,15,10,12335.2,3162.88,,Idle,0,30,FALSE,10,TRUE,,Go Home,39.96119753,-106.2164678,1.8,7877.7,164,TRUE,1,1,FALSE,FALSE,FALSE,FALSE,0,TRUE,FALSE,FALSE,Course Lock,98.4,115.6,16.4,Calm,57,Android, 4.2.16,dronefo...-Mavic Air,0K1DF313BD4PR1,,,0K4AEBQA3400DT,305.3,1458.9,93.5,6.5,4.7,0,300,dronefo...-Mavic Air,0K1DF313BD4PR1,,,0K4AEBQA3400DT,,Android, 4.2.16,,,,,,
