sep=,
CUSTOM.date [local], CUSTOM.updateTime [local], OSD.flyTime, OSD.flyTime [s], OSD.latitude, OSD.longitude, OSD.height [ft], OSD.heightMax [ft], OSD.vpsHeight [ft], OSD.altitude [ft], OSD.hSpeed [MPH], OSD.hSpeedMax [MPH], OSD.xSpeed [MPH], OSD.xSpeedMax [MPH], OSD.ySpeed [MPH], OSD.ySpeedMax [MPH], OSD.zSpeed [MPH], OSD.zSpeedMax [MPH], OSD.pitch, OSD.roll, OSD.yaw, OSD.yaw [360], OSD.flycState, OSD.flycCommand, OSD.flightAction, OSD.gpsNum, OSD.gpsLevel, OSD.isGPSUsed, OSD.nonGPSCause, OSD.droneType, OSD.isSwaveWork, OSD.waveError, OSD.goHomeStatus, OSD.batteryType, OSD.ctrlDevice, OSD.isOnGround, OSD.isMotorOn, OSD.isMotorBlocked, OSD.motorStartFailedCause, OSD.motorFailReason, OSD.isImuPreheated, OSD.imuInitFailReason, OSD.isAcceletorOverRange, OSD.isBarometerDeadInAir, OSD.isCompassError, OSD.isGoHomeHeightModified, OSD.canIOCWork, OSD.isNotEnoughForce, OSD.isOutOfLimit, OSD.isPropellerCatapult, OSD.isVibrating, OSD.isVisionUsed, OSD.voltageWarning, GIMBAL.mode, GIMBAL.pitch, GIMBAL.roll, GIMBAL.yaw, GIMBAL.yaw [360], GIMBAL.isPitchAtLimit, GIMBAL.isRollAtLimit, GIMBAL.isYawAtLimit, GIMBAL.isStuck, CAMERA.isPhoto, CAMERA.isVideo, CAMERA.filename, CAMERA.sdCardIsInserted, CAMERA.sdCardState, RC.downlinkSignal, RC.uplinkSignal, RC.aileron, RC.elevator, RC.throttle, RC.rudder, RC.mode, RC.goHomeDepressed, RC.recordDepressed, RC.shutterDepressed, RC.playbackDepressed, RC.wheelDepressed, RC.wheelOffset, RC.custom1Depressed, RC.custom2Depressed, RC.custom3Depressed, RC.custom4Depressed, BATTERY.chargeLevel, BATTERY.currentPV [V], BATTERY.currentCapacity [mAh], BATTERY.fullCapacity [mAh], BATTERY.voltage [V], BATTERY.isCellVoltageEstimated, BATTERY.cellVoltage1 [V], BATTERY.cellVoltage2 [V], BATTERY.cellVoltage3 [V], BATTERY.cellVoltage4 [V], BATTERY.cellVoltage5 [V], BATTERY.cellVoltage6 [V], BATTERY.maxCellVoltageDeviation, BATTERY.isCellVoltageDeviationHigh, BATTERY.isVoltageLow, BATTERY.current [A], BATTERY.temperature [F], BATTERY.minTemperature [F], BATTERY.maxTemperature [F], BATTERY.usefulTime [s], BATTERY.goHomeTime [s], BATTERY.landTime [s], BATTERY.goHomeBattery, BATTERY.landBattery, BATTERY.safeFlyRadius, BATTERY.volumeConsume, BATTERY.status, BATTERY.goHomeStatus, BATTERY.goHomeCountdown, BATTERY.lowWarning, BATTERY.lowWarningGoHome, BATTERY.seriousLowWarning, BATTERY.seriousLowWarningLanding, BATTERY.timesCharged, MC.failSafeAction, HOME.latitude, HOME.longitude, HOME.distance [ft], HOME.height [ft], HOME.heightLimit [ft], HOME.isHomeRecord, HOME.goHomeMode, HOME.aircraftHeadDirection, HOME.isDynamicHomePointEnabled, HOME.isReachedLimitDistance, HOME.isReachedLimitHeight, HOME.isCompassCeleing, HOME.compassCeleStatus, HOME.isMultipleFlightModeEnabled, HOME.isBeginnerMode, HOME.isIOCEnabled, HOME.iocMode, HOME.goHomeHeight [ft], HOME.courseLockAngle, HOME.forceLandingHeight [ft], HOME.wind, HOME.dataRecorderFileIndex, RECOVER.appType, RECOVER.appVersion, RECOVER.aircraftName, RECOVER.aircraftSerial, RECOVER.cameraSerial, RECOVER.rcSerial, RECOVER.batterySerial, DETAILS.totalTime [s], DETAILS.totalDistance [ft], DETAILS.maxHeight [ft], DETAILS.maxHorizontalSpeed [MPH], DETAILS.maxVerticalSpeed [MPH], DETAILS.photoNum, DETAILS.videoTime [s], DETAILS.aircraftName, DETAILS.aircraftSerial, DETAILS.cameraSerial, DETAILS.rcSerial, DETAILS.batterySerial, DETAILS.appName, DETAILS.appType, DETAILS.appVersion, APPGPS.latitude, APPGPS.longitude, APPGPS.accuracy, APP.message, APP.tip, APP.warning
10/10/2017,4:02:23.82 PM,0m 0.9s,0.9,39.96126301,-106.21631337,0,0,,8128,0,0,0,0,0,0,0,0,0.4,-1.4,101.5,101.5,Starting Motors,Auto Fly,Takeoff (App Auto),15,5,True,,M600,False,False,,Smart,RC,True,True,False,,,True,,False,False,False,False,True,False,False,False,False,False,0,Follow Yaw,0,0,100.8,100.8,False,False,False,False,False,False,,True,Normal,,,1024,1024,1024,1024,1,False,False,False,False,False,0,False,False,False,False,76,,,,48.714,True,,,,,,,,False,False,,,,,0,0,0,0,0,0.0,797.98,,Idle,0,30,False,10,True,,Go Home,39.96124761,-106.21630127,6.6,8106.7,393.7,True,1,1,False,False,False,False,0,True,False,False,Course Lock,65.6,177.6,9.8,Calm,46,Android, 3.1.11,dji aircraft,0670136230,,03LLCA0B4B,M61AE76011,337.066,8893.0,115.8,42.7,7.4,0,0,dji aircraft,0670136230,,03LLCA0B4B,M61AE7601101J0,,Android, 3.1.11,,,,Data Recorder File Index is 46.,,
10/10/2017,4:02:23.92 PM,0m 1.0s,1.0,39.96126302,-106.21631333,0,0,,8128,0,0,0,0,0,0,0,0,0.8,-1.4,101.4,101.4,Starting Motors,Auto Fly,Takeoff (App Auto),15,5,True,,M600,False,False,,Smart,RC,True,True,False,,,True,,False,False,False,False,True,False,False,False,False,False,0,Follow Yaw,0,0,100.8,100.8,False,False,False,False,False,False,,True,Normal,,,1024,1024,1024,1024,1,False,False,False,False,False,0,False,False,False,False,76,,,,48.714,True,,,,,,,,False,False,,,,,0,0,0,0,0,0.0,797.98,,Idle,0,30,False,10,True,,Go Home,39.96124761,-106.21630127,6.5,8106.7,393.7,True,1,1,False,False,False,False,0,True,False,False,Course Lock,65.6,177.6,9.8,Calm,46,Android, 3.1.11,dji aircraft,0670136230,,03LLCA0B4B,M61AE76011,337.066,8893.0,115.8,42.7,7.4,0,0,dji aircraft,0670136230,,03LLCA0B4B,M61AE7601101J0,,Android, 3.1.11,,,,,,
10/10/2017,4:02:24.03 PM,0m 1.1s,1.1,39.96126302,-106.21631332,0,0,,8128,0,0,0,0,0,0,0,0,0.8,-1.4,102.3,102.3,Starting Motors,Auto Fly,Takeoff (App Auto),15,5,True,,M600,False,False,,Smart,RC,True,True,False,,,True,,False,False,False,False,True,False,False,False,False,False,0,Follow Yaw,0,0,100.8,100.8,False,False,False,False,False,False,,True,Normal,,,1024,1024,1024,1024,1,False,False,False,False,False,0,False,False,False,False,76,,,,48.714,True,,,,,,,,False,False,,,,,0,0,0,0,0,0.0,797.98,,Idle,0,30,False,10,True,,Go Home,39.96124761,-106.21630127,6.5,8106.7,393.7,True,1,1,False,False,False,False,0,True,False,False,Course Lock,65.6,177.6,9.8,Calm,46,Android, 3.1.11,dji aircraft,0670136230,,03LLCA0B4B,M61AE76011,337.066,8893.0,115.8,42.7,7.4,0,0,dji aircraft,0670136230,,03LLCA0B4B,M61AE7601101J0,,Android, 3.1.11,,,,,,
10/10/2017,4:02:24.13 PM,0m 1.2s,1.2,39.961263,-106.21631331,0,0,,8128,0,0,0,0,0,0,0,0,0.8,-1.3,100.9,100.9,Starting Motors,Auto Fly,Takeoff (App Auto),15,5,True,,M600,False,False,,Smart,RC,True,True,False,,,True,,False,False,False,False,True,False,False,False,False,False,0,Follow Yaw,0,0,100.8,100.8,False,False,False,False,False,False,,True,Normal,,,1024,1024,1024,1024,1,False,False,False,False,False,0,False,False,False,False,76,,,,48.714,True,,,,,,,,False,False,,,,,0,0,0,0,0,0.0,797.98,,Idle,0,30,False,10,True,,Go Home,39.96124761,-106.21630127,6.5,8106.7,393.7,True,1,1,False,False,False,False,0,True,False,False,Course Lock,65.6,177.6,9.8,Calm,46,Android, 3.1.11,dji aircraft,0670136230,,03LLCA0B4B,M61AE76011,337.066,8893.0,115.8,42.7,7.4,0,0,dji aircraft,0670136230,,03LLCA0B4B,M61AE7601101J0,,Android, 3.1.11,,,,,,
10/10/2017,4:02:24.23 PM,0m 1.3s,1.3,39.96126296,-106.21631331,0,0,,8128,0,0,0,0,0,0,0,0,0.6,-1.4,102,102,Starting Motors,Auto Fly,Takeoff (App Auto),15,5,True,,M600,False,False,,Smart,RC,True,True,False,,,True,,False,False,False,False,True,False,False,False,False,False,0,Follow Yaw,0,0,100.8,100.8,False,False,False,False,False,False,,True,Normal,,,1024,1024,1024,1024,1,False,False,False,False,False,0,False,False,False,False,76,,,,48.714,True,,,,,,,,False,False,,,,,0,0,0,0,0,0.0,797.98,,Idle,0,30,False,10,True,,Go Home,39.96124761,-106.21630127,6.5,8106.7,393.7,True,1,1,False,False,False,False,0,True,False,False,Course Lock,65.6,177.6,9.8,Calm,46,Android, 3.1.11,dji aircraft,0670136230,,03LLCA0B4B,M61AE76011,337.066,8893.0,115.8,42.7,7.4,0,0,dji aircraft,0670136230,,03LLCA0B4B,M61AE7601101J0,,Android, 3.1.11,,,,,,
10/10/2017,4:02:24.33 PM,0m 1.4s,1.4,39.96126292,-106.2163133,0,0,,8128,0,0,0,0,0,0,0,0,0.7,-1.4,102.2,102.2,Starting Motors,Auto Fly,Takeoff (App Auto),15,5,True,,M600,False,False,,Smart,RC,True,True,False,,,True,,False,False,False,False,True,False,False,False,False,False,0,Follow Yaw,0,0,100.8,100.8,False,False,False,False,False,False,,True,Normal,,,1024,1024,1024,1024,1,False,False,False,False,False,0,False,False,False,False,76,,,,48.714,True,,,,,,,,False,False,,,,,0,0,0,0,0,0.0,797.98,,Idle,0,30,False,10,True,,Go Home,39.96124761,-106.21630127,6.5,8106.7,393.7,True,1,1,False,False,False,False,0,True,False,False,Course Lock,65.6,177.6,9.8,Calm,46,Android, 3.1.11,dji aircraft,0670136230,,03LLCA0B4B,M61AE76011,337.066,8893.0,115.8,42.7,7.4,0,0,dji aircraft,0670136230,,03LLCA0B4B,M61AE7601101J0,,Android, 3.1.11,,,,,,
10/10/2017,4:02:24.43 PM,0m 1.5s,1.5,39.96126286,-106.21631327,0,0,,8128,0,0,0,0,0,0,0,0,0.5,-1.4,101.6,101.6,Starting Motors,Auto Fly,Takeoff (App Auto),15,5,True,,M600,False,False,,Smart,RC,True,True,False,,,True,,False,False,False,False,True,False,False,False,False,False,0,Follow Yaw,0,0,100.8,100.8,False,False,False,False,False,False,,True,Normal,,,1024,1024,1024,1024,1,False,False,False,False,False,0,False,False,False,False,76,,,,48.714,True,,,,,,,,False,False,,,,,0,0,0,0,0,0.0,797.98,,Idle,0,30,False,10,True,,Go Home,39.96124761,-106.21630127,6.5,8106.7,393.7,True,1,1,False,False,False,False,0,True,False,False,Course Lock,65.6,177.6,9.8,Calm,46,Android, 3.1.11,dji aircraft,0670136230,,03LLCA0B4B,M61AE76011,337.066,8893.0,115.8,42.7,7.4,0,0,dji aircraft,0670136230,,03LLCA0B4B,M61AE7601101J0,,Android, 3.1.11,,,,,,
10/10/2017,4:02:24.54 PM,0m 1.6s,1.6,39.96126282,-106.21631322,0,0,,8128,0,0,0,0,0,0,0,0,0.5,-1.4,101.4,101.4,Starting Motors,Auto Fly,Takeoff (App Auto),15,5,True,,M600,False,False,,Smart,RC,True,True,False,,,True,,False,False,False,False,True,False,False,False,False,False,0,Follow Yaw,0,0,100.8,100.8,False,False,False,False,False,False,,True,Normal,,,1024,1024,1024,1024,1,False,False,False,False,False,0,False,False,False,False,76,,,,48.714,True,,,,,,,,False,False,,,,,0,0,0,0,0,0.0,797.98,,Idle,0,30,False,10,True,,Go Home,39.96124761,-106.21630127,6.5,8106.7,393.7,True,1,1,False,False,False,False,0,True,False,False,Course Lock,65.6,177.6,9.8,Calm,46,Android, 3.1.11,dji aircraft,0670136230,,03LLCA0B4B,M61AE76011,337.066,8893.0,115.8,42.7,7.4,0,0,dji aircraft,0670136230,,03LLCA0B4B,M61AE7601101J0,,Android, 3.1.11,,,,,,
10/10/2017,4:02:24.64 PM,0m 1.7s,1.7,39.9612628,-106.21631321,0,0,,8128,0,0,0.2,0.2,0,0,0,0,0.6,-1.5,101.9,101.9,Starting Motors,Auto Fly,Takeoff (App Auto),15,5,True,,M600,False,False,,Smart,RC,True,True,False,,,True,,False,False,False,False,True,False,False,False,False,False,0,Follow Yaw,0,0,100.8,100.8,False,False,False,False,False,False,,True,Normal,,,1024,1024,1024,1024,1,False,False,False,False,False,0,False,False,False,False,76,,,,48.714,True,,,,,,,,False,False,,,,,0,0,0,0,0,0.0,797.98,,Idle,0,30,False,10,True,,Go Home,39.96124761,-106.21630127,6.5,8106.7,393.7,True,1,1,False,False,False,False,0,True,False,False,Course Lock,65.6,177.6,9.8,Calm,46,Android, 3.1.11,dji aircraft,0670136230,,03LLCA0B4B,M61AE76011,337.066,8893.0,115.8,42.7,7.4,0,0,dji aircraft,0670136230,,03LLCA0B4B,M61AE7601101J0,,Android, 3.1.11,,,,,,
10/10/2017,4:02:24.74 PM,0m 1.8s,1.8,39.96126281,-106.21631321,0,0,,8128,0,0,0,0.2,-0.2,0,0,0,0.7,-1.5,101.7,101.7,Starting Motors,Auto Fly,Takeoff (App Auto),15,5,True,,M600,False,False,,Smart,RC,True,True,False,,,True,,False,False,False,False,True,False,False,False,False,False,0,Follow Yaw,0,0,100.8,100.8,False,False,False,False,False,False,,True,Normal,,,1024,1024,1024,1024,1,False,False,False,False,False,0,False,False,False,False,76,,,,48.714,True,,,,,,,,False,False,,,,,0,0,0,0,0,0.0,797.98,,Idle,0,30,False,10,True,,Go Home,39.96124761,-106.21630127,6.5,8106.7,393.7,True,1,1,False,False,False,False,0,True,False,False,Course Lock,65.6,177.6,9.8,Calm,46,Android, 3.1.11,dji aircraft,0670136230,,03LLCA0B4B,M61AE76011,337.066,8893.0,115.8,42.7,7.4,0,0,dji aircraft,0670136230,,03LLCA0B4B,M61AE7601101J0,,Android, 3.1.11,,,,,,
10/10/2017,4:02:24.84 PM,0m 1.9s,1.9,39.96126281,-106.21631321,0,0,,8128,0,0,0,0.2,0,0,0,0,0.7,-1.5,101.5,101.5,Starting Motors,Auto Fly,Takeoff (App Auto),15,5,True,,M600,False,False,,Smart,RC,True,True,False,,,True,,False,False,False,False,True,False,False,False,False,False,0,Follow Yaw,0,0,100.9,100.9,False,False,False,False,False,False,,True,Normal,,,1024,1024,1024,1024,1,False,False,False,False,False,0,False,False,False,False,76,,,,48.663,True,,,,,,,,False,False,,,,,0,0,0,0,0,0.0,797.63,,Idle,0,30,False,10,True,,Go Home,39.96124761,-106.21630127,6.5,8106.7,393.7,True,1,1,False,False,False,False,0,True,False,False,Course Lock,65.6,177.6,9.8,Calm,46,Android, 3.1.11,dji aircraft,0670136230,,03LLCA0B4B,M61AE76011,337.066,8893.0,115.8,42.7,7.4,0,0,dji aircraft,0670136230,,03LLCA0B4B,M61AE7601101J0,,Android, 3.1.11,,,,,,
10/10/2017,4:02:24.94 PM,0m 2.0s,2.0,39.96126274,-106.21631322,0,0,,8128,0,0,0,0.2,0,0,0,0,0.7,-1.4,101.7,101.7,Starting Motors,Auto Fly,Takeoff (App Auto),15,5,True,,M600,False,False,,Smart,RC,True,True,False,,,True,,False,False,False,False,True,False,False,False,False,False,0,Follow Yaw,0,0,100.9,100.9,False,False,False,False,False,False,,True,Normal,,,1024,1024,1024,1024,1,False,False,False,False,False,0,False,False,False,False,76,,,,48.663,True,,,,,,,,False,False,,,,,0,0,0,0,0,0.0,797.63,,Idle,0,30,False,10,True,,Go Home,39.96124761,-106.21630127,6.4,8106.7,393.7,True,1,1,False,False,False,False,0,True,False,False,Course Lock,65.6,177.6,9.8,Calm,46,Android, 3.1.11,dji aircraft,0670136230,,03LLCA0B4B,M61AE76011,337.066,8893.0,115.8,42.7,7.4,0,0,dji aircraft,0670136230,,03LLCA0B4B,M61AE7601101J0,,Android, 3.1.11,,,,,,
10/10/2017,4:02:25.05 PM,0m 2.1s,2.1,39.96126271,-106.21631326,0,0,,8128,0,0,0,0.2,0,0,0,0,0.6,-1.4,102,102,Auto Takeoff,Auto Fly,Takeoff (App Auto),15,5,True,,M600,False,False,,Smart,RC,True,True,False,,,True,,False,False,False,False,True,False,False,False,False,False,0,Follow Yaw,0,0,100.9,100.9,False,False,False,False,False,False,,True,Normal,,,1024,1024,1024,1024,1,False,False,False,False,False,0,False,False,False,False,76,,,,48.663,True,,,,,,,,False,False,,,,,0,0,0,0,0,0.0,797.63,,Idle,0,30,False,10,True,,Go Home,39.96124761,-106.21630127,6.4,8106.7,393.7,True,1,1,False,False,False,False,0,True,False,False,Course Lock,65.6,177.6,9.8,Calm,46,Android, 3.1.11,dji aircraft,0670136230,,03LLCA0B4B,M61AE76011,337.066,8893.0,115.8,42.7,7.4,0,0,dji aircraft,0670136230,,03LLCA0B4B,M61AE7601101J0,,Android, 3.1.11,,,,,,
10/10/2017,4:02:25.15 PM,0m 2.2s,2.2,39.96126268,-106.21631323,0,0,,8128,0,0,0,0.2,-0.2,0,0,0,0.4,-1.4,101.8,101.8,Auto Takeoff,Auto Fly,Takeoff (App Auto),15,5,True,,M600,False,False,,Smart,RC,True,True,False,,,True,,False,False,False,False,True,False,False,False,False,False,0,Follow Yaw,0,0,100.8,100.8,False,False,False,False,False,False,,True,Normal,,,1024,1024,1024,1024,1,False,False,False,False,False,0,False,False,False,False,76,,,,48.663,True,,,,,,,,False,False,,,,,0,0,0,0,0,0.0,797.63,,Idle,0,30,False,10,True,,Go Home,39.96124761,-106.21630127,6.4,8106.7,393.7,True,1,1,False,False,False,False,0,True,False,False,Course Lock,65.6,177.6,9.8,Calm,46,Android, 3.1.11,dji aircraft,0670136230,,03LLCA0B4B,M61AE76011,337.066,8893.0,115.8,42.7,7.4,0,0,dji aircraft,0670136230,,03LLCA0B4B,M61AE7601101J0,,Android, 3.1.11,,,,,,
10/10/2017,4:02:25.25 PM,0m 2.3s,2.3,39.96126264,-106.21631321,0,0,,8128,0,0,0,0.2,-0.2,0,0,0,0.4,-1.5,102.3,102.3,Auto Takeoff,Auto Fly,Takeoff (App Auto),15,5,True,,M600,False,False,,Smart,RC,True,True,False,,,True,,False,False,False,False,True,False,False,False,False,False,0,Follow Yaw,0,0,100.9,100.9,False,False,False,False,False,False,,True,Normal,,,1024,1024,1024,1024,1,False,False,False,False,False,0,False,False,False,False,76,,,,48.663,True,,,,,,,,False,False,,,,,0,0,0,0,0,0.0,797.63,,Idle,0,30,False,10,True,,Go Home,39.96124761,-106.21630127,6.4,8106.7,393.7,True,1,1,False,False,False,False,0,True,False,False,Course Lock,65.6,177.6,9.8,Calm,46,Android, 3.1.11,dji aircraft,0670136230,,03LLCA0B4B,M61AE76011,337.066,8893.0,115.8,42.7,7.4,0,0,dji aircraft,0670136230,,03LLCA0B4B,M61AE7601101J0,,Android, 3.1.11,,,,RTH Altitude: 65FT.,Taking off.,
10/10/2017,4:02:25.35 PM,0m 2.4s,2.4,39.96126265,-106.21631319,0,0,,8128,0,0,0,0.2,0,0,0,0,0.2,-1.4,102.9,102.9,Auto Takeoff,Auto Fly,Takeoff (App Auto),15,5,True,,M600,False,False,,Smart,RC,True,True,False,,,True,,False,False,False,False,True,False,False,False,False,False,0,Follow Yaw,0,0,100.9,100.9,False,False,False,False,False,False,,True,Normal,,,1024,1024,1024,1024,1,False,False,False,False,False,0,False,False,False,False,76,,,,48.663,True,,,,,,,,False,False,,,,,0,0,0,0,0,0.0,797.63,,Idle,0,30,False,10,True,,Go Home,39.96124761,-106.21630127,6.4,8106.7,393.7,True,1,1,False,False,False,False,0,True,False,False,Course Lock,65.6,177.6,9.8,Calm,46,Android, 3.1.11,dji aircraft,0670136230,,03LLCA0B4B,M61AE76011,337.066,8893.0,115.8,42.7,7.4,0,0,dji aircraft,0670136230,,03LLCA0B4B,M61AE7601101J0,,Android, 3.1.11,,,,,,
10/10/2017,4:02:25.46 PM,0m 2.4s,2.4,39.96126265,-106.21631319,0,0,,8128,0,0,0,0.2,0,0,0,0,0.2,-1.4,102.9,102.9,Auto Takeoff,Auto Fly,Takeoff (App Auto),15,5,True,,M600,False,False,,Smart,RC,True,True,False,,,True,,False,False,False,False,True,False,False,False,False,False,0,Follow Yaw,0,0,100.9,100.9,False,False,False,False,False,False,,True,Normal,,,1024,1024,1024,1024,1,False,False,False,False,False,0,False,False,False,False,76,,,,48.663,True,,,,,,,,False,False,,,,,0,0,0,0,0,0.0,797.63,,Idle,0,30,False,10,True,,Go Home,39.96124761,-106.21630127,6.4,8106.7,393.7,True,1,1,False,False,False,False,0,True,False,False,Course Lock,65.6,177.6,9.8,Calm,46,Android, 3.1.11,dji aircraft,0670136230,,03LLCA0B4B,M61AE76011,337.066,8893.0,115.8,42.7,7.4,0,0,dji aircraft,0670136230,,03LLCA0B4B,M61AE7601101J0,,Android, 3.1.11,,,,,Home Point Recorded.,
10/10/2017,4:02:25.56 PM,0m 2.6s,2.6,39.96126279,-106.21631319,0,0,,8128,0,0,0,0.2,0,0,0,0,0,-1.4,102.7,102.7,Auto Takeoff,Auto Fly,Takeoff (App Auto),15,5,True,,M600,False,False,,Smart,RC,False,True,False,,,True,,False,False,False,False,True,False,False,False,False,False,0,Follow Yaw,0,0,101,101,False,False,False,False,False,False,,True,Normal,,,1024,1024,1024,1024,1,False,False,False,False,False,0,False,False,False,False,76,,,,48.663,True,,,,,,,,False,False,,,,,0,0,0,0,0,0.0,797.63,,Idle,0,30,False,10,True,,Go Home,39.96124761,-106.21630127,6.5,8106.7,393.7,True,1,1,False,False,False,False,0,True,False,False,Course Lock,65.6,177.6,9.8,Calm,46,Android, 3.1.11,dji aircraft,0670136230,,03LLCA0B4B,M61AE76011,337.066,8893.0,115.8,42.7,7.4,0,0,dji aircraft,0670136230,,03LLCA0B4B,M61AE7601101J0,,Android, 3.1.11,,,,,,
10/10/2017,4:02:25.66 PM,0m 2.7s,2.7,39.96126288,-106.21631321,0,0,,8128,0,0,0,0.2,0,0,0,0,0,-1.4,102.6,102.6,Auto Takeoff,Auto Fly,Takeoff (App Auto),15,5,True,,M600,False,False,,Smart,RC,False,True,False,,,True,,False,False,False,False,True,False,False,False,False,False,0,Follow Yaw,0,0,101,101,False,False,False,False,False,False,,True,Normal,,,1024,1024,1024,1024,1,False,False,False,False,False,0,False,False,False,False,76,,,,48.663,True,,,,,,,,False,False,,,,,0,0,0,0,0,0.0,797.63,,Idle,0,30,False,10,True,,Go Home,39.96124761,-106.21630127,6.5,8106.7,393.7,True,1,1,False,False,False,False,0,True,False,False,Course Lock,65.6,177.6,9.8,Calm,46,Android, 3.1.11,dji aircraft,0670136230,,03LLCA0B4B,M61AE76011,337.066,8893.0,115.8,42.7,7.4,0,0,dji aircraft,0670136230,,03LLCA0B4B,M61AE7601101J0,,Android, 3.1.11,,,,,,
10/10/2017,4:02:25.76 PM,0m 2.8s,2.8,39.96126314,-106.21631313,0,0,,8128,0,0,0,0.2,0,0,0,0,0,-1.4,102.6,102.6,Auto Takeoff,Auto Fly,Takeoff (App Auto),15,5,True,,M600,False,False,,Smart,RC,False,True,False,,,True,,False,False,False,False,True,False,False,False,False,False,0,Follow Yaw,0,0,101.1,101.1,False,False,False,False,False,False,,True,Normal,,,1024,1024,1024,1024,1,False,False,False,False,False,0,False,False,False,False,76,,,,48.663,True,,,,,,,,False,False,,,,,0,0,0,0,0,0.0,797.63,,Idle,0,30,False,10,True,,Go Home,39.96124761,-106.21630127,6.6,8106.7,393.7,True,1,1,False,False,False,False,0,True,False,False,Course Lock,65.6,177.6,9.8,Calm,46,Android, 3.1.11,dji aircraft,0670136230,,03LLCA0B4B,M61AE76011,337.066,8893.0,115.8,42.7,7.4,0,0,dji aircraft,0670136230,,03LLCA0B4B,M61AE7601101J0,,Android, 3.1.11,,,,,,
10/10/2017,4:02:25.86 PM,0m 2.9s,2.9,39.96126332,-106.21631309,0,0,,8128,0,0,0.2,0.2,0,0,-0.2,0,0,-1.3,102.5,102.5,Auto Takeoff,Auto Fly,Takeoff (App Auto),15,5,True,,M600,False,False,,Smart,RC,False,True,False,,,True,,False,False,False,False,True,False,False,False,False,False,0,Follow Yaw,0,0,101.1,101.1,False,False,False,False,False,False,,True,Normal,,,1024,1024,1071,1024,1,False,False,False,False,False,0,False,False,False,False,76,,,,48.214,True,,,,,,,,False,False,,,,,0,0,0,0,0,0.0,797.77,,Idle,0,30,False,10,True,,Go Home,39.9612628,-106.21631319,0.0,8106.7,393.7,True,1,1,False,False,False,False,0,True,False,False,Course Lock,65.6,177.6,9.8,Calm,46,Android, 3.1.11,dji aircraft,0670136230,,03LLCA0B4B,M61AE76011,337.066,8893.0,115.8,42.7,7.4,0,0,dji aircraft,0670136230,,03LLCA0B4B,M61AE7601101J0,,Android, 3.1.11,,,,Home Point Updated.,,
10/10/2017,4:02:25.97 PM,0m 3.0s,3.0,39.96126346,-106.21631324,0.3,0.3,,8129,0,0,0,0.2,0,0,-0.2,0,-0.1,-1.3,102.4,102.4,Auto Takeoff,Auto Fly,Takeoff (App Auto),15,5,True,,M600,False,False,,Smart,RC,False,True,False,,,True,,False,False,False,False,True,False,False,False,False,False,0,Follow Yaw,0,0,101.2,101.2,False,False,False,False,False,False,,True,Normal,,,1024,1024,1024,1024,1,False,False,False,False,False,0,False,False,False,False,76,,,,48.214,True,,,,,,,,False,False,,,,,0,0,0,0,0,0.0,797.77,,Idle,0,30,False,10,True,,Go Home,39.9612628,-106.21631319,0.4,8106.7,393.7,True,1,1,False,False,False,False,0,True,False,False,Course Lock,65.6,177.6,9.8,Calm,46,Android, 3.1.11,dji aircraft,0670136230,,03LLCA0B4B,M61AE76011,337.066,8893.0,115.8,42.7,7.4,0,0,dji aircraft,0670136230,,03LLCA0B4B,M61AE7601101J0,,Android, 3.1.11,,,,,,
10/10/2017,4:02:26.07 PM,0m 3.1s,3.1,39.96126355,-106.21631333,0.3,0.3,,8129,0,0,0,0.2,0,0,-0.2,0,-0.3,-1.1,102.5,102.5,Auto Takeoff,Auto Fly,Takeoff (App Auto),15,5,True,,M600,False,False,,Smart,RC,False,True,False,,,True,,False,False,False,False,True,False,False,False,False,False,0,Follow Yaw,0,0,101.2,101.2,False,False,False,False,False,False,,True,Normal,,,1024,1024,1024,1024,1,False,False,False,False,False,0,False,False,False,False,76,,,,48.214,True,,,,,,,,False,False,,,,,0,0,0,0,0,0.0,797.77,,Idle,0,30,False,10,True,,Go Home,39.9612628,-106.21631319,0.4,8106.7,393.7,True,1,1,False,False,False,False,0,True,False,False,Course Lock,65.6,177.6,9.8,Calm,46,Android, 3.1.11,dji aircraft,0670136230,,03LLCA0B4B,M61AE76011,337.066,8893.0,115.8,42.7,7.4,0,0,dji aircraft,0670136230,,03LLCA0B4B,M61AE7601101J0,,Android, 3.1.11,,,,,,
10/10/2017,4:02:26.17 PM,0m 3.2s,3.2,39.96126357,-106.21631339,0.3,0.3,,8129,0,0,0,0.2,0,0,-0.2,0,-0.6,-0.8,102.6,102.6,Auto Takeoff,Auto Fly,Takeoff (App Auto),15,5,True,,M600,False,False,,Smart,RC,False,True,False,,,True,,False,False,False,False,True,False,False,False,False,False,0,Follow Yaw,0,0,101.2,101.2,False,False,False,False,False,False,,True,Normal,,,1024,1024,1024,1024,1,False,False,False,False,False,0,False,False,False,False,76,,,,48.214,True,,,,,,,,False,False,,,,,0,0,0,0,0,0.0,797.77,,Idle,0,30,False,10,True,,Go Home,39.9612628,-106.21631319,0.3,8106.7,393.7,True,1,1,False,False,False,False,0,True,False,False,Course Lock,65.6,177.6,9.8,Calm,46,Android, 3.1.11,dji aircraft,0670136230,,03LLCA0B4B,M61AE76011,337.066,8893.0,115.8,42.7,7.4,0,0,dji aircraft,0670136230,,03LLCA0B4B,M61AE7601101J0,,Android, 3.1.11,,,,,,
10/10/2017,4:02:26.27 PM,0m 3.3s,3.3,39.96126358,-106.21631343,0.3,0.3,,8129,1.1,1.1,0,0.2,0,0,-0.2,0,-0.8,-0.4,102.7,102.7,Auto Takeoff,Auto Fly,Takeoff (App Auto),15,5,True,,M600,False,False,,Smart,RC,False,True,False,,,True,,False,False,False,False,True,False,False,False,False,False,0,Follow Yaw,0,0,101.2,101.2,False,False,False,False,False,False,,True,Normal,,,1024,1024,1024,1024,1,False,False,False,False,False,0,False,False,False,False,76,,,,48.214,True,,,,,,,,False,False,,,,,0,0,0,0,0,0.0,797.77,,Idle,0,30,False,10,True,,Go Home,39.9612628,-106.21631319,0.4,8106.7,393.7,True,1,1,False,False,False,False,0,True,False,False,Course Lock,65.6,177.6,9.8,Calm,46,Android, 3.1.11,dji aircraft,0670136230,,03LLCA0B4B,M61AE76011,337.066,8893.0,115.8,42.7,7.4,0,0,dji aircraft,0670136230,,03LLCA0B4B,M61AE7601101J0,,Android, 3.1.11,,,,,,
10/10/2017,4:02:26.37 PM,0m 3.4s,3.4,39.96126346,-106.21631336,0.3,0.3,,8129,0,1.1,0,0.2,0,0,-0.2,0,-1,0.1,102.9,102.9,Auto Takeoff,Auto Fly,Takeoff (App Auto),15,5,True,,M600,False,False,,Smart,RC,False,True,False,,,True,,False,False,False,False,True,False,False,False,False,False,0,Follow Yaw,0,0,101.3,101.3,False,False,False,False,False,False,,True,Normal,,,1024,1024,1024,1024,1,False,False,False,False,False,0,False,False,False,False,76,,,,48.214,True,,,,,,,,False,False,,,,,0,0,0,0,0,0.0,797.77,,Idle,0,30,False,10,True,,Go Home,39.9612628,-106.21631319,0.4,8106.7,393.7,True,1,1,False,False,False,False,0,True,False,False,Course Lock,65.6,177.6,9.8,Calm,46,Android, 3.1.11,dji aircraft,0670136230,,03LLCA0B4B,M61AE76011,337.066,8893.0,115.8,42.7,7.4,0,0,dji aircraft,0670136230,,03LLCA0B4B,M61AE7601101J0,,Android, 3.1.11,,,,,,
10/10/2017,4:02:26.47 PM,0m 3.5s,3.5,39.96126336,-106.2163133,0.3,0.3,,8129,1.1,1.1,0,0.2,0,0,-0.2,0,-1.1,0.6,103.1,103.1,Auto Takeoff,Auto Fly,Takeoff (App Auto),15,5,True,,M600,False,False,,Smart,RC,False,True,False,,,True,,False,False,False,False,True,False,False,False,False,False,0,Follow Yaw,0,0,101.3,101.3,False,False,False,False,False,False,,True,Normal,,,1024,1024,1024,1024,1,False,False,False,False,False,0,False,False,False,False,76,,,,48.214,True,,,,,,,,False,False,,,,,0,0,0,0,0,0.0,797.77,,Idle,0,30,False,10,True,,Go Home,39.9612628,-106.21631319,0.3,8106.7,393.7,True,1,1,False,False,False,False,0,True,False,False,Course Lock,65.6,177.6,9.8,Calm,46,Android, 3.1.11,dji aircraft,0670136230,,03LLCA0B4B,M61AE76011,337.066,8893.0,115.8,42.7,7.4,0,0,dji aircraft,0670136230,,03LLCA0B4B,M61AE7601101J0,,Android, 3.1.11,,,,,,
10/10/2017,4:02:26.58 PM,0m 3.6s,3.6,39.96126316,-106.21631317,0.3,0.3,,8129,1.1,1.1,-0.2,0.2,0,0,-0.2,0,-1,0.8,103.2,103.2,Auto Takeoff,Auto Fly,Takeoff (App Auto),15,5,True,,M600,False,False,,Smart,RC,False,True,False,,,True,,False,False,False,False,True,False,False,False,False,False,0,Follow Yaw,0,0,101.3,101.3,False,False,False,False,False,False,,True,Normal,,,1024,1024,1024,1024,1,False,False,False,False,False,0,False,False,False,False,76,,,,48.214,True,,,,,,,,False,False,,,,,0,0,0,0,0,0.0,797.77,,Idle,0,30,False,10,True,,Go Home,39.9612628,-106.21631319,0.3,8106.7,393.7,True,1,1,False,False,False,False,0,True,False,False,Course Lock,65.6,177.6,9.8,Calm,46,Android, 3.1.11,dji aircraft,0670136230,,03LLCA0B4B,M61AE76011,337.066,8893.0,115.8,42.7,7.4,0,0,dji aircraft,0670136230,,03LLCA0B4B,M61AE7601101J0,,Android, 3.1.11,,,,,,
10/10/2017,4:02:26.68 PM,0m 3.8s,3.8,39.9612626,-106.21631291,0.7,0.7,,8129,0.7,1.1,-0.5,0.2,0,0,-0.5,0,-0.5,0,103.3,103.3,Auto Takeoff,Auto Fly,Takeoff (App Auto),15,5,True,,M600,False,False,,Smart,RC,False,True,False,,,True,,False,False,False,False,True,False,False,False,False,False,0,Follow Yaw,0,0,101.4,101.4,False,False,False,False,False,False,,True,Normal,,,1024,1024,1024,1024,1,False,False,False,False,False,0,False,False,False,False,76,,,,48.214,True,,,,,,,,False,False,,,,,0,0,0,0,0,0.0,797.77,,Idle,0,30,False,10,True,,Go Home,39.9612628,-106.21631319,0.0,8106.7,393.7,True,1,1,False,False,False,False,0,True,False,False,Course Lock,65.6,177.6,9.8,Calm,46,Android, 3.1.11,dji aircraft,0670136230,,03LLCA0B4B,M61AE76011,337.066,8893.0,115.8,42.7,7.4,0,0,dji aircraft,0670136230,,03LLCA0B4B,M61AE7601101J0,,Android, 3.1.11,,,,,,
10/10/2017,4:02:26.78 PM,0m 3.9s,3.9,39.96126229,-106.21631279,0.7,0.7,,8129,1.0,1.1,-0.5,0.2,0,0,-0.5,0,0,-0.8,103.3,103.3,Auto Takeoff,Auto Fly,Takeoff (App Auto),15,5,True,,M600,False,False,,Smart,RC,False,True,False,,,True,,False,False,False,False,True,False,False,False,False,False,0,Follow Yaw,0,0,101.4,101.4,False,False,False,False,False,False,,True,Normal,,,1024,1024,1024,1024,1,False,False,False,False,False,0,False,False,False,False,76,,,,48.214,True,,,,,,,,False,False,,,,,0,0,0,0,0,0.0,797.77,,Idle,0,30,False,10,True,,Go Home,39.9612628,-106.21631319,0.3,8106.7,393.7,True,1,1,False,False,False,False,0,True,False,False,Course Lock,65.6,177.6,9.8,Calm,46,Android, 3.1.11,dji aircraft,0670136230,,03LLCA0B4B,M61AE76011,337.066,8893.0,115.8,42.7,7.4,0,0,dji aircraft,0670136230,,03LLCA0B4B,M61AE7601101J0,,Android, 3.1.11,,,,,,
10/10/2017,4:02:26.98 PM,0m 4.0s,4.0,39.96126187,-106.21631262,0.7,0.7,,8129,0,1.1,-0.5,0.2,0,0,-0.7,0,0.4,-1.7,103.2,103.2,Auto Takeoff,Auto Fly,Takeoff (App Auto),15,5,True,,M600,False,False,,Smart,RC,False,True,False,,,True,,False,False,False,False,True,False,False,False,False,False,0,Follow Yaw,0,0,101.4,101.4,False,False,False,False,False,False,,True,Normal,,,1024,1024,1024,1024,1,False,False,False,False,False,0,False,False,False,False,76,,,,48.205,True,,,,,,,,False,False,,,,,0,0,0,0,0,0.0,802.64,,Idle,0,30,False,10,True,,Go Home,39.9612628,-106.21631319,0.4,8106.7,393.7,True,1,1,False,False,False,False,0,True,False,False,Course Lock,65.6,177.6,9.8,Calm,46,Android, 3.1.11,dji aircraft,0670136230,,03LLCA0B4B,M61AE76011,337.066,8893.0,115.8,42.7,7.4,0,0,dji aircraft,0670136230,,03LLCA0B4B,M61AE7601101J0,,Android, 3.1.11,,,,,,
10/10/2017,4:02:27.09 PM,0m 4.2s,4.2,39.96126114,-106.21631247,1.0,1.0,,8129,1.0,1.1,-0.5,0.2,0,0,-0.9,0,1.1,-3.2,103.1,103.1,Auto Takeoff,Auto Fly,Takeoff (App Auto),15,5,True,,M600,False,False,,Smart,RC,False,True,False,,,True,,False,False,False,False,True,False,False,False,False,False,0,Follow Yaw,0,0,101.5,101.5,False,False,False,False,False,False,,True,Normal,,,1024,1024,1024,1024,1,False,False,False,False,False,0,False,False,False,False,76,,,,48.205,True,,,,,,,,False,False,,,,,0,0,0,0,0,0.0,802.64,,Idle,0,30,False,10,True,,Go Home,39.9612628,-106.21631319,0.8,8106.7,393.7,True,1,1,False,False,False,False,0,True,False,False,Course Lock,65.6,177.6,9.8,Calm,46,Android, 3.1.11,dji aircraft,0670136230,,03LLCA0B4B,M61AE76011,337.066,8893.0,115.8,42.7,7.4,0,0,dji aircraft,0670136230,,03LLCA0B4B,M61AE7601101J0,,Android, 3.1.11,,,,,,
10/10/2017,4:02:27.19 PM,0m 4.3s,4.3,39.96126083,-106.21631244,1.0,1.0,,8129,1.0,1.1,-0.5,0.2,0,0,-0.9,0,0.9,-3.8,103.1,103.1,Auto Takeoff,Auto Fly,Takeoff (App Auto),15,5,True,,M600,False,False,,Smart,RC,False,True,False,,,True,,False,False,False,False,True,False,False,False,False,False,0,Follow Yaw,0,0,101.5,101.5,False,False,False,False,False,False,,True,Normal,,,1024,1024,1024,1024,1,False,False,False,False,False,0,False,False,False,False,76,,,,48.205,True,,,,,,,,False,False,,,,,0,0,0,0,0,0.0,802.64,,Idle,0,30,False,10,True,,Go Home,39.9612628,-106.21631319,0.8,8106.7,393.7,True,1,1,False,False,False,False,0,True,False,False,Course Lock,65.6,177.6,9.8,Calm,46,Android, 3.1.11,dji aircraft,0670136230,,03LLCA0B4B,M61AE76011,337.066,8893.0,115.8,42.7,7.4,0,0,dji aircraft,0670136230,,03LLCA0B4B,M61AE7601101J0,,Android, 3.1.11,,,,,,
10/10/2017,4:02:27.29 PM,0m 4.4s,4.4,39.96126055,-106.21631246,1.3,1.3,,8130,0,1.1,-0.5,0.2,0,0,-1.1,0,0.8,-4.1,103.2,103.2,Auto Takeoff,Auto Fly,Takeoff (App Auto),15,5,True,,M600,False,False,,Smart,RC,False,True,False,,,True,,False,False,False,False,True,False,False,False,False,False,0,Follow Yaw,0,0,101.5,101.5,False,False,False,False,False,False,,True,Normal,,,1024,1024,1024,1024,1,False,False,False,False,False,0,False,False,False,False,76,,,,48.205,True,,,,,,,,False,False,,,,,0,0,0,0,0,0.0,802.64,,Idle,0,30,False,10,True,,Go Home,39.9612628,-106.21631319,0.9,8106.7,393.7,True,1,1,False,False,False,False,0,True,False,False,Course Lock,65.6,177.6,9.8,Calm,46,Android, 3.1.11,dji aircraft,0670136230,,03LLCA0B4B,M61AE76011,337.066,8893.0,115.8,42.7,7.4,0,0,dji aircraft,0670136230,,03LLCA0B4B,M61AE7601101J0,,Android, 3.1.11,,,,,,
10/10/2017,4:02:27.49 PM,0m 4.6s,4.6,39.96126012,-106.21631244,1.6,1.6,,8130,0,1.1,-0.2,0.2,0,0,-1.1,0,0.3,-4,103.2,103.2,Auto Takeoff,Auto Fly,Takeoff (App Auto),15,5,True,,M600,False,False,,Smart,RC,False,True,False,,,True,,False,False,False,False,True,False,False,False,False,False,0,Follow Yaw,0,0,101.6,101.6,False,False,False,False,False,False,,True,Normal,,,1024,1024,1024,1024,1,False,False,False,False,False,0,False,False,False,False,76,,,,48.205,True,,,,,,,,False,False,,,,,0,0,0,0,0,0.0,802.64,,Idle,0,30,False,10,True,,Go Home,39.9612628,-106.21631319,1.0,8106.7,393.7,True,1,1,False,False,False,False,0,True,False,False,Course Lock,65.6,177.6,9.8,Calm,46,Android, 3.1.11,dji aircraft,0670136230,,03LLCA0B4B,M61AE76011,337.066,8893.0,115.8,42.7,7.4,0,0,dji aircraft,0670136230,,03LLCA0B4B,M61AE7601101J0,,Android, 3.1.11,,,,,,
10/10/2017,4:02:27.69 PM,0m 4.8s,4.8,39.96125994,-106.2163124,2.0,2.0,,8130,0.5,1.1,0,0.2,0,0,-1.1,0,0.4,-3.2,103.1,103.1,Auto Takeoff,Auto Fly,Takeoff (App Auto),15,5,True,,M600,False,False,,Smart,RC,False,True,False,,,True,,False,False,False,False,True,False,False,False,False,False,0,Follow Yaw,0,0,101.6,101.6,False,False,False,False,False,False,,True,Normal,,,1024,1024,1024,1024,1,False,False,False,False,False,0,False,False,False,False,76,,,,48.205,True,,,,,,,,False,False,,,,,0,0,0,0,0,0.0,802.64,,Idle,0,30,False,10,True,,Go Home,39.9612628,-106.21631319,1.1,8106.7,393.7,True,1,1,False,False,False,False,0,True,False,False,Course Lock,65.6,177.6,9.8,Calm,46,Android, 3.1.11,dji aircraft,0670136230,,03LLCA0B4B,M61AE76011,337.066,8893.0,115.8,42.7,7.4,0,0,dji aircraft,0670136230,,03LLCA0B4B,M61AE7601101J0,,Android, 3.1.11,,,,,,
10/10/2017,4:02:27.79 PM,0m 4.9s,4.9,39.9612599,-106.21631238,2.0,2.0,,8130,0,1.1,0,0.2,0,0,-0.9,0,0.4,-2.8,103.1,103.1,Auto Takeoff,Auto Fly,Takeoff (App Auto),15,5,True,,M600,False,False,,Smart,RC,False,True,False,,,True,,False,False,False,False,True,False,False,False,False,False,0,Follow Yaw,0,0,101.6,101.6,False,False,False,False,False,False,,True,Normal,,,1024,1024,1024,1024,1,False,False,False,False,False,0,False,False,False,False,76,,,,48.205,True,,,,,,,,False,False,,,,,0,0,0,0,0,0.0,802.64,,Idle,0,30,False,10,True,,Go Home,39.9612628,-106.21631319,1.1,8106.7,393.7,True,1,1,False,False,False,False,0,True,False,False,Course Lock,65.6,177.6,9.8,Calm,46,Android, 3.1.11,dji aircraft,0670136230,,03LLCA0B4B,M61AE76011,337.066,8893.0,115.8,42.7,7.4,0,0,dji aircraft,0670136230,,03LLCA0B4B,M61AE7601101J0,,Android, 3.1.11,,,,,,
10/10/2017,4:02:27.90 PM,0m 5.0s,5.0,39.96125992,-106.21631238,2.3,2.3,,8131,0,1.1,0,0.2,0,0,-0.9,0,0.5,-2.5,103.1,103.1,Auto Takeoff,Auto Fly,Takeoff (App Auto),15,5,True,,M600,False,False,,Smart,RC,False,True,False,,,True,,False,False,False,False,True,False,False,False,False,False,0,Follow Yaw,0,0,101.6,101.6,False,False,False,False,False,False,,True,Normal,,,1024,1024,1024,1024,1,False,False,False,False,False,0,False,False,False,False,76,,,,48.205,True,,,,,,,,False,False,,,,,0,0,0,0,0,0.0,802.64,,Idle,0,30,False,10,True,,Go Home,39.9612628,-106.21631319,1.1,8106.7,393.7,True,1,1,False,False,False,False,0,True,False,False,Course Lock,65.6,177.6,9.8,Calm,46,Android, 3.1.11,dji aircraft,0670136230,,03LLCA0B4B,M61AE76011,337.066,8893.0,115.8,42.7,7.4,0,0,dji aircraft,0670136230,,03LLCA0B4B,M61AE7601101J0,,Android, 3.1.11,,,,,,
10/10/2017,4:02:28.00 PM,0m 5.1s,5.1,39.96125991,-106.21631237,2.3,2.3,,8131,0,1.1,0,0.2,0,0,-1.1,0,0.4,-2.4,103.1,103.1,Auto Takeoff,Auto Fly,Takeoff (App Auto),15,5,True,,M600,False,False,,Smart,RC,False,True,False,,,True,,False,False,False,False,True,False,False,False,False,False,0,Follow Yaw,0,0,101.6,101.6,False,False,False,False,False,False,,True,Normal,,,1024,1024,1024,1024,1,False,False,False,False,False,0,False,False,False,False,76,,,,48.205,True,,,,,,,,False,False,,,,,0,0,0,0,0,0.0,802.64,,Idle,0,30,False,10,True,,Go Home,39.9612628,-106.21631319,1.1,8106.7,393.7,True,1,1,False,False,False,False,0,True,False,False,Course Lock,65.6,177.6,9.8,Calm,46,Android, 3.1.11,dji aircraft,0670136230,,03LLCA0B4B,M61AE76011,337.066,8893.0,115.8,42.7,7.4,0,0,dji aircraft,0670136230,,03LLCA0B4B,M61AE7601101J0,,Android, 3.1.11,,,,,,
10/10/2017,4:02:28.10 PM,0m 5.2s,5.2,39.96125994,-106.21631237,2.6,2.6,,8131,0,1.1,0,0.2,0,0,-0.9,0,0.4,-2.4,103.1,103.1,Auto Takeoff,Auto Fly,Takeoff (App Auto),15,5,True,,M600,False,False,,Smart,RC,False,True,False,,,True,,False,False,False,False,True,False,False,False,False,False,0,Follow Yaw,0,0,101.7,101.7,False,False,False,False,False,False,,True,Normal,,,1024,1024,1024,1024,1,False,False,False,False,False,0,False,False,False,False,76,,,,48.205,True,,,,,,,,False,False,,,,,0,0,0,0,0,0.0,802.64,,Idle,0,30,False,10,True,,Go Home,39.9612628,-106.21631319,1.1,8106.7,393.7,True,1,1,False,False,False,False,0,True,False,False,Course Lock,65.6,177.6,9.8,Calm,46,Android, 3.1.11,dji aircraft,0670136230,,03LLCA0B4B,M61AE76011,337.066,8893.0,115.8,42.7,7.4,0,0,dji aircraft,0670136230,,03LLCA0B4B,M61AE7601101J0,,Android, 3.1.11,,,,,,
10/10/2017,4:02:28.21 PM,0m 5.3s,5.3,39.96125995,-106.21631237,2.6,2.6,,8131,0,1.1,0,0.2,0,0,-0.9,0,0.4,-2.4,103.1,103.1,Auto Takeoff,Auto Fly,Takeoff (App Auto),15,5,True,,M600,False,False,,Smart,RC,False,True,False,,,True,,False,False,False,False,True,False,False,False,False,False,0,Follow Yaw,0,0,101.7,101.7,False,False,False,False,False,False,,True,Normal,,,1024,1024,1024,1024,1,False,False,False,False,False,0,False,False,False,False,76,,,,48.432,True,,,,,,,,False,False,,,,,0,0,0,0,0,0.0,822.76,,Idle,0,30,False,10,True,,Go Home,39.9612628,-106.21631319,1.1,8106.7,393.7,True,1,1,False,False,False,False,0,True,False,False,Course Lock,65.6,177.6,9.8,Calm,46,Android, 3.1.11,dji aircraft,0670136230,,03LLCA0B4B,M61AE76011,337.066,8893.0,115.8,42.7,7.4,0,0,dji aircraft,0670136230,,03LLCA0B4B,M61AE7601101J0,,Android, 3.1.11,,,,,,
10/10/2017,4:02:28.31 PM,0m 5.4s,5.4,39.96125994,-106.2163123,3.0,3.0,,8131,0,1.1,0,0.2,0,0,-0.9,0,0.3,-2.5,103.1,103.1,Auto Takeoff,Auto Fly,Takeoff (App Auto),15,5,True,,M600,False,False,,Smart,RC,False,True,False,,,True,,False,False,False,False,True,False,False,False,False,False,0,Follow Yaw,0,0,101.7,101.7,False,False,False,False,False,False,,True,Normal,,,1024,1024,1024,1024,1,False,False,False,False,False,0,False,False,False,False,76,,,,48.432,True,,,,,,,,False,False,,,,,0,0,0,0,0,0.0,822.76,,Idle,0,30,False,10,True,,Go Home,39.9612628,-106.21631319,1.1,8106.7,393.7,True,1,1,False,False,False,False,0,True,False,False,Course Lock,65.6,177.6,9.8,Calm,46,Android, 3.1.11,dji aircraft,0670136230,,03LLCA0B4B,M61AE76011,337.066,8893.0,115.8,42.7,7.4,0,0,dji aircraft,0670136230,,03LLCA0B4B,M61AE7601101J0,,Android, 3.1.11,,,,,,
10/10/2017,4:02:28.41 PM,0m 5.5s,5.5,39.96125995,-106.21631225,3.0,3.0,,8131,0,1.1,0,0.2,0,0,-0.9,0,0.3,-2.4,103.1,103.1,Auto Takeoff,Auto Fly,Takeoff (App Auto),15,5,True,,M600,False,False,,Smart,RC,False,True,False,,,True,,False,False,False,False,True,False,False,False,False,False,0,Follow Yaw,0,0,101.7,101.7,False,False,False,False,False,False,,True,Normal,,,1024,1024,1024,1024,1,False,False,False,False,False,0,False,False,False,False,76,,,,48.432,True,,,,,,,,False,False,,,,,0,0,0,0,0,0.0,822.76,,Idle,0,30,False,10,True,,Go Home,39.9612628,-106.21631319,1.1,8106.7,393.7,True,1,1,False,False,False,False,0,True,False,False,Course Lock,65.6,177.6,9.8,Calm,46,Android, 3.1.11,dji aircraft,0670136230,,03LLCA0B4B,M61AE76011,337.066,8893.0,115.8,42.7,7.4,0,0,dji aircraft,0670136230,,03LLCA0B4B,M61AE7601101J0,,Android, 3.1.11,,,,,,
10/10/2017,4:02:28.52 PM,0m 5.6s,5.6,39.96125994,-106.21631223,3.3,3.3,,8132,0,1.1,0,0.2,0,0,-0.9,0,0.3,-2.4,103,103,Auto Takeoff,Auto Fly,Takeoff (App Auto),15,5,True,,M600,False,False,,Smart,RC,False,True,False,,,True,,False,False,False,False,True,False,False,False,False,False,0,Follow Yaw,0,0,101.7,101.7,False,False,False,False,False,False,,True,Normal,,,1024,1024,1024,1024,1,False,False,False,False,False,0,False,False,False,False,76,,,,48.432,True,,,,,,,,False,False,,,,,0,0,0,0,0,0.0,822.76,,Idle,0,30,False,10,True,,Go Home,39.9612628,-106.21631319,1.1,8106.7,393.7,True,1,1,False,False,False,False,0,True,False,False,Course Lock,65.6,177.6,9.8,Calm,46,Android, 3.1.11,dji aircraft,0670136230,,03LLCA0B4B,M61AE76011,337.066,8893.0,115.8,42.7,7.4,0,0,dji aircraft,0670136230,,03LLCA0B4B,M61AE7601101J0,,Android, 3.1.11,,,,,,
10/10/2017,4:02:28.62 PM,0m 5.7s,5.7,39.96125995,-106.21631221,3.3,3.3,,8132,0,1.1,0,0.2,0,0,-1.1,0,0.3,-2.3,103,103,Auto Takeoff,Auto Fly,,15,5,True,,M600,False,False,,Smart,RC,False,True,False,,,True,,False,False,False,False,True,False,False,False,False,False,0,Follow Yaw,0,0,101.7,101.7,False,False,False,False,False,False,,True,Normal,,,1024,1024,1024,1024,1,False,False,False,False,False,0,False,False,False,False,76,,,,48.432,True,,,,,,,,False,False,,,,,0,0,0,0,0,0.0,822.76,,Idle,0,30,False,10,True,,Go Home,39.9612628,-106.21631319,1.1,8106.7,393.7,True,1,1,False,False,False,False,0,True,False,False,Course Lock,65.6,177.6,9.8,Calm,46,Android, 3.1.11,dji aircraft,0670136230,,03LLCA0B4B,M61AE76011,337.066,8893.0,115.8,42.7,7.4,0,0,dji aircraft,0670136230,,03LLCA0B4B,M61AE7601101J0,,Android, 3.1.11,,,,,,
10/10/2017,4:02:28.72 PM,0m 5.8s,5.8,39.96125997,-106.21631222,3.6,3.6,,8132,0,1.1,0,0.2,0,0,-0.9,0,0.3,-2.3,103,103,P-GPS,Auto Fly,,15,5,True,,M600,False,False,,Smart,RC,False,True,False,,,True,,False,False,False,False,True,False,False,False,False,False,0,Follow Yaw,0,0,101.8,101.8,False,False,False,False,False,False,,True,Normal,,,1024,1024,1024,1024,1,False,False,False,False,False,0,False,False,False,False,76,,,,48.432,True,,,,,,,,False,False,,,,,0,0,0,0,0,0.0,822.76,,Idle,0,30,False,10,True,,Go Home,39.9612628,-106.21631319,1.1,8106.7,393.7,True,1,1,False,False,False,False,0,True,False,False,Course Lock,65.6,177.6,9.8,Calm,46,Android, 3.1.11,dji aircraft,0670136230,,03LLCA0B4B,M61AE76011,337.066,8893.0,115.8,42.7,7.4,0,0,dji aircraft,0670136230,,03LLCA0B4B,M61AE7601101J0,,Android, 3.1.11,,,,,,
10/10/2017,4:02:28.82 PM,0m 5.9s,5.9,39.96126,-106.21631223,3.6,3.6,,8132,0,1.1,0,0.2,0,0,-0.5,0,0.4,-2.4,103,103,P-GPS,Auto Fly,,15,5,True,,M600,False,False,,Smart,RC,False,True,False,,,True,,False,False,False,False,True,False,False,False,False,False,0,Follow Yaw,0,0,101.8,101.8,False,False,False,False,False,False,,True,Normal,,,1024,1024,1024,1024,1,False,False,False,False,False,0,False,False,False,False,76,,,,48.432,True,,,,,,,,False,False,,,,,0,0,0,0,0,0.0,822.76,,Idle,0,30,False,10,True,,Go Home,39.9612628,-106.21631319,1.1,8106.7,393.7,True,1,1,False,False,False,False,0,True,False,False,Course Lock,65.6,177.6,9.8,Calm,46,Android, 3.1.11,dji aircraft,0670136230,,03LLCA0B4B,M61AE76011,337.066,8893.0,115.8,42.7,7.4,0,0,dji aircraft,0670136230,,03LLCA0B4B,M61AE7601101J0,,Android, 3.1.11,,,,,,
10/10/2017,4:02:28.92 PM,0m 6.0s,6.0,39.96126008,-106.21631221,3.6,3.6,,8132,0,1.1,0,0.2,0,0,-0.5,0,0.3,-2.3,103,103,P-GPS,Auto Fly,,15,5,True,,M600,False,False,,Smart,RC,False,True,False,,,True,,False,False,False,False,True,False,False,False,False,False,0,Follow Yaw,0,0,101.8,101.8,False,False,False,False,False,False,,True,Normal,,,1024,1024,1024,1024,1,False,False,False,False,False,0,False,False,False,False,76,,,,48.432,True,,,,,,,,False,False,,,,,0,0,0,0,0,0.0,822.76,,Idle,0,30,False,10,True,,Go Home,39.9612628,-106.21631319,1.1,8106.7,393.7,True,1,1,False,False,False,False,0,True,False,False,Course Lock,65.6,177.6,9.8,Calm,46,Android, 3.1.11,dji aircraft,0670136230,,03LLCA0B4B,M61AE76011,337.066,8893.0,115.8,42.7,7.4,0,0,dji aircraft,0670136230,,03LLCA0B4B,M61AE7601101J0,,Android, 3.1.11,,,,,,
10/10/2017,4:02:29.02 PM,0m 6.1s,6.1,39.96126015,-106.2163122,3.9,3.9,,8132,0,1.1,0,0.2,0,0,-0.2,0,0.3,-2.1,103,103,P-GPS,Auto Fly,,15,5,True,,M600,False,False,,Smart,RC,False,True,False,,,True,,False,False,False,False,True,False,False,False,False,False,0,Follow Yaw,0,0,101.8,101.8,False,False,False,False,False,False,,True,Normal,,,1024,1024,1024,1024,1,False,False,False,False,False,0,False,False,False,False,76,,,,48.432,True,,,,,,,,False,False,,,,,0,0,0,0,0,0.0,822.76,,Idle,0,30,False,10,True,,Go Home,39.9612628,-106.21631319,1.0,8106.7,393.7,True,1,1,False,False,False,False,0,True,False,False,Course Lock,65.6,177.6,9.8,Calm,46,Android, 3.1.11,dji aircraft,0670136230,,03LLCA0B4B,M61AE76011,337.066,8893.0,115.8,42.7,7.4,0,0,dji aircraft,0670136230,,03LLCA0B4B,M61AE7601101J0,,Android, 3.1.11,,,,,,
10/10/2017,4:02:29.13 PM,0m 6.2s,6.2,39.96126025,-106.21631219,3.6,3.9,,8132,1.1,1.1,0,0.2,0,0,0,0,0.3,-1.8,103,103,P-GPS,Auto Fly,,15,5,True,,M600,False,False,,Smart,RC,False,True,False,,,True,,False,False,False,False,True,False,False,False,False,False,0,Follow Yaw,0,0,101.8,101.8,False,False,False,False,False,False,,True,Normal,,,1024,1024,1024,1024,1,False,False,False,False,False,0,False,False,False,False,76,,,,48.432,True,,,,,,,,False,False,,,,,0,0,0,0,0,0.0,822.76,,Idle,0,30,False,10,True,,Go Home,39.9612628,-106.21631319,1.0,8106.7,393.7,True,1,1,False,False,False,False,0,True,False,False,Course Lock,65.6,177.6,9.8,Calm,46,Android, 3.1.11,dji aircraft,0670136230,,03LLCA0B4B,M61AE76011,337.066,8893.0,115.8,42.7,7.4,0,0,dji aircraft,0670136230,,03LLCA0B4B,M61AE7601101J0,,Android, 3.1.11,,,,,,
10/10/2017,4:02:29.23 PM,0m 6.3s,6.3,39.96126035,-106.21631219,3.6,3.9,,8132,0,1.1,0,0.2,0,0,0,0,0.2,-1.6,103,103,P-GPS,Auto Fly,,15,5,True,,M600,False,False,,Smart,RC,False,True,False,,,True,,False,False,False,False,True,False,False,False,False,False,0,Follow Yaw,0,0,101.8,101.8,False,False,False,False,False,False,,True,Normal,,,1024,1024,1024,1024,1,False,False,False,False,False,0,False,False,False,False,76,,,,48.48,True,,,,,,,,False,False,,,,,0,0,0,0,0,0.0,925.07,,Idle,0,30,False,10,True,,Go Home,39.9612628,-106.21631319,1.0,8106.7,393.7,True,1,1,False,False,False,False,0,True,False,False,Course Lock,65.6,177.6,9.8,Calm,46,Android, 3.1.11,dji aircraft,0670136230,,03LLCA0B4B,M61AE76011,337.066,8893.0,115.8,42.7,7.4,0,0,dji aircraft,0670136230,,03LLCA0B4B,M61AE7601101J0,,Android, 3.1.11,,,,,,
10/10/2017,4:02:29.33 PM,0m 6.4s,6.4,39.96126044,-106.2163122,3.6,3.9,,8132,1.5,1.5,0,0.2,0,0,0,0,0.1,-1.6,103,103,P-GPS,Auto Fly,,15,5,True,,M600,False,False,,Smart,RC,False,True,False,,,True,,False,False,False,False,True,False,False,False,False,False,0,Follow Yaw,0,0,101.9,101.9,False,False,False,False,False,False,,True,Normal,,,1024,1024,1024,1024,1,False,False,False,False,False,0,False,False,False,False,76,,,,48.48,True,,,,,,,,False,False,,,,,0,0,0,0,0,0.0,925.07,,Idle,0,30,False,10,True,,Go Home,39.9612628,-106.21631319,1.0,8106.7,393.7,True,1,1,False,False,False,False,0,True,False,False,Course Lock,65.6,177.6,9.8,Calm,46,Android, 3.1.11,dji aircraft,0670136230,,03LLCA0B4B,M61AE76011,337.066,8893.0,115.8,42.7,7.4,0,0,dji aircraft,0670136230,,03LLCA0B4B,M61AE7601101J0,,Android, 3.1.11,,,,,,
10/10/2017,4:02:29.43 PM,0m 6.5s,6.5,39.96126052,-106.21631222,3.6,3.9,,8132,0,1.5,0,0.2,0,0,0,0,0.2,-1.5,102.9,102.9,P-GPS,Auto Fly,,15,5,True,,M600,False,False,,Smart,RC,False,True,False,,,True,,False,False,False,False,True,False,False,False,False,False,0,Follow Yaw,0,0,101.9,101.9,False,False,False,False,False,False,,True,Normal,,,1024,1024,1024,1024,1,False,False,False,False,False,0,False,False,False,False,76,,,,48.48,True,,,,,,,,False,False,,,,,0,0,0,0,0,0.0,925.07,,Idle,0,30,False,10,True,,Go Home,39.9612628,-106.21631319,0.9,8106.7,393.7,True,1,1,False,False,False,False,0,True,False,False,Course Lock,65.6,177.6,9.8,Calm,46,Android, 3.1.11,dji aircraft,0670136230,,03LLCA0B4B,M61AE76011,337.066,8893.0,115.8,42.7,7.4,0,0,dji aircraft,0670136230,,03LLCA0B4B,M61AE7601101J0,,Android, 3.1.11,,,,,,
10/10/2017,4:02:29.54 PM,0m 6.6s,6.6,39.96126059,-106.21631218,3.6,3.9,,8132,0,1.5,0,0.2,0,0,0,0,0.3,-1.5,102.9,102.9,P-GPS,Auto Fly,,15,5,True,,M600,False,False,,Smart,RC,False,True,False,,,True,,False,False,False,False,True,False,False,False,False,False,0,Follow Yaw,0,0,101.9,101.9,False,False,False,False,False,False,,True,Normal,,,1024,1024,1024,1024,1,False,False,False,False,False,0,False,False,False,False,76,,,,48.48,True,,,,,,,,False,False,,,,,0,0,0,0,0,0.0,925.07,,Idle,0,30,False,10,True,,Go Home,39.9612628,-106.21631319,0.9,8106.7,393.7,True,1,1,False,False,False,False,0,True,False,False,Course Lock,65.6,177.6,9.8,Calm,46,Android, 3.1.11,dji aircraft,0670136230,,03LLCA0B4B,M61AE76011,337.066,8893.0,115.8,42.7,7.4,0,0,dji aircraft,0670136230,,03LLCA0B4B,M61AE7601101J0,,Android, 3.1.11,,,,,,
10/10/2017,4:02:29.64 PM,0m 6.7s,6.7,39.96126064,-106.21631217,3.6,3.9,,8132,0,1.5,0,0.2,0,0,0,0,0.4,-1.6,102.9,102.9,P-GPS,Auto Fly,,15,5,True,,M600,False,False,,Smart,RC,False,True,False,,,True,,False,False,False,False,True,False,False,False,False,False,0,Follow Yaw,0,0,101.9,101.9,False,False,False,False,False,False,,True,Normal,,,1024,1024,1024,1024,1,False,False,False,False,False,0,False,False,False,False,76,,,,48.48,True,,,,,,,,False,False,,,,,0,0,0,0,0,0.0,925.07,,Idle,0,30,False,10,True,,Go Home,39.9612628,-106.21631319,0.9,8106.7,393.7,True,1,1,False,False,False,False,0,True,False,False,Course Lock,65.6,177.6,9.8,Calm,46,Android, 3.1.11,dji aircraft,0670136230,,03LLCA0B4B,M61AE76011,337.066,8893.0,115.8,42.7,7.4,0,0,dji aircraft,0670136230,,03LLCA0B4B,M61AE7601101J0,,Android, 3.1.11,,,,,,
10/10/2017,4:02:29.74 PM,0m 6.8s,6.8,39.96126066,-106.21631216,3.6,3.9,,8132,0,1.5,0,0.2,0,0,0,0,0.4,-1.9,102.9,102.9,P-GPS,Auto Fly,,15,5,True,,M600,False,False,,Smart,RC,False,True,False,,,True,,False,False,False,False,True,False,False,False,False,False,0,Follow Yaw,0,0,101.9,101.9,False,False,False,False,False,False,,True,Normal,,,1024,1024,1024,1024,1,False,False,False,False,False,0,False,False,False,False,76,,,,48.48,True,,,,,,,,False,False,,,,,0,0,0,0,0,0.0,925.07,,Idle,0,30,False,10,True,,Go Home,39.9612628,-106.21631319,0.9,8106.7,393.7,True,1,1,False,False,False,False,0,True,False,False,Course Lock,65.6,177.6,9.8,Calm,46,Android, 3.1.11,dji aircraft,0670136230,,03LLCA0B4B,M61AE76011,337.066,8893.0,115.8,42.7,7.4,0,0,dji aircraft,0670136230,,03LLCA0B4B,M61AE7601101J0,,Android, 3.1.11,,,,,,
10/10/2017,4:02:29.84 PM,0m 6.9s,6.9,39.96126068,-106.21631216,3.6,3.9,,8132,0,1.5,0,0.2,0,0,0,0,0.3,-2.2,102.9,102.9,P-GPS,Auto Fly,,15,5,True,,M600,False,False,,Smart,RC,False,True,False,,,True,,False,False,False,False,True,False,False,False,False,False,0,Follow Yaw,0,0,101.9,101.9,False,False,False,False,False,False,,True,Normal,,,1024,1024,1024,1024,1,False,False,False,False,False,0,False,False,False,False,76,,,,48.48,True,,,,,,,,False,False,,,,,0,0,0,0,0,0.0,925.07,,Idle,0,30,False,10,True,,Go Home,39.9612628,-106.21631319,0.9,8106.7,393.7,True,1,1,False,False,False,False,0,True,False,False,Course Lock,65.6,177.6,9.8,Calm,46,Android, 3.1.11,dji aircraft,0670136230,,03LLCA0B4B,M61AE76011,337.066,8893.0,115.8,42.7,7.4,0,0,dji aircraft,0670136230,,03LLCA0B4B,M61AE7601101J0,,Android, 3.1.11,,,,,,
10/10/2017,4:02:29.94 PM,0m 7.0s,7.0,39.96126064,-106.21631211,3.6,3.9,,8132,0,1.5,0,0.2,0,0,0,0,0.3,-2.2,102.9,102.9,P-GPS,Auto Fly,,15,5,True,,M600,False,False,,Smart,RC,False,True,False,,,True,,False,False,False,False,True,False,False,False,False,False,0,Follow Yaw,0,0,101.9,101.9,False,False,False,False,False,False,,True,Normal,,,1024,1024,1024,1024,1,False,False,False,False,False,0,False,False,False,False,76,,,,48.48,True,,,,,,,,False,False,,,,,0,0,0,0,0,0.0,925.07,,Idle,0,30,False,10,True,,Go Home,39.9612628,-106.21631319,0.9,8106.7,393.7,True,1,1,False,False,False,False,0,True,False,False,Course Lock,65.6,177.6,9.8,Calm,46,Android, 3.1.11,dji aircraft,0670136230,,03LLCA0B4B,M61AE76011,337.066,8893.0,115.8,42.7,7.4,0,0,dji aircraft,0670136230,,03LLCA0B4B,M61AE7601101J0,,Android, 3.1.11,,,,,,
10/10/2017,4:02:30.04 PM,0m 7.1s,7.1,39.96126063,-106.21631207,3.6,3.9,,8132,0,1.5,0,0.2,0,0,0,0,0.2,-2.2,102.9,102.9,P-GPS,Auto Fly,,15,5,True,,M600,False,False,,Smart,RC,False,True,False,,,True,,False,False,False,False,True,False,False,False,False,False,0,Follow Yaw,0,0,101.9,101.9,False,False,False,False,False,False,,True,Normal,,,1024,1024,1024,1024,1,False,False,False,False,False,0,False,False,False,False,76,,,,48.48,True,,,,,,,,False,False,,,,,0,0,0,0,0,0.0,925.07,,Idle,0,30,False,10,True,,Go Home,39.9612628,-106.21631319,0.9,8106.7,393.7,True,1,1,False,False,False,False,0,True,False,False,Course Lock,65.6,177.6,9.8,Calm,46,Android, 3.1.11,dji aircraft,0670136230,,03LLCA0B4B,M61AE76011,337.066,8893.0,115.8,42.7,7.4,0,0,dji aircraft,0670136230,,03LLCA0B4B,M61AE7601101J0,,Android, 3.1.11,,,,,,
10/10/2017,4:02:30.15 PM,0m 7.2s,7.2,39.96126062,-106.21631199,3.6,3.9,,8132,0,1.5,0,0.2,0,0,0,0,0.1,-2.2,102.9,102.9,P-GPS,Auto Fly,,15,5,True,,M600,False,False,,Smart,RC,False,True,False,,,True,,False,False,False,False,True,False,False,False,False,False,0,Follow Yaw,0,0,101.9,101.9,False,False,False,False,False,False,,True,Normal,,,1024,1024,1024,1024,1,False,False,False,False,False,0,False,False,False,False,76,,,,48.48,True,,,,,,,,False,False,,,,,0,0,0,0,0,0.0,925.07,,Idle,0,30,False,10,True,,Go Home,39.9612628,-106.21631319,0.9,8106.7,393.7,True,1,1,False,False,False,False,0,True,False,False,Course Lock,65.6,177.6,9.8,Calm,46,Android, 3.1.11,dji aircraft,0670136230,,03LLCA0B4B,M61AE76011,337.066,8893.0,115.8,42.7,7.4,0,0,dji aircraft,0670136230,,03LLCA0B4B,M61AE7601101J0,,Android, 3.1.11,,,,,,
10/10/2017,4:02:30.25 PM,0m 7.3s,7.3,39.96126063,-106.21631192,3.6,3.9,,8132,0,1.5,0,0.2,0,0,0,0,0.1,-2,102.9,102.9,P-GPS,Auto Fly,,15,5,True,,M600,False,False,,Smart,RC,False,True,False,,,True,,False,False,False,False,True,False,False,False,False,False,0,Follow Yaw,0,0,101.9,101.9,False,False,False,False,False,False,,True,Normal,,,1024,1024,1024,1024,1,False,False,False,False,False,0,False,False,False,False,76,,,,48.242,True,,,,,,,,False,False,,,,,0,0,0,0,0,0.0,1491.89,,Idle,0,30,False,10,True,,Go Home,39.9612628,-106.21631319,0.9,8106.7,393.7,True,1,1,False,False,False,False,0,True,False,False,Course Lock,65.6,177.6,9.8,Calm,46,Android, 3.1.11,dji aircraft,0670136230,,03LLCA0B4B,M61AE76011,337.066,8893.0,115.8,42.7,7.4,0,0,dji aircraft,0670136230,,03LLCA0B4B,M61AE7601101J0,,Android, 3.1.11,,,,,,
10/10/2017,4:02:30.35 PM,0m 7.4s,7.4,39.96126067,-106.21631181,3.6,3.9,,8132,0,1.5,0,0.2,0,0,0,0,0.2,-1.8,102.9,102.9,P-GPS,Auto Fly,,15,5,True,,M600,False,False,,Smart,RC,False,True,False,,,True,,False,False,False,False,True,False,False,False,False,False,0,Follow Yaw,0,0,101.9,101.9,False,False,False,False,False,False,,True,Normal,,,1024,1024,1024,1024,1,False,False,False,False,False,0,False,False,False,False,76,,,,48.242,True,,,,,,,,False,False,,,,,0,0,0,0,0,0.0,1491.89,,Idle,0,30,False,10,True,,Go Home,39.9612628,-106.21631319,0.9,8106.7,393.7,True,1,1,False,False,False,False,0,True,False,False,Course Lock,65.6,177.6,9.8,Calm,46,Android, 3.1.11,dji aircraft,0670136230,,03LLCA0B4B,M61AE76011,337.066,8893.0,115.8,42.7,7.4,0,0,dji aircraft,0670136230,,03LLCA0B4B,M61AE7601101J0,,Android, 3.1.11,,,,,,
10/10/2017,4:02:30.45 PM,0m 7.5s,7.5,39.96126069,-106.21631172,3.6,3.9,,8132,0,1.5,0,0.2,0,0,0,0,0.3,-1.8,102.9,102.9,P-GPS,Auto Fly,,15,5,True,,M600,False,False,,Smart,RC,False,True,False,,,True,,False,False,False,False,True,False,False,False,False,False,0,Follow Yaw,0,0,101.9,101.9,False,False,False,False,False,False,,True,Normal,,,1024,1024,1024,1024,1,False,False,False,False,False,0,False,False,False,False,76,,,,48.242,True,,,,,,,,False,False,,,,,0,0,0,0,0,0.0,1491.89,,Idle,0,30,False,10,True,,Go Home,39.9612628,-106.21631319,0.9,8106.7,393.7,True,1,1,False,False,False,False,0,True,False,False,Course Lock,65.6,177.6,9.8,Calm,46,Android, 3.1.11,dji aircraft,0670136230,,03LLCA0B4B,M61AE76011,337.066,8893.0,115.8,42.7,7.4,0,0,dji aircraft,0670136230,,03LLCA0B4B,M61AE7601101J0,,Android, 3.1.11,,,,,,
10/10/2017,4:02:30.55 PM,0m 7.7s,7.7,39.96126077,-106.2163115,3.9,3.9,,8132,0,1.5,0,0.2,0,0,0,0,0.9,-1.8,102.9,102.9,P-GPS,Auto Fly,,15,5,True,,M600,False,False,,Smart,RC,False,True,False,,,True,,False,False,False,False,True,False,False,False,False,False,0,Follow Yaw,0,0,101.9,101.9,False,False,False,False,False,False,,True,Normal,,,1024,1024,1024,1024,1,False,False,False,False,False,0,False,False,False,False,76,,,,48.242,True,,,,,,,,False,False,,,,,0,0,0,0,0,0.0,1491.89,,Idle,0,30,False,10,True,,Go Home,39.9612628,-106.21631319,0.9,8106.7,393.7,True,1,1,False,False,False,False,0,True,False,False,Course Lock,65.6,177.6,9.8,Calm,46,Android, 3.1.11,dji aircraft,0670136230,,03LLCA0B4B,M61AE76011,337.066,8893.0,115.8,42.7,7.4,0,0,dji aircraft,0670136230,,03LLCA0B4B,M61AE7601101J0,,Android, 3.1.11,,,,,,
10/10/2017,4:02:30.66 PM,0m 7.8s,7.8,39.96126082,-106.21631141,3.9,3.9,,8132,0,1.5,0,0.2,0,0,0,0,1,-1.9,102.9,102.9,P-GPS,Auto Fly,,15,5,True,,M600,False,False,,Smart,RC,False,True,False,,,True,,False,False,False,False,True,False,False,False,False,False,0,Follow Yaw,0,0,101.9,101.9,False,False,False,False,False,False,,True,Normal,,,1024,1024,1024,1024,1,False,False,False,False,False,0,False,False,False,False,76,,,,48.242,True,,,,,,,,False,False,,,,,0,0,0,0,0,0.0,1491.89,,Idle,0,30,False,10,True,,Go Home,39.9612628,-106.21631319,0.8,8106.7,393.7,True,1,1,False,False,False,False,0,True,False,False,Course Lock,65.6,177.6,9.8,Calm,46,Android, 3.1.11,dji aircraft,0670136230,,03LLCA0B4B,M61AE76011,337.066,8893.0,115.8,42.7,7.4,0,0,dji aircraft,0670136230,,03LLCA0B4B,M61AE7601101J0,,Android, 3.1.11,,,,,,
10/10/2017,4:02:30.76 PM,0m 7.9s,7.9,39.96126085,-106.21631135,3.9,3.9,,8132,0,1.5,0,0.2,0,0,0,0,1,-1.8,102.9,102.9,P-GPS,Auto Fly,,15,5,True,,M600,False,False,,Smart,RC,False,True,False,,,True,,False,False,False,False,True,False,False,False,False,False,0,Follow Yaw,0,0,101.9,101.9,False,False,False,False,False,False,,True,Normal,,,1024,1024,1024,1024,1,False,False,False,False,False,0,False,False,False,False,76,,,,48.242,True,,,,,,,,False,False,,,,,0,0,0,0,0,0.0,1491.89,,Idle,0,30,False,10,True,,Go Home,39.9612628,-106.21631319,0.9,8106.7,393.7,True,1,1,False,False,False,False,0,True,False,False,Course Lock,65.6,177.6,9.8,Calm,46,Android, 3.1.11,dji aircraft,0670136230,,03LLCA0B4B,M61AE76011,337.066,8893.0,115.8,42.7,7.4,0,0,dji aircraft,0670136230,,03LLCA0B4B,M61AE7601101J0,,Android, 3.1.11,,,,,,
10/10/2017,4:02:30.86 PM,0m 8.0s,8.0,39.96126092,-106.21631135,3.9,3.9,,8132,0,1.5,0,0.2,0,0,0,0,1,-1.6,102.9,102.9,P-GPS,Auto Fly,,15,5,True,,M600,False,False,,Smart,RC,False,True,False,,,True,,False,False,False,False,True,False,False,False,False,False,0,Follow Yaw,0,0,101.9,101.9,False,False,False,False,False,False,,True,Normal,,,1024,1024,1024,1024,1,False,False,False,False,False,0,False,False,False,False,76,,,,48.242,True,,,,,,,,False,False,,,,,0,0,0,0,0,0.0,1491.89,,Idle,0,30,False,10,True,,Go Home,39.9612628,-106.21631319,0.9,8106.7,393.7,True,1,1,False,False,False,False,0,True,False,False,Course Lock,65.6,177.6,9.8,Calm,46,Android, 3.1.11,dji aircraft,0670136230,,03LLCA0B4B,M61AE76011,337.066,8893.0,115.8,42.7,7.4,0,0,dji aircraft,0670136230,,03LLCA0B4B,M61AE7601101J0,,Android, 3.1.11,,,,,,
10/10/2017,4:02:30.96 PM,0m 8.1s,8.1,39.96126096,-106.21631134,3.9,3.9,,8132,0,1.5,0,0.2,0,0,0,0,1.1,-1.4,102.9,102.9,P-GPS,Auto Fly,,15,5,True,,M600,False,False,,Smart,RC,False,True,False,,,True,,False,False,False,False,True,False,False,False,False,False,0,Follow Yaw,0,0,101.9,101.9,False,False,False,False,False,False,,True,Normal,,,1024,1024,1024,1024,1,False,False,False,False,False,0,False,False,False,False,76,,,,48.242,True,,,,,,,,False,False,,,,,0,0,0,0,0,0.0,1491.89,,Idle,0,30,False,10,True,,Go Home,39.9612628,-106.21631319,0.9,8106.7,393.7,True,1,1,False,False,False,False,0,True,False,False,Course Lock,65.6,177.6,9.8,Calm,46,Android, 3.1.11,dji aircraft,0670136230,,03LLCA0B4B,M61AE76011,337.066,8893.0,115.8,42.7,7.4,0,0,dji aircraft,0670136230,,03LLCA0B4B,M61AE7601101J0,,Android, 3.1.11,,,,,,
