#,CUSTOM.date [local], CUSTOM.updateTime [local], OSD.flyTime, OSD.flyTime [s], OSD.latitude, OSD.longitude, OSD.height [ft], OSD.heightMax [ft], OSD.vpsHeight [ft], OSD.altitude [ft], OSD.hSpeed [MPH], OSD.hSpeedMax [MPH], OSD.xSpeed [MPH], OSD.xSpeedMax [MPH], OSD.ySpeed [MPH], OSD.ySpeedMax [MPH], OSD.zSpeed [MPH], OSD.zSpeedMax [MPH], OSD.pitch, OSD.roll, OSD.yaw, OSD.yaw [360], OSD.flycState, OSD.flycCommand, OSD.flightAction, OSD.gpsNum, OSD.gpsLevel, OSD.isGPSUsed, OSD.nonGPSCause, OSD.droneType, OSD.isSwaveWork, OSD.waveError, OSD.goHomeStatus, OSD.batteryType, OSD.ctrlDevice, OSD.isOnGround, OSD.isMotorOn, OSD.isMotorBlocked, OSD.motorStartFailedCause, OSD.motorFailReason, OSD.isImuPreheated, OSD.imuInitFailReason, OSD.isAcceletorOverRange, OSD.isBarometerDeadInAir, OSD.isCompassError, OSD.isGoHomeHeightModified, OSD.canIOCWork, OSD.isNotEnoughForce, OSD.isOutOfLimit, OSD.isPropellerCatapult, OSD.isVibrating, OSD.isVisionUsed, OSD.voltageWarning, GIMBAL.mode, GIMBAL.pitch, GIMBAL.roll, GIMBAL.yaw, GIMBAL.yaw [360], GIMBAL.isPitchAtLimit, GIMBAL.isRollAtLimit, GIMBAL.isYawAtLimit, GIMBAL.isStuck, CAMERA.isPhoto, CAMERA.isVideo, CAMERA.filename, CAMERA.sdCardIsInserted, CAMERA.sdCardState, RC.downlinkSignal, RC.uplinkSignal, RC.aileron, RC.elevator, RC.throttle, RC.rudder, RC.mode, RC.goHomeDepressed, RC.recordDepressed, RC.shutterDepressed, RC.playbackDepressed, RC.wheelDepressed, RC.wheelOffset, RC.custom1Depressed, RC.custom2Depressed, RC.custom3Depressed, RC.custom4Depressed, BATTERY.chargeLevel, BATTERY.currentPV [V], BATTERY.currentCapacity [mAh], BATTERY.fullCapacity [mAh], BATTERY.voltage [V], BATTERY.isCellVoltageEstimated, BATTERY.cellVoltage1 [V], BATTERY.cellVoltage2 [V], BATTERY.cellVoltage3 [V], BATTERY.maxCellVoltageDeviation, BATTERY.isCellVoltageDeviationHigh, BATTERY.isVoltageLow, BATTERY.current [A], BATTERY.temperature [F], BATTERY.minTemperature [F], BATTERY.maxTemperature [F], BATTERY.usefulTime [s], BATTERY.goHomeTime [s], BATTERY.landTime [s], BATTERY.goHomeBattery, BATTERY.landBattery, BATTERY.safeFlyRadius, BATTERY.volumeConsume, BATTERY.status, BATTERY.goHomeStatus, BATTERY.goHomeCountdown, BATTERY.lowWarning, BATTERY.lowWarningGoHome, BATTERY.seriousLowWarning, BATTERY.seriousLowWarningLanding, BATTERY.timesCharged, MC.failSafeAction, HOME.latitude, HOME.longitude, HOME.distance [ft], HOME.height [ft], HOME.heightLimit [ft], HOME.isHomeRecord, HOME.goHomeMode, HOME.aircraftHeadDirection, HOME.isDynamicHomePointEnabled, HOME.isReachedLimitDistance, HOME.isReachedLimitHeight, HOME.isCompassCeleing, HOME.compassCeleStatus, HOME.isMultipleFlightModeEnabled, HOME.isBeginnerMode, HOME.isIOCEnabled, HOME.iocMode, HOME.goHomeHeight [ft], HOME.courseLockAngle, HOME.forceLandingHeight [ft], HOME.wind, HOME.dataRecorderFileIndex, RECOVER.appType, RECOVER.appVersion, RECOVER.aircraftName, RECOVER.aircraftSerial, RECOVER.cameraSerial, RECOVER.rcSerial, RECOVER.batterySerial, DETAILS.totalTime [s], DETAILS.totalDistance [ft], DETAILS.maxHeight [ft], DETAILS.maxHorizontalSpeed [MPH], DETAILS.maxVerticalSpeed [MPH], DETAILS.photoNum, DETAILS.videoTime [s], DETAILS.aircraftName, DETAILS.aircraftSerial, DETAILS.cameraSerial, DETAILS.rcSerial, DETAILS.batterySerial, DETAILS.appName, DETAILS.appType, DETAILS.appVersion, APPGPS.latitude, APPGPS.longitude, APPGPS.accuracy, APP.message, APP.tip, APP.warning
1,6/19/2018,48:38.8,0m 0.6s,0.6,39.96118944,-106.2164846,0,0,0.3,8128,0,0,0,0,0,0,0,0,4.3,-1.4,-102.1,257.9,Starting Motors,Auto Fly,Takeoff (App Auto),16,5,TRUE,,Mavic Pro,TRUE,FALSE,,Smart,RC,TRUE,TRUE,FALSE,,,TRUE,,FALSE,FALSE,FALSE,FALSE,FALSE,FALSE,FALSE,FALSE,FALSE,FALSE,0,Follow Yaw,-20.6,0,-101.8,258.2,FALSE,FALSE,FALSE,FALSE,FALSE,FALSE,,TRUE,Normal,,,1024,1024,1024,1024,0,FALSE,FALSE,FALSE,FALSE,FALSE,0,FALSE,FALSE,FALSE,FALSE,63,,,,11.615,TRUE,3.872,3.872,3.872,,FALSE,FALSE,,,,,0,0,0,0,0,0,1356.45,,Idle,0,30,FALSE,10,TRUE,,Land,39.96119912,-106.2164621,7.2,8355.3,164,TRUE,1,1,FALSE,FALSE,FALSE,FALSE,0,TRUE,FALSE,FALSE,Course Lock,160.8,,16.4,Calm,45,Android, 4.2.16,DF020,08RDE5F001007H,08TLE4700X0040,,093AE5J0320485,414.3,859.8,72.2,5.7,5.1,0,333,DF020,08RDE5F001007H,08TLE4700X0040,,093AE5J0320485,,Android, 4.2.16,,,,Data Recorder File Index is 45.,,
2,6/19/2018,48:38.9,0m 0.7s,0.7,39.96118945,-106.2164846,0,0,0.3,8128,0,0,0,0,0,0,0,0,4.3,-1.4,-102.1,257.9,Starting Motors,Auto Fly,Takeoff (App Auto),15,5,TRUE,,Mavic Pro,TRUE,FALSE,,Smart,RC,TRUE,TRUE,FALSE,,,TRUE,,FALSE,FALSE,FALSE,FALSE,FALSE,FALSE,FALSE,FALSE,FALSE,FALSE,0,Follow Yaw,-20.6,0,-101.8,258.2,FALSE,FALSE,FALSE,FALSE,FALSE,FALSE,,TRUE,Normal,,,1024,1024,1024,1024,0,FALSE,FALSE,FALSE,FALSE,FALSE,0,FALSE,FALSE,FALSE,FALSE,63,,,,11.615,TRUE,3.872,3.872,3.872,,FALSE,FALSE,,,,,0,0,0,0,0,0,1356.45,,Idle,0,30,FALSE,10,TRUE,,Land,39.96119912,-106.2164621,7.2,8355.3,164,TRUE,1,1,FALSE,FALSE,FALSE,FALSE,0,TRUE,FALSE,FALSE,Course Lock,160.8,,16.4,Calm,45,Android, 4.2.16,DF020,08RDE5F001007H,08TLE4700X0040,,093AE5J0320485,414.3,859.8,72.2,5.7,5.1,0,333,DF020,08RDE5F001007H,08TLE4700X0040,,093AE5J0320485,,Android, 4.2.16,,,,,,
3,6/19/2018,48:39.0,0m 0.8s,0.8,39.96118944,-106.2164846,0,0,0.3,8128,1.1,1.1,0,0,0,0,0,0,4.2,-1.3,-102.1,257.9,Starting Motors,Auto Fly,Takeoff (App Auto),15,5,TRUE,,Mavic Pro,TRUE,FALSE,,Smart,RC,TRUE,TRUE,FALSE,,,TRUE,,FALSE,FALSE,FALSE,FALSE,FALSE,FALSE,FALSE,FALSE,FALSE,FALSE,0,Follow Yaw,-20.6,0,-101.8,258.2,FALSE,FALSE,FALSE,FALSE,FALSE,FALSE,,TRUE,Normal,,,1024,1024,1024,1024,0,FALSE,FALSE,FALSE,FALSE,FALSE,0,FALSE,FALSE,FALSE,FALSE,63,,,,11.719,FALSE,3.906,3.906,3.907,0.001,FALSE,FALSE,,,,,0,0,0,0,0,0,1356.45,,Idle,0,30,FALSE,10,TRUE,,Land,39.96119912,-106.2164621,7.2,8355.3,164,TRUE,1,1,FALSE,FALSE,FALSE,FALSE,0,TRUE,FALSE,FALSE,Course Lock,160.8,,16.4,Calm,45,Android, 4.2.16,DF020,08RDE5F001007H,08TLE4700X0040,,093AE5J0320485,414.3,859.8,72.2,5.7,5.1,0,333,DF020,08RDE5F001007H,08TLE4700X0040,,093AE5J0320485,,Android, 4.2.16,,,,,,
4,6/19/2018,48:39.2,0m 0.9s,0.9,39.96118945,-106.2164846,0,0,0.3,8128,0,1.1,0,0,0,0,0,0,4.1,-1.4,-102.1,257.9,Starting Motors,Auto Fly,Takeoff (App Auto),15,5,TRUE,,Mavic Pro,TRUE,FALSE,,Smart,RC,TRUE,TRUE,FALSE,,,TRUE,,FALSE,FALSE,FALSE,FALSE,FALSE,FALSE,FALSE,FALSE,FALSE,FALSE,0,Follow Yaw,-20.6,0,-101.8,258.2,FALSE,FALSE,FALSE,FALSE,FALSE,FALSE,,TRUE,Normal,,,1024,1024,1024,1024,0,FALSE,FALSE,FALSE,FALSE,FALSE,0,FALSE,FALSE,FALSE,FALSE,63,,,,11.719,FALSE,3.906,3.906,3.907,0.001,FALSE,FALSE,,,,,0,0,0,0,0,0,1356.45,,Idle,0,30,FALSE,10,TRUE,,Land,39.96119912,-106.2164621,7.2,8355.3,164,TRUE,1,1,FALSE,FALSE,FALSE,FALSE,0,TRUE,FALSE,FALSE,Course Lock,160.8,,16.4,Calm,45,Android, 4.2.16,DF020,08RDE5F001007H,08TLE4700X0040,,093AE5J0320485,414.3,859.8,72.2,5.7,5.1,0,333,DF020,08RDE5F001007H,08TLE4700X0040,,093AE5J0320485,,Android, 4.2.16,,,,,,
5,6/19/2018,48:39.3,0m 1.0s,1,39.96118944,-106.2164846,0,0,0.3,8128,1.1,1.1,0,0,0,0,0,0,4.2,-1.4,-102.1,257.9,Starting Motors,Auto Fly,Takeoff (App Auto),15,5,TRUE,,Mavic Pro,TRUE,FALSE,,Smart,RC,TRUE,TRUE,FALSE,,,TRUE,,FALSE,FALSE,FALSE,FALSE,FALSE,FALSE,FALSE,FALSE,FALSE,FALSE,0,Follow Yaw,-20.6,0,-101.8,258.2,FALSE,FALSE,FALSE,FALSE,FALSE,FALSE,,TRUE,Normal,,,1024,1024,1024,1024,0,FALSE,FALSE,FALSE,FALSE,FALSE,0,FALSE,FALSE,FALSE,FALSE,63,,,,11.719,FALSE,3.906,3.906,3.907,0.001,FALSE,FALSE,,,,,0,0,0,0,0,0,1356.45,,Idle,0,30,FALSE,10,TRUE,,Land,39.96119912,-106.2164621,7.2,8355.3,164,TRUE,1,1,FALSE,FALSE,FALSE,FALSE,0,TRUE,FALSE,FALSE,Course Lock,160.8,,16.4,Calm,45,Android, 4.2.16,DF020,08RDE5F001007H,08TLE4700X0040,,093AE5J0320485,414.3,859.8,72.2,5.7,5.1,0,333,DF020,08RDE5F001007H,08TLE4700X0040,,093AE5J0320485,,Android, 4.2.16,,,,,,
6,6/19/2018,48:39.4,0m 1.1s,1.1,39.96118945,-106.2164846,0,0,0.3,8128,0,1.1,0,0,0,0,0,0,4.2,-1.4,-102.1,257.9,Starting Motors,Auto Fly,Takeoff (App Auto),15,5,TRUE,,Mavic Pro,TRUE,FALSE,,Smart,RC,TRUE,TRUE,FALSE,,,TRUE,,FALSE,FALSE,FALSE,FALSE,FALSE,FALSE,FALSE,FALSE,FALSE,FALSE,0,Follow Yaw,-20.6,0,-101.8,258.2,FALSE,FALSE,FALSE,FALSE,FALSE,FALSE,,TRUE,Normal,,,1024,1024,1024,1024,0,FALSE,FALSE,FALSE,FALSE,FALSE,0,FALSE,FALSE,FALSE,FALSE,63,,,,11.719,FALSE,3.906,3.906,3.907,0.001,FALSE,FALSE,,,,,0,0,0,0,0,0,1356.45,,Idle,0,30,FALSE,10,TRUE,,Land,39.96119912,-106.2164621,7.2,8355.3,164,TRUE,1,1,FALSE,FALSE,FALSE,FALSE,0,TRUE,FALSE,FALSE,Course Lock,160.8,,16.4,Calm,45,Android, 4.2.16,DF020,08RDE5F001007H,08TLE4700X0040,,093AE5J0320485,414.3,859.8,72.2,5.7,5.1,0,333,DF020,08RDE5F001007H,08TLE4700X0040,,093AE5J0320485,,Android, 4.2.16,,,,,,
7,6/19/2018,48:39.4,0m 1.2s,1.2,39.96118944,-106.2164846,0,0,0.3,8128,1.1,1.1,0,0,0,0,0,0,4.2,-1.4,-102.1,257.9,Auto Takeoff,Auto Fly,Takeoff (App Auto),15,5,TRUE,,Mavic Pro,TRUE,FALSE,,Smart,RC,TRUE,TRUE,FALSE,,,TRUE,,FALSE,FALSE,FALSE,FALSE,FALSE,FALSE,FALSE,FALSE,FALSE,FALSE,0,Follow Yaw,-20.6,0,-101.8,258.2,FALSE,FALSE,FALSE,FALSE,FALSE,FALSE,,TRUE,Normal,,,1024,1024,1024,1024,0,FALSE,FALSE,FALSE,FALSE,FALSE,0,FALSE,FALSE,FALSE,FALSE,63,,,,11.719,FALSE,3.906,3.906,3.907,0.001,FALSE,FALSE,,,,,0,0,0,0,0,0,1356.45,,Idle,0,30,FALSE,10,TRUE,,Land,39.96119912,-106.2164621,7.2,8355.3,164,TRUE,1,1,FALSE,FALSE,FALSE,FALSE,0,TRUE,FALSE,FALSE,Course Lock,160.8,,16.4,Calm,45,Android, 4.2.16,DF020,08RDE5F001007H,08TLE4700X0040,,093AE5J0320485,414.3,859.8,72.2,5.7,5.1,0,333,DF020,08RDE5F001007H,08TLE4700X0040,,093AE5J0320485,,Android, 4.2.16,,,,,,
8,6/19/2018,48:39.5,0m 1.3s,1.3,39.96118945,-106.2164846,0,0,0.3,8128,0,1.1,0,0,0,0,0,0,4.2,-1.4,-102.1,257.9,Auto Takeoff,Auto Fly,Takeoff (App Auto),15,5,TRUE,,Mavic Pro,TRUE,FALSE,,Smart,RC,TRUE,TRUE,FALSE,,,TRUE,,FALSE,FALSE,FALSE,FALSE,FALSE,FALSE,FALSE,FALSE,FALSE,FALSE,0,Follow Yaw,-20.6,0,-101.8,258.2,FALSE,FALSE,FALSE,FALSE,FALSE,FALSE,,TRUE,Normal,,,1024,1024,1024,1024,0,FALSE,FALSE,FALSE,FALSE,FALSE,0,FALSE,FALSE,FALSE,FALSE,63,,,,11.719,FALSE,3.906,3.906,3.907,0.001,FALSE,FALSE,,,,,0,0,0,0,0,0,1356.45,,Idle,0,30,FALSE,10,TRUE,,Land,39.96119912,-106.2164621,7.2,8355.3,164,TRUE,1,1,FALSE,FALSE,FALSE,FALSE,0,TRUE,FALSE,FALSE,Course Lock,160.8,,16.4,Calm,45,Android, 4.2.16,DF020,08RDE5F001007H,08TLE4700X0040,,093AE5J0320485,414.3,859.8,72.2,5.7,5.1,0,333,DF020,08RDE5F001007H,08TLE4700X0040,,093AE5J0320485,,Android, 4.2.16,,,,,,
9,6/19/2018,48:39.6,0m 1.4s,1.4,39.96118945,-106.2164845,0,0,0.3,8128,0,1.1,0,0,0,0,0,0,4.1,-1.3,-102,258,Auto Takeoff,Auto Fly,Takeoff (App Auto),15,5,TRUE,,Mavic Pro,TRUE,FALSE,,Smart,RC,TRUE,TRUE,FALSE,,,TRUE,,FALSE,FALSE,FALSE,FALSE,FALSE,FALSE,FALSE,FALSE,FALSE,FALSE,0,Follow Yaw,-20.6,0,-101.8,258.2,FALSE,FALSE,FALSE,FALSE,FALSE,FALSE,,TRUE,Normal,,,1024,1024,1024,1024,0,FALSE,FALSE,FALSE,FALSE,FALSE,0,FALSE,FALSE,FALSE,FALSE,63,,,,11.719,FALSE,3.906,3.906,3.907,0.001,FALSE,FALSE,,,,,0,0,0,0,0,0,1356.45,,Idle,0,30,FALSE,10,TRUE,,Land,39.96119912,-106.2164621,7.2,8355.3,164,TRUE,1,1,FALSE,FALSE,FALSE,FALSE,0,TRUE,FALSE,FALSE,Course Lock,160.8,,16.4,Calm,45,Android, 4.2.16,DF020,08RDE5F001007H,08TLE4700X0040,,093AE5J0320485,414.3,859.8,72.2,5.7,5.1,0,333,DF020,08RDE5F001007H,08TLE4700X0040,,093AE5J0320485,,Android, 4.2.16,,,,,,
10,6/19/2018,48:39.7,0m 1.5s,1.5,39.96118946,-106.2164845,0,0,0.3,8128,0,1.1,0,0,0,0,0,0,3.9,-1.3,-102,258,Auto Takeoff,Auto Fly,Takeoff (App Auto),15,5,TRUE,,Mavic Pro,TRUE,FALSE,,Smart,RC,TRUE,TRUE,FALSE,,,TRUE,,FALSE,FALSE,FALSE,FALSE,FALSE,FALSE,FALSE,FALSE,FALSE,FALSE,0,Follow Yaw,-20.6,0,-101.8,258.2,FALSE,FALSE,FALSE,FALSE,FALSE,FALSE,,TRUE,Normal,,,1024,1024,1024,1024,0,FALSE,FALSE,FALSE,FALSE,FALSE,0,FALSE,FALSE,FALSE,FALSE,63,,,,11.719,FALSE,3.906,3.906,3.907,0.001,FALSE,FALSE,,,,,0,0,0,0,0,0,1356.45,,Idle,0,30,FALSE,10,TRUE,,Land,39.96119912,-106.2164621,7.2,8355.3,164,TRUE,1,1,FALSE,FALSE,FALSE,FALSE,0,TRUE,FALSE,FALSE,Course Lock,160.8,,16.4,Calm,45,Android, 4.2.16,DF020,08RDE5F001007H,08TLE4700X0040,,093AE5J0320485,414.3,859.8,72.2,5.7,5.1,0,333,DF020,08RDE5F001007H,08TLE4700X0040,,093AE5J0320485,,Android, 4.2.16,,,,,,
11,6/19/2018,48:39.8,0m 1.6s,1.6,39.96118945,-106.2164845,0,0,0.3,8128,0,1.1,0,0,0,0,0,0,3.7,-1.3,-102,258,Auto Takeoff,Auto Fly,Takeoff (App Auto),15,5,TRUE,,Mavic Pro,TRUE,FALSE,,Smart,RC,TRUE,TRUE,FALSE,,,TRUE,,FALSE,FALSE,FALSE,FALSE,FALSE,FALSE,FALSE,FALSE,FALSE,FALSE,0,Follow Yaw,-20.6,0,-101.8,258.2,FALSE,FALSE,FALSE,FALSE,FALSE,FALSE,,TRUE,Normal,,,1024,1024,1024,1024,0,FALSE,FALSE,FALSE,FALSE,FALSE,0,FALSE,FALSE,FALSE,FALSE,63,,,,11.633,FALSE,3.906,3.906,3.907,0.001,FALSE,FALSE,,,,,0,0,0,0,0,0,1356.58,,Idle,0,30,FALSE,10,TRUE,,Land,39.96119912,-106.2164621,7.2,8355.3,164,TRUE,1,1,FALSE,FALSE,FALSE,FALSE,0,TRUE,FALSE,FALSE,Course Lock,160.8,,16.4,Calm,45,Android, 4.2.16,DF020,08RDE5F001007H,08TLE4700X0040,,093AE5J0320485,414.3,859.8,72.2,5.7,5.1,0,333,DF020,08RDE5F001007H,08TLE4700X0040,,093AE5J0320485,,Android, 4.2.16,,,,,,
12,6/19/2018,48:39.8,0m 1.7s,1.7,39.96118946,-106.2164845,0,0,0.7,8128,0,1.1,0,0,0,0,0,0,3.5,-1.5,-102,258,Auto Takeoff,Auto Fly,Takeoff (App Auto),15,5,TRUE,,Mavic Pro,TRUE,FALSE,,Smart,RC,TRUE,TRUE,FALSE,,,TRUE,,FALSE,FALSE,FALSE,FALSE,FALSE,FALSE,FALSE,FALSE,FALSE,FALSE,0,Follow Yaw,-20.6,0,-101.8,258.2,FALSE,FALSE,FALSE,FALSE,FALSE,FALSE,,TRUE,Normal,,,1024,1024,1024,1024,0,FALSE,FALSE,FALSE,FALSE,FALSE,0,FALSE,FALSE,FALSE,FALSE,63,,,,11.633,FALSE,3.906,3.906,3.907,0.001,FALSE,FALSE,,,,,0,0,0,0,0,0,1356.58,,Idle,0,30,FALSE,10,TRUE,,Land,39.96119912,-106.2164621,7.2,8355.3,164,TRUE,1,1,FALSE,FALSE,FALSE,FALSE,0,TRUE,FALSE,FALSE,Course Lock,160.8,,16.4,Calm,45,Android, 4.2.16,DF020,08RDE5F001007H,08TLE4700X0040,,093AE5J0320485,414.3,859.8,72.2,5.7,5.1,0,333,DF020,08RDE5F001007H,08TLE4700X0040,,093AE5J0320485,,Android, 4.2.16,,,,,,
13,6/19/2018,48:39.9,0m 1.8s,1.8,39.96118945,-106.2164845,0,0,0.7,8128,0,1.1,0,0,0,0,0,0,1.9,-1.5,-101.7,258.3,Auto Takeoff,Auto Fly,Takeoff (App Auto),15,5,TRUE,,Mavic Pro,TRUE,FALSE,,Smart,RC,TRUE,TRUE,FALSE,,,TRUE,,FALSE,FALSE,FALSE,FALSE,FALSE,FALSE,FALSE,FALSE,FALSE,FALSE,0,Follow Yaw,-20.6,0,-101.8,258.2,FALSE,FALSE,FALSE,FALSE,FALSE,FALSE,,TRUE,Normal,,,1024,1024,1024,1024,0,FALSE,FALSE,FALSE,FALSE,FALSE,0,FALSE,FALSE,FALSE,FALSE,63,,,,11.633,FALSE,3.906,3.906,3.907,0.001,FALSE,FALSE,,,,,0,0,0,0,0,0,1356.58,,Idle,0,30,FALSE,10,TRUE,,Land,39.96119912,-106.2164621,7.2,8355.3,164,TRUE,1,1,FALSE,FALSE,FALSE,FALSE,0,TRUE,FALSE,FALSE,Course Lock,160.8,,16.4,Calm,45,Android, 4.2.16,DF020,08RDE5F001007H,08TLE4700X0040,,093AE5J0320485,414.3,859.8,72.2,5.7,5.1,0,333,DF020,08RDE5F001007H,08TLE4700X0040,,093AE5J0320485,,Android, 4.2.16,,,,,,
14,6/19/2018,48:40.1,0m 1.9s,1.9,39.96118944,-106.2164844,0,0,0.7,8128,0,1.1,0,0,0,0,-0.2,0,0,0.4,-101.2,258.8,Auto Takeoff,Auto Fly,Takeoff (App Auto),15,5,TRUE,,Mavic Pro,TRUE,FALSE,,Smart,RC,FALSE,TRUE,FALSE,,,TRUE,,FALSE,FALSE,FALSE,FALSE,FALSE,FALSE,FALSE,FALSE,FALSE,FALSE,0,Follow Yaw,-20.6,0,-101.8,258.2,FALSE,FALSE,FALSE,FALSE,FALSE,FALSE,,TRUE,Normal,,,1024,1024,1024,1024,0,FALSE,FALSE,FALSE,FALSE,FALSE,0,FALSE,FALSE,FALSE,FALSE,63,,,,11.641,FALSE,3.873,3.878,3.89,0.017,FALSE,FALSE,,,,,0,0,0,0,0,0,1356.58,,Idle,0,30,FALSE,10,TRUE,,Land,39.96119912,-106.2164621,7.2,8355.3,164,TRUE,1,1,FALSE,FALSE,FALSE,FALSE,0,TRUE,FALSE,FALSE,Course Lock,160.8,,16.4,Calm,45,Android, 4.2.16,DF020,08RDE5F001007H,08TLE4700X0040,,093AE5J0320485,414.3,859.8,72.2,5.7,5.1,0,333,DF020,08RDE5F001007H,08TLE4700X0040,,093AE5J0320485,,Android, 4.2.16,,,,,,
15,6/19/2018,48:40.1,0m 2.0s,2,39.96118942,-106.2164843,0,0,0.7,8128,0,1.1,0,0,0.2,0.2,-0.7,0,1.2,1.9,-101.1,258.9,Auto Takeoff,Auto Fly,Takeoff (App Auto),15,5,TRUE,,Mavic Pro,TRUE,FALSE,,Smart,RC,FALSE,TRUE,FALSE,,,TRUE,,FALSE,FALSE,FALSE,FALSE,FALSE,FALSE,FALSE,FALSE,FALSE,FALSE,0,Follow Yaw,-20.6,0,-101.8,258.2,FALSE,FALSE,FALSE,FALSE,FALSE,FALSE,,TRUE,Normal,,,1024,1024,1024,1024,0,FALSE,FALSE,FALSE,FALSE,FALSE,0,FALSE,FALSE,FALSE,FALSE,63,,,,11.641,FALSE,3.873,3.878,3.89,0.017,FALSE,FALSE,,,,,0,0,0,0,0,0,1356.58,,Idle,0,30,FALSE,10,TRUE,,Land,39.96119912,-106.2164621,7.1,8355.3,164,TRUE,1,1,FALSE,FALSE,FALSE,FALSE,0,TRUE,FALSE,FALSE,Course Lock,160.8,,16.4,Calm,45,Android, 4.2.16,DF020,08RDE5F001007H,08TLE4700X0040,,093AE5J0320485,414.3,859.8,72.2,5.7,5.1,0,333,DF020,08RDE5F001007H,08TLE4700X0040,,093AE5J0320485,,Android, 4.2.16,,,,,,
16,6/19/2018,48:40.3,0m 2.1s,2.1,39.96118948,-106.216484,0,0,0.7,8128,0,1.1,0,0,0.2,0.2,-0.9,0,0.6,1.2,-101.2,258.8,Auto Takeoff,Auto Fly,Takeoff (App Auto),15,5,TRUE,,Mavic Pro,TRUE,FALSE,,Smart,RC,FALSE,TRUE,FALSE,,,TRUE,,FALSE,FALSE,FALSE,FALSE,FALSE,FALSE,FALSE,FALSE,FALSE,FALSE,0,Follow Yaw,-20.6,0,-101.8,258.2,FALSE,FALSE,FALSE,FALSE,FALSE,FALSE,,TRUE,Normal,,,1024,1024,1024,1024,0,FALSE,FALSE,FALSE,FALSE,FALSE,0,FALSE,FALSE,FALSE,FALSE,63,,,,11.641,FALSE,3.873,3.878,3.89,0.017,FALSE,FALSE,,,,,0,0,0,0,0,0,1356.58,,Idle,0,30,FALSE,10,TRUE,,Land,39.96119912,-106.2164621,7.1,8355.3,164,TRUE,1,1,FALSE,FALSE,FALSE,FALSE,0,TRUE,FALSE,FALSE,Course Lock,160.8,,16.4,Calm,45,Android, 4.2.16,DF020,08RDE5F001007H,08TLE4700X0040,,093AE5J0320485,414.3,859.8,72.2,5.7,5.1,0,333,DF020,08RDE5F001007H,08TLE4700X0040,,093AE5J0320485,,Android, 4.2.16,,,,,,
17,6/19/2018,48:40.4,0m 2.2s,2.2,39.96118959,-106.2164838,0.3,0.3,0.7,8128,0,1.1,0.2,0.2,0.2,0.2,-0.9,0,-0.2,-2,-101.2,258.8,Auto Takeoff,Auto Fly,Takeoff (App Auto),15,5,TRUE,,Mavic Pro,TRUE,FALSE,,Smart,RC,FALSE,TRUE,FALSE,,,TRUE,,FALSE,FALSE,FALSE,FALSE,FALSE,FALSE,FALSE,FALSE,FALSE,FALSE,0,Follow Yaw,-20.6,0,-101.8,258.2,FALSE,FALSE,FALSE,FALSE,FALSE,FALSE,,TRUE,Normal,,,1024,1024,1024,1024,0,FALSE,FALSE,FALSE,FALSE,FALSE,0,FALSE,FALSE,FALSE,FALSE,63,,,,11.641,FALSE,3.873,3.878,3.89,0.017,FALSE,FALSE,,,,,0,0,0,0,0,0,1356.58,,Idle,0,30,FALSE,10,TRUE,,Land,39.96119912,-106.2164621,7,8355.3,164,TRUE,1,1,FALSE,FALSE,FALSE,FALSE,0,TRUE,FALSE,FALSE,Course Lock,160.8,,16.4,Calm,45,Android, 4.2.16,DF020,08RDE5F001007H,08TLE4700X0040,,093AE5J0320485,414.3,859.8,72.2,5.7,5.1,0,333,DF020,08RDE5F001007H,08TLE4700X0040,,093AE5J0320485,,Android, 4.2.16,,,,,,
18,6/19/2018,48:40.5,0m 2.3s,2.3,39.96118976,-106.2164835,0.3,0.3,0.7,8128,0,1.1,0.2,0.2,0.5,0.5,-0.9,0,-1.3,-3.4,-101.2,258.8,Auto Takeoff,Auto Fly,Takeoff (App Auto),15,5,TRUE,,Mavic Pro,TRUE,FALSE,,Smart,RC,FALSE,TRUE,FALSE,,,TRUE,,FALSE,FALSE,FALSE,FALSE,FALSE,FALSE,FALSE,FALSE,FALSE,FALSE,0,Follow Yaw,-20.6,0,-101.8,258.2,FALSE,FALSE,FALSE,FALSE,FALSE,FALSE,,TRUE,Normal,,,1024,1024,1024,1024,0,FALSE,FALSE,FALSE,FALSE,FALSE,0,FALSE,FALSE,FALSE,FALSE,63,,,,11.641,FALSE,3.873,3.878,3.89,0.017,FALSE,FALSE,,,,,0,0,0,0,0,0,1356.58,,Idle,0,30,FALSE,10,TRUE,,Land,39.96119912,-106.2164621,6.9,8355.3,164,TRUE,1,1,FALSE,FALSE,FALSE,FALSE,0,TRUE,FALSE,FALSE,Course Lock,160.8,,16.4,Calm,45,Android, 4.2.16,DF020,08RDE5F001007H,08TLE4700X0040,,093AE5J0320485,414.3,859.8,72.2,5.7,5.1,0,333,DF020,08RDE5F001007H,08TLE4700X0040,,093AE5J0320485,,Android, 4.2.16,,,,,,
19,6/19/2018,48:40.6,0m 2.4s,2.4,39.96118985,-106.2164832,0.7,0.7,1,8129,0,1.1,0,0.2,0.5,0.5,-0.9,0,-1.8,0,-101.4,258.6,Auto Takeoff,Auto Fly,Takeoff (App Auto),15,5,TRUE,,Mavic Pro,TRUE,FALSE,,Smart,RC,FALSE,TRUE,FALSE,,,TRUE,,FALSE,FALSE,FALSE,FALSE,FALSE,FALSE,FALSE,FALSE,FALSE,FALSE,0,Follow Yaw,-20.6,0,-101.8,258.2,FALSE,FALSE,FALSE,FALSE,FALSE,FALSE,,TRUE,Normal,,,1024,1024,1024,1024,0,FALSE,FALSE,FALSE,FALSE,FALSE,0,FALSE,FALSE,FALSE,FALSE,63,,,,11.641,FALSE,3.873,3.878,3.89,0.017,FALSE,FALSE,,,,,0,0,0,0,0,0,1356.58,,Idle,0,30,FALSE,10,TRUE,,Land,39.96119912,-106.2164621,6.8,8355.3,164,TRUE,1,1,FALSE,FALSE,FALSE,FALSE,0,TRUE,FALSE,FALSE,Course Lock,160.8,,16.4,Calm,45,Android, 4.2.16,DF020,08RDE5F001007H,08TLE4700X0040,,093AE5J0320485,414.3,859.8,72.2,5.7,5.1,0,333,DF020,08RDE5F001007H,08TLE4700X0040,,093AE5J0320485,,Android, 4.2.16,,,,,,
20,6/19/2018,48:41.0,0m 2.5s,2.5,39.96118996,-106.2164829,0.7,0.7,1,8129,1.5,1.5,0,0.2,0.5,0.5,-0.9,0,-3.5,1.2,-101.4,258.6,Auto Takeoff,Auto Fly,Takeoff (App Auto),15,5,TRUE,,Mavic Pro,TRUE,FALSE,,Smart,RC,FALSE,TRUE,FALSE,,,TRUE,,FALSE,FALSE,FALSE,FALSE,FALSE,FALSE,FALSE,FALSE,FALSE,FALSE,0,Follow Yaw,-20.6,0,-101.8,258.2,FALSE,FALSE,FALSE,FALSE,FALSE,FALSE,,TRUE,Normal,,,1024,1024,1024,1024,0,FALSE,FALSE,FALSE,FALSE,FALSE,0,FALSE,FALSE,FALSE,FALSE,63,,,,11.641,FALSE,3.873,3.878,3.89,0.017,FALSE,FALSE,,,,,0,0,0,0,0,0,1356.58,,Idle,0,30,FALSE,10,TRUE,,Land,39.96119912,-106.2164621,6.7,8355.3,164,TRUE,1,1,FALSE,FALSE,FALSE,FALSE,0,TRUE,FALSE,FALSE,Course Lock,160.8,,16.4,Calm,45,Android, 4.2.16,DF020,08RDE5F001007H,08TLE4700X0040,,093AE5J0320485,414.3,859.8,72.2,5.7,5.1,0,333,DF020,08RDE5F001007H,08TLE4700X0040,,093AE5J0320485,,Android, 4.2.16,,,,,,
21,6/19/2018,48:41.2,0m 2.6s,2.6,39.96119008,-106.2164825,0.7,0.7,1,8129,0,1.5,0,0.2,0.5,0.5,-0.9,0,-3.5,-1.4,-101.1,258.9,Auto Takeoff,Auto Fly,Takeoff (App Auto),15,5,TRUE,,Mavic Pro,TRUE,FALSE,,Smart,RC,FALSE,TRUE,FALSE,,,TRUE,,FALSE,FALSE,FALSE,FALSE,FALSE,FALSE,FALSE,FALSE,FALSE,FALSE,0,Follow Yaw,-20.6,0,-101.8,258.2,FALSE,FALSE,FALSE,FALSE,FALSE,FALSE,,TRUE,Normal,,,1024,1024,1024,1024,0,FALSE,FALSE,FALSE,FALSE,FALSE,0,FALSE,FALSE,FALSE,FALSE,63,,,,11.575,FALSE,3.873,3.878,3.89,0.017,FALSE,FALSE,,,,,0,0,0,0,0,0,1390.31,,Idle,0,30,FALSE,10,TRUE,,Land,39.96118944,-106.2164844,0.6,8355.3,164,TRUE,1,1,FALSE,FALSE,FALSE,FALSE,0,TRUE,FALSE,FALSE,Course Lock,160.8,,16.4,Calm,45,Android, 4.2.16,DF020,08RDE5F001007H,08TLE4700X0040,,093AE5J0320485,414.3,859.8,72.2,5.7,5.1,0,333,DF020,08RDE5F001007H,08TLE4700X0040,,093AE5J0320485,,Android, 4.2.16,,,,Home Point Updated.,,
22,6/19/2018,48:41.2,0m 2.7s,2.7,39.96119016,-106.2164822,1,1,1,8129,1.1,1.5,0,0.2,0.5,0.5,-0.9,0,-4.1,-2.1,-100.8,259.2,Auto Takeoff,Auto Fly,Takeoff (App Auto),16,5,TRUE,,Mavic Pro,TRUE,FALSE,,Smart,RC,FALSE,TRUE,FALSE,,,TRUE,,FALSE,FALSE,FALSE,FALSE,FALSE,FALSE,FALSE,FALSE,FALSE,FALSE,0,Follow Yaw,-20.6,0,-101.8,258.2,FALSE,FALSE,FALSE,FALSE,FALSE,FALSE,,TRUE,Normal,,,1024,1024,1024,1024,0,FALSE,FALSE,FALSE,FALSE,FALSE,0,FALSE,FALSE,FALSE,FALSE,63,,,,11.575,FALSE,3.873,3.878,3.89,0.017,FALSE,FALSE,,,,,0,0,0,0,0,0,1390.31,,Idle,0,30,FALSE,10,TRUE,,Land,39.96118944,-106.2164844,0.8,8355.3,164,TRUE,1,1,FALSE,FALSE,FALSE,FALSE,0,TRUE,FALSE,FALSE,Course Lock,160.8,,16.4,Calm,45,Android, 4.2.16,DF020,08RDE5F001007H,08TLE4700X0040,,093AE5J0320485,414.3,859.8,72.2,5.7,5.1,0,333,DF020,08RDE5F001007H,08TLE4700X0040,,093AE5J0320485,,Android, 4.2.16,,,,,,
23,6/19/2018,48:41.3,0m 2.8s,2.8,39.96119019,-106.2164818,1,1,1,8129,0,1.5,0,0.2,0.5,0.5,-0.9,0,-4,0.1,-100.6,259.4,Auto Takeoff,Auto Fly,Takeoff (App Auto),16,5,TRUE,,Mavic Pro,TRUE,FALSE,,Smart,RC,FALSE,TRUE,FALSE,,,TRUE,,FALSE,FALSE,FALSE,FALSE,FALSE,FALSE,FALSE,FALSE,FALSE,FALSE,0,Follow Yaw,-20.6,0,-101.7,258.3,FALSE,FALSE,FALSE,FALSE,FALSE,FALSE,,TRUE,Normal,,,1024,1024,1024,1024,0,FALSE,FALSE,FALSE,FALSE,FALSE,0,FALSE,FALSE,FALSE,FALSE,63,,,,11.575,FALSE,3.873,3.878,3.89,0.017,FALSE,FALSE,,,,,0,0,0,0,0,0,1390.31,,Idle,0,30,FALSE,10,TRUE,,Land,39.96118944,-106.2164844,0.7,8355.3,164,TRUE,1,1,FALSE,FALSE,FALSE,FALSE,0,TRUE,FALSE,FALSE,Course Lock,160.8,,16.4,Calm,45,Android, 4.2.16,DF020,08RDE5F001007H,08TLE4700X0040,,093AE5J0320485,414.3,859.8,72.2,5.7,5.1,0,333,DF020,08RDE5F001007H,08TLE4700X0040,,093AE5J0320485,,Android, 4.2.16,,,,,,
24,6/19/2018,48:41.4,0m 2.9s,2.9,39.96119021,-106.2164815,1.3,1.3,1,8129,1.1,1.5,0,0.2,0.5,0.5,-0.9,0,-2.4,1,-100.6,259.4,Auto Takeoff,Auto Fly,Takeoff (App Auto),16,5,TRUE,,Mavic Pro,TRUE,FALSE,,Smart,RC,FALSE,TRUE,FALSE,,,TRUE,,FALSE,FALSE,FALSE,FALSE,FALSE,FALSE,FALSE,FALSE,FALSE,FALSE,0,Follow Yaw,-20.6,0,-101.7,258.3,FALSE,FALSE,FALSE,FALSE,FALSE,FALSE,,TRUE,Normal,,,1024,1024,1024,1024,0,FALSE,FALSE,FALSE,FALSE,FALSE,0,FALSE,FALSE,FALSE,FALSE,63,,,,11.575,FALSE,3.873,3.878,3.89,0.017,FALSE,FALSE,,,,,0,0,0,0,0,0,1390.31,,Idle,0,30,FALSE,10,TRUE,,Land,39.96118944,-106.2164844,0.9,8355.3,164,TRUE,1,1,FALSE,FALSE,FALSE,FALSE,0,TRUE,FALSE,FALSE,Course Lock,160.8,,16.4,Calm,45,Android, 4.2.16,DF020,08RDE5F001007H,08TLE4700X0040,,093AE5J0320485,414.3,859.8,72.2,5.7,5.1,0,333,DF020,08RDE5F001007H,08TLE4700X0040,,093AE5J0320485,,Android, 4.2.16,,,,,,
25,6/19/2018,48:41.4,0m 3.0s,3,39.96119025,-106.2164811,1.3,1.3,1.3,8129,0,1.5,0,0.2,0.5,0.5,-0.9,0,-3.5,0.7,-100.6,259.4,Auto Takeoff,Auto Fly,Takeoff (App Auto),16,5,TRUE,,Mavic Pro,TRUE,FALSE,,Smart,RC,FALSE,TRUE,FALSE,,,TRUE,,FALSE,FALSE,FALSE,FALSE,FALSE,FALSE,FALSE,FALSE,FALSE,FALSE,0,Follow Yaw,-20.6,0,-101.7,258.3,FALSE,FALSE,FALSE,FALSE,FALSE,FALSE,,TRUE,Normal,,,1024,1024,1024,1024,0,FALSE,FALSE,FALSE,FALSE,FALSE,0,FALSE,FALSE,FALSE,FALSE,63,,,,11.575,FALSE,3.873,3.878,3.89,0.017,FALSE,FALSE,,,,,0,0,0,0,0,0,1390.31,,Idle,0,30,FALSE,10,TRUE,,Land,39.96118944,-106.2164844,1,8355.3,164,TRUE,1,1,FALSE,FALSE,FALSE,FALSE,0,TRUE,FALSE,FALSE,Course Lock,160.8,,16.4,Calm,45,Android, 4.2.16,DF020,08RDE5F001007H,08TLE4700X0040,,093AE5J0320485,414.3,859.8,72.2,5.7,5.1,0,333,DF020,08RDE5F001007H,08TLE4700X0040,,093AE5J0320485,,Android, 4.2.16,,,,,,
26,6/19/2018,48:41.4,0m 3.1s,3.1,39.96119028,-106.2164808,1.6,1.6,1.3,8130,0,1.5,0,0.2,0.5,0.5,-0.9,0,-4.5,0.6,-100.6,259.4,Auto Takeoff,Auto Fly,Takeoff (App Auto),16,5,TRUE,,Mavic Pro,TRUE,FALSE,,Smart,RC,FALSE,TRUE,FALSE,,,TRUE,,FALSE,FALSE,FALSE,FALSE,FALSE,FALSE,FALSE,FALSE,FALSE,FALSE,0,Follow Yaw,-20.6,0,-101.6,258.4,FALSE,FALSE,FALSE,FALSE,FALSE,FALSE,,TRUE,Normal,,,1024,1024,1024,1024,0,FALSE,FALSE,FALSE,FALSE,FALSE,0,FALSE,FALSE,FALSE,FALSE,63,,,,11.469,FALSE,3.833,3.816,3.82,0.017,FALSE,FALSE,,,,,0,0,0,0,0,0,1390.31,,Idle,0,30,FALSE,10,TRUE,,Land,39.96118944,-106.2164844,1.1,8355.3,164,TRUE,1,1,FALSE,FALSE,FALSE,FALSE,0,TRUE,FALSE,FALSE,Course Lock,160.8,,16.4,Calm,45,Android, 4.2.16,DF020,08RDE5F001007H,08TLE4700X0040,,093AE5J0320485,414.3,859.8,72.2,5.7,5.1,0,333,DF020,08RDE5F001007H,08TLE4700X0040,,093AE5J0320485,,Android, 4.2.16,,,,,,
27,6/19/2018,48:41.5,0m 3.2s,3.2,39.96119032,-106.2164804,1.6,1.6,1.3,8130,0,1.5,0,0.2,0.5,0.5,-0.9,0,-5.4,-2.1,-100.8,259.2,Auto Takeoff,Auto Fly,Takeoff (App Auto),16,5,TRUE,,Mavic Pro,TRUE,FALSE,,Smart,RC,FALSE,TRUE,FALSE,,,TRUE,,FALSE,FALSE,FALSE,FALSE,FALSE,FALSE,FALSE,FALSE,FALSE,FALSE,0,Follow Yaw,-20.6,0,-101.6,258.4,FALSE,FALSE,FALSE,FALSE,FALSE,FALSE,,TRUE,Normal,,,1024,1024,1024,1024,0,FALSE,FALSE,FALSE,FALSE,FALSE,0,FALSE,FALSE,FALSE,FALSE,63,,,,11.469,FALSE,3.833,3.816,3.82,0.017,FALSE,FALSE,,,,,0,0,0,0,0,0,1390.31,,Idle,0,30,FALSE,10,TRUE,,Land,39.96118944,-106.2164844,1.2,8355.3,164,TRUE,1,1,FALSE,FALSE,FALSE,FALSE,0,TRUE,FALSE,FALSE,Course Lock,160.8,,16.4,Calm,45,Android, 4.2.16,DF020,08RDE5F001007H,08TLE4700X0040,,093AE5J0320485,414.3,859.8,72.2,5.7,5.1,0,333,DF020,08RDE5F001007H,08TLE4700X0040,,093AE5J0320485,,Android, 4.2.16,,,,,,
28,6/19/2018,48:41.5,0m 3.3s,3.3,39.96119035,-106.21648,1.6,1.6,1.6,8130,0,1.5,0,0.2,0.5,0.5,-0.9,0,-7,-2.2,-101.3,258.7,Auto Takeoff,Auto Fly,Takeoff (App Auto),16,5,TRUE,,Mavic Pro,TRUE,FALSE,,Smart,RC,FALSE,TRUE,FALSE,,,TRUE,,FALSE,FALSE,FALSE,FALSE,FALSE,FALSE,FALSE,FALSE,FALSE,FALSE,0,Follow Yaw,-20.6,0,-101.6,258.4,FALSE,FALSE,FALSE,FALSE,FALSE,FALSE,,TRUE,Normal,,,1024,1024,1024,1024,0,FALSE,FALSE,FALSE,FALSE,FALSE,0,FALSE,FALSE,FALSE,FALSE,63,,,,11.469,FALSE,3.833,3.816,3.82,0.017,FALSE,FALSE,,,,,0,0,0,0,0,0,1390.31,,Idle,0,30,FALSE,10,TRUE,,Land,39.96118944,-106.2164844,1.2,8355.3,164,TRUE,1,1,FALSE,FALSE,FALSE,FALSE,0,TRUE,FALSE,FALSE,Course Lock,160.8,,16.4,Calm,45,Android, 4.2.16,DF020,08RDE5F001007H,08TLE4700X0040,,093AE5J0320485,414.3,859.8,72.2,5.7,5.1,0,333,DF020,08RDE5F001007H,08TLE4700X0040,,093AE5J0320485,,Android, 4.2.16,,,,,,
29,6/19/2018,48:41.7,0m 3.4s,3.4,39.96119031,-106.2164797,2,2,1.6,8130,0,1.5,0,0.2,0.5,0.5,-0.9,0,-5.4,1.4,-101.5,258.5,Auto Takeoff,Auto Fly,Takeoff (App Auto),16,5,TRUE,,Mavic Pro,TRUE,FALSE,,Smart,RC,FALSE,TRUE,FALSE,,,TRUE,,FALSE,FALSE,FALSE,FALSE,FALSE,FALSE,FALSE,FALSE,FALSE,FALSE,0,Follow Yaw,-20.6,0,-101.6,258.4,FALSE,FALSE,FALSE,FALSE,FALSE,FALSE,,TRUE,Normal,,,1024,1024,1024,1024,0,FALSE,FALSE,FALSE,FALSE,FALSE,0,FALSE,FALSE,FALSE,FALSE,63,,,,11.469,FALSE,3.833,3.816,3.82,0.017,FALSE,FALSE,,,,,0,0,0,0,0,0,1390.31,,Idle,0,30,FALSE,10,TRUE,,Land,39.96118944,-106.2164844,1.4,8355.3,164,TRUE,1,1,FALSE,FALSE,FALSE,FALSE,0,TRUE,FALSE,FALSE,Course Lock,160.8,,16.4,Calm,45,Android, 4.2.16,DF020,08RDE5F001007H,08TLE4700X0040,,093AE5J0320485,414.3,859.8,72.2,5.7,5.1,0,333,DF020,08RDE5F001007H,08TLE4700X0040,,093AE5J0320485,,Android, 4.2.16,,,,,,
30,6/19/2018,48:41.8,0m 3.5s,3.5,39.96119026,-106.2164794,2,2,1.6,8130,0,1.5,0,0.2,0.5,0.5,-0.9,0,-2.9,1.8,-101.5,258.5,Auto Takeoff,Auto Fly,Takeoff (App Auto),16,5,TRUE,,Mavic Pro,TRUE,FALSE,,Smart,RC,FALSE,TRUE,FALSE,,,TRUE,,FALSE,FALSE,FALSE,FALSE,FALSE,FALSE,FALSE,FALSE,FALSE,FALSE,0,Follow Yaw,-20.6,0,-101.6,258.4,FALSE,FALSE,FALSE,FALSE,FALSE,FALSE,,TRUE,Normal,,,1024,1024,1024,1024,0,FALSE,FALSE,FALSE,FALSE,FALSE,0,FALSE,FALSE,FALSE,FALSE,63,,,,11.469,FALSE,3.833,3.816,3.82,0.017,FALSE,FALSE,,,,,0,0,0,0,0,0,1390.31,,Idle,0,30,FALSE,10,TRUE,,Land,39.96118944,-106.2164844,1.4,8355.3,164,TRUE,1,1,FALSE,FALSE,FALSE,FALSE,0,TRUE,FALSE,FALSE,Course Lock,160.8,,16.4,Calm,45,Android, 4.2.16,DF020,08RDE5F001007H,08TLE4700X0040,,093AE5J0320485,414.3,859.8,72.2,5.7,5.1,0,333,DF020,08RDE5F001007H,08TLE4700X0040,,093AE5J0320485,,Android, 4.2.16,,,,,,
31,6/19/2018,48:41.9,0m 3.6s,3.6,39.96119021,-106.2164792,2.3,2.3,2,8130,0,1.5,0,0.2,0.2,0.5,-0.9,0,-3.4,1.3,-101.2,258.8,Auto Takeoff,Auto Fly,Takeoff (App Auto),16,5,TRUE,,Mavic Pro,TRUE,FALSE,,Smart,RC,FALSE,TRUE,FALSE,,,TRUE,,FALSE,FALSE,FALSE,FALSE,FALSE,FALSE,FALSE,FALSE,FALSE,FALSE,0,Follow Yaw,-20.6,0,-101.6,258.4,FALSE,FALSE,FALSE,FALSE,FALSE,FALSE,,TRUE,Normal,,,1024,1024,1024,1024,0,FALSE,FALSE,FALSE,FALSE,FALSE,0,FALSE,FALSE,FALSE,FALSE,63,,,,11.546,FALSE,3.833,3.816,3.82,0.017,FALSE,FALSE,,,,,0,0,0,0,0,0,1607.13,,Idle,0,30,FALSE,10,TRUE,,Land,39.96118944,-106.2164844,1.5,8355.3,164,TRUE,1,1,FALSE,FALSE,FALSE,FALSE,0,TRUE,FALSE,FALSE,Course Lock,160.8,,16.4,Calm,45,Android, 4.2.16,DF020,08RDE5F001007H,08TLE4700X0040,,093AE5J0320485,414.3,859.8,72.2,5.7,5.1,0,333,DF020,08RDE5F001007H,08TLE4700X0040,,093AE5J0320485,,Android, 4.2.16,,,,,,
32,6/19/2018,48:42.0,0m 3.7s,3.7,39.96119012,-106.216479,2.3,2.3,2,8130,0,1.5,0,0.2,0.5,0.5,-1.1,0,-4.2,3.2,-101,259,Auto Takeoff,Auto Fly,Takeoff (App Auto),16,5,TRUE,,Mavic Pro,TRUE,FALSE,,Smart,RC,FALSE,TRUE,FALSE,,,TRUE,,FALSE,FALSE,FALSE,FALSE,FALSE,FALSE,FALSE,FALSE,FALSE,FALSE,0,Follow Yaw,-20.6,0,-101.6,258.4,FALSE,FALSE,FALSE,FALSE,FALSE,FALSE,,TRUE,Normal,,,1024,1024,1024,1024,0,FALSE,FALSE,FALSE,FALSE,FALSE,0,FALSE,FALSE,FALSE,FALSE,63,,,,11.546,FALSE,3.833,3.816,3.82,0.017,FALSE,FALSE,,,,,0,0,0,0,0,0,1607.13,,Idle,0,30,FALSE,10,TRUE,,Land,39.96118944,-106.2164844,1.5,8355.3,164,TRUE,1,1,FALSE,FALSE,FALSE,FALSE,0,TRUE,FALSE,FALSE,Course Lock,160.8,,16.4,Calm,45,Android, 4.2.16,DF020,08RDE5F001007H,08TLE4700X0040,,093AE5J0320485,414.3,859.8,72.2,5.7,5.1,0,333,DF020,08RDE5F001007H,08TLE4700X0040,,093AE5J0320485,,Android, 4.2.16,,,,,,
33,6/19/2018,48:42.0,0m 3.8s,3.8,39.96119009,-106.2164788,2.6,2.6,2.3,8130,0,1.5,0,0.2,0.2,0.5,-1.3,0,-5.1,2.6,-101.2,258.8,Auto Takeoff,Auto Fly,Takeoff (App Auto),16,5,TRUE,,Mavic Pro,TRUE,FALSE,,Smart,RC,FALSE,TRUE,FALSE,,,TRUE,,FALSE,FALSE,FALSE,FALSE,FALSE,FALSE,FALSE,FALSE,FALSE,FALSE,0,Follow Yaw,-20.6,0,-101.6,258.4,FALSE,FALSE,FALSE,FALSE,FALSE,FALSE,,TRUE,Normal,,,1024,1024,1024,1024,0,FALSE,FALSE,FALSE,FALSE,FALSE,0,FALSE,FALSE,FALSE,FALSE,63,,,,11.546,FALSE,3.833,3.816,3.82,0.017,FALSE,FALSE,,,,,0,0,0,0,0,0,1607.13,,Idle,0,30,FALSE,10,TRUE,,Land,39.96118944,-106.2164844,1.6,8355.3,164,TRUE,1,1,FALSE,FALSE,FALSE,FALSE,0,TRUE,FALSE,FALSE,Course Lock,160.8,,16.4,Calm,45,Android, 4.2.16,DF020,08RDE5F001007H,08TLE4700X0040,,093AE5J0320485,414.3,859.8,72.2,5.7,5.1,0,333,DF020,08RDE5F001007H,08TLE4700X0040,,093AE5J0320485,,Android, 4.2.16,,,,,,
34,6/19/2018,48:42.1,0m 3.9s,3.9,39.96119016,-106.2164787,3,3,2.6,8131,0,1.5,0,0.2,0.2,0.5,-1.6,0,-4.8,0.9,-101.4,258.6,Auto Takeoff,Auto Fly,Takeoff (App Auto),16,5,TRUE,,Mavic Pro,TRUE,FALSE,,Smart,RC,FALSE,TRUE,FALSE,,,TRUE,,FALSE,FALSE,FALSE,FALSE,FALSE,FALSE,FALSE,FALSE,FALSE,FALSE,0,Follow Yaw,-20.6,0,-101.6,258.4,FALSE,FALSE,FALSE,FALSE,FALSE,FALSE,,TRUE,Normal,,,1024,1024,1024,1024,0,FALSE,FALSE,FALSE,FALSE,FALSE,0,FALSE,FALSE,FALSE,FALSE,63,,,,11.546,FALSE,3.833,3.816,3.82,0.017,FALSE,FALSE,,,,,0,0,0,0,0,0,1607.13,,Idle,0,30,FALSE,10,TRUE,,Land,39.96118944,-106.2164844,1.6,8355.3,164,TRUE,1,1,FALSE,FALSE,FALSE,FALSE,0,TRUE,FALSE,FALSE,Course Lock,160.8,,16.4,Calm,45,Android, 4.2.16,DF020,08RDE5F001007H,08TLE4700X0040,,093AE5J0320485,414.3,859.8,72.2,5.7,5.1,0,333,DF020,08RDE5F001007H,08TLE4700X0040,,093AE5J0320485,,Android, 4.2.16,,,,,,
35,6/19/2018,48:42.2,0m 4.0s,4,39.96119023,-106.2164786,3,3,3,8131,0,1.5,0.2,0.2,0.2,0.5,-1.6,0,-3.6,-2.3,-101.5,258.5,Auto Takeoff,Auto Fly,Takeoff (App Auto),16,5,TRUE,,Mavic Pro,TRUE,FALSE,,Smart,RC,FALSE,TRUE,FALSE,,,TRUE,,FALSE,FALSE,FALSE,FALSE,FALSE,FALSE,FALSE,FALSE,FALSE,FALSE,0,Follow Yaw,-20.6,0,-101.6,258.4,FALSE,FALSE,FALSE,FALSE,FALSE,FALSE,,TRUE,Normal,,,1024,1024,1024,1024,0,FALSE,FALSE,FALSE,FALSE,FALSE,0,FALSE,FALSE,FALSE,FALSE,63,,,,11.39,FALSE,3.806,3.788,3.796,0.018,FALSE,FALSE,,,,,0,0,0,0,0,0,1607.13,,Idle,0,30,FALSE,10,TRUE,,Land,39.96118944,-106.2164844,1.7,8355.3,164,TRUE,1,1,FALSE,FALSE,FALSE,FALSE,0,TRUE,FALSE,FALSE,Course Lock,160.8,,16.4,Calm,45,Android, 4.2.16,DF020,08RDE5F001007H,08TLE4700X0040,,093AE5J0320485,414.3,859.8,72.2,5.7,5.1,0,333,DF020,08RDE5F001007H,08TLE4700X0040,,093AE5J0320485,,Android, 4.2.16,,,,,,
36,6/19/2018,48:42.3,0m 4.1s,4.1,39.96119035,-106.2164784,3.3,3.3,3.3,8131,0,1.5,0,0.2,0.2,0.5,-1.3,0,-4.2,-1.7,-101.4,258.6,Auto Takeoff,Auto Fly,Takeoff (App Auto),16,5,TRUE,,Mavic Pro,TRUE,FALSE,,Smart,RC,FALSE,TRUE,FALSE,,,TRUE,,FALSE,FALSE,FALSE,FALSE,FALSE,FALSE,FALSE,FALSE,FALSE,FALSE,0,Follow Yaw,-20.6,0,-101.6,258.4,FALSE,FALSE,FALSE,FALSE,FALSE,FALSE,,TRUE,Normal,,,1024,1024,1024,1024,0,FALSE,FALSE,FALSE,FALSE,FALSE,0,FALSE,FALSE,FALSE,FALSE,63,,,,11.39,FALSE,3.806,3.788,3.796,0.018,FALSE,FALSE,,,,,0,0,0,0,0,0,1607.13,,Idle,0,30,FALSE,10,TRUE,,Land,39.96118944,-106.2164844,1.7,8355.3,164,TRUE,1,1,FALSE,FALSE,FALSE,FALSE,0,TRUE,FALSE,FALSE,Course Lock,160.8,,16.4,Calm,45,Android, 4.2.16,DF020,08RDE5F001007H,08TLE4700X0040,,093AE5J0320485,414.3,859.8,72.2,5.7,5.1,0,333,DF020,08RDE5F001007H,08TLE4700X0040,,093AE5J0320485,,Android, 4.2.16,,,,,,
37,6/19/2018,48:42.4,0m 4.2s,4.2,39.9611904,-106.2164782,3.3,3.3,3.3,8131,1.1,1.5,0,0.2,0.5,0.5,-1.1,0,-3.1,3,-101.2,258.8,Auto Takeoff,Auto Fly,Takeoff (App Auto),16,5,TRUE,,Mavic Pro,TRUE,FALSE,,Smart,RC,FALSE,TRUE,FALSE,,,TRUE,,FALSE,FALSE,FALSE,FALSE,FALSE,FALSE,FALSE,FALSE,FALSE,FALSE,0,Follow Yaw,-20.6,0,-101.6,258.4,FALSE,FALSE,FALSE,FALSE,FALSE,FALSE,,TRUE,Normal,,,1024,1024,1024,1024,0,FALSE,FALSE,FALSE,FALSE,FALSE,0,FALSE,FALSE,FALSE,FALSE,63,,,,11.39,FALSE,3.806,3.788,3.796,0.018,FALSE,FALSE,,,,,0,0,0,0,0,0,1607.13,,Idle,0,30,FALSE,10,TRUE,,Land,39.96118944,-106.2164844,1.8,8355.3,164,TRUE,1,1,FALSE,FALSE,FALSE,FALSE,0,TRUE,FALSE,FALSE,Course Lock,160.8,,16.4,Calm,45,Android, 4.2.16,DF020,08RDE5F001007H,08TLE4700X0040,,093AE5J0320485,414.3,859.8,72.2,5.7,5.1,0,333,DF020,08RDE5F001007H,08TLE4700X0040,,093AE5J0320485,,Android, 4.2.16,,,,,,
38,6/19/2018,48:42.5,0m 4.3s,4.3,39.96119049,-106.216478,3.6,3.6,3.6,8131,0,1.5,0,0.2,0.5,0.5,-1.1,0,-4.5,2.8,-100.9,259.1,Auto Takeoff,Auto Fly,,16,5,TRUE,,Mavic Pro,TRUE,FALSE,,Smart,RC,FALSE,TRUE,FALSE,,,TRUE,,FALSE,FALSE,FALSE,FALSE,FALSE,FALSE,FALSE,FALSE,FALSE,FALSE,0,Follow Yaw,-20.6,0,-101.6,258.4,FALSE,FALSE,FALSE,FALSE,FALSE,FALSE,,TRUE,Normal,,,1024,1024,1024,1024,0,FALSE,FALSE,FALSE,FALSE,FALSE,0,FALSE,FALSE,FALSE,FALSE,63,,,,11.39,FALSE,3.806,3.788,3.796,0.018,FALSE,FALSE,,,,,0,0,0,0,0,0,1607.13,,Idle,0,30,FALSE,10,TRUE,,Land,39.96118944,-106.2164844,1.8,8355.3,164,TRUE,1,1,FALSE,FALSE,FALSE,FALSE,0,TRUE,FALSE,FALSE,Course Lock,160.8,,16.4,Calm,45,Android, 4.2.16,DF020,08RDE5F001007H,08TLE4700X0040,,093AE5J0320485,414.3,859.8,72.2,5.7,5.1,0,333,DF020,08RDE5F001007H,08TLE4700X0040,,093AE5J0320485,,Android, 4.2.16,,,,,,
39,6/19/2018,48:42.6,0m 4.4s,4.4,39.96119063,-106.2164778,3.9,3.9,3.6,8132,0,1.5,0.2,0.2,0.5,0.5,-0.9,0,-5.4,0.5,-100.9,259.1,P-GPS,Auto Fly,,16,5,TRUE,,Mavic Pro,TRUE,FALSE,,Smart,RC,FALSE,TRUE,FALSE,,,TRUE,,FALSE,FALSE,FALSE,FALSE,FALSE,FALSE,FALSE,FALSE,FALSE,FALSE,0,Follow Yaw,-20.6,0,-101.6,258.4,FALSE,FALSE,FALSE,FALSE,FALSE,FALSE,,TRUE,Normal,,,1024,1024,1024,1024,0,FALSE,FALSE,FALSE,FALSE,FALSE,0,FALSE,FALSE,FALSE,FALSE,63,,,,11.39,FALSE,3.806,3.788,3.796,0.018,FALSE,FALSE,,,,,0,0,0,0,0,0,1607.13,,Idle,0,30,FALSE,10,TRUE,,Land,39.96118944,-106.2164844,1.9,8355.3,164,TRUE,1,1,FALSE,FALSE,FALSE,FALSE,0,TRUE,FALSE,FALSE,Course Lock,160.8,,16.4,Calm,45,Android, 4.2.16,DF020,08RDE5F001007H,08TLE4700X0040,,093AE5J0320485,414.3,859.8,72.2,5.7,5.1,0,333,DF020,08RDE5F001007H,08TLE4700X0040,,093AE5J0320485,,Android, 4.2.16,,,,,,
40,6/19/2018,48:42.7,0m 4.5s,4.5,39.96119087,-106.2164776,3.9,3.9,3.9,8132,0,1.5,0.2,0.2,0.5,0.5,-0.7,0,-5.9,-0.8,-101.1,258.9,P-GPS,Auto Fly,,16,5,TRUE,,Mavic Pro,TRUE,FALSE,,Smart,RC,FALSE,TRUE,FALSE,,,TRUE,,FALSE,FALSE,FALSE,FALSE,FALSE,FALSE,FALSE,FALSE,FALSE,FALSE,0,Follow Yaw,-20.6,0,-101.6,258.4,FALSE,FALSE,FALSE,FALSE,FALSE,FALSE,,TRUE,Normal,,,1024,1024,1024,1024,0,FALSE,FALSE,FALSE,FALSE,FALSE,0,FALSE,FALSE,FALSE,FALSE,63,,,,11.39,FALSE,3.806,3.788,3.796,0.018,FALSE,FALSE,,,,,0,0,0,0,0,0,1607.13,,Idle,0,30,FALSE,10,TRUE,,Land,39.96118944,-106.2164844,2,8355.3,164,TRUE,1,1,FALSE,FALSE,FALSE,FALSE,0,TRUE,FALSE,FALSE,Course Lock,160.8,,16.4,Calm,45,Android, 4.2.16,DF020,08RDE5F001007H,08TLE4700X0040,,093AE5J0320485,414.3,859.8,72.2,5.7,5.1,0,333,DF020,08RDE5F001007H,08TLE4700X0040,,093AE5J0320485,,Android, 4.2.16,,,,,,
41,6/19/2018,48:42.8,0m 4.6s,4.6,39.96119109,-106.2164773,3.9,3.9,3.9,8132,1.1,1.5,0.2,0.2,0.5,0.5,-0.5,0,-5.8,-0.8,-101.1,258.9,P-GPS,Auto Fly,,16,5,TRUE,,Mavic Pro,TRUE,FALSE,,Smart,RC,FALSE,TRUE,FALSE,,,TRUE,,FALSE,FALSE,FALSE,FALSE,FALSE,FALSE,FALSE,FALSE,FALSE,FALSE,0,Follow Yaw,-20.6,0,-101.6,258.4,FALSE,FALSE,FALSE,FALSE,FALSE,FALSE,,TRUE,Normal,,,1024,1024,1024,1024,0,FALSE,FALSE,FALSE,FALSE,FALSE,0,FALSE,FALSE,FALSE,FALSE,63,,,,11.661,FALSE,3.806,3.788,3.796,0.018,FALSE,FALSE,,,,,0,0,0,0,0,0,2196.49,,Idle,0,30,FALSE,10,TRUE,,Land,39.96118944,-106.2164844,2.1,8355.3,164,TRUE,1,1,FALSE,FALSE,FALSE,FALSE,0,TRUE,FALSE,FALSE,Course Lock,160.8,,16.4,Calm,45,Android, 4.2.16,DF020,08RDE5F001007H,08TLE4700X0040,,093AE5J0320485,414.3,859.8,72.2,5.7,5.1,0,333,DF020,08RDE5F001007H,08TLE4700X0040,,093AE5J0320485,,Android, 4.2.16,,,,,,
42,6/19/2018,48:42.8,0m 4.7s,4.7,39.96119137,-106.2164771,4.3,4.3,3.9,8132,0,1.5,0.2,0.2,0.5,0.5,-0.5,0,-5.2,-1.1,-101.3,258.7,P-GPS,Auto Fly,,16,5,TRUE,,Mavic Pro,TRUE,FALSE,,Smart,RC,FALSE,TRUE,FALSE,,,TRUE,,FALSE,FALSE,FALSE,FALSE,FALSE,FALSE,FALSE,FALSE,FALSE,FALSE,0,Follow Yaw,-20.6,0,-101.6,258.4,FALSE,FALSE,FALSE,FALSE,FALSE,FALSE,,TRUE,Normal,,,1024,1024,1024,1024,0,FALSE,FALSE,FALSE,FALSE,FALSE,0,FALSE,FALSE,FALSE,FALSE,63,,,,11.661,FALSE,3.806,3.788,3.796,0.018,FALSE,FALSE,,,,,0,0,0,0,0,0,2196.49,,Idle,0,30,FALSE,10,TRUE,,Land,39.96118944,-106.2164844,2.2,8355.3,164,TRUE,1,1,FALSE,FALSE,FALSE,FALSE,0,TRUE,FALSE,FALSE,Course Lock,160.8,,16.4,Calm,45,Android, 4.2.16,DF020,08RDE5F001007H,08TLE4700X0040,,093AE5J0320485,414.3,859.8,72.2,5.7,5.1,0,333,DF020,08RDE5F001007H,08TLE4700X0040,,093AE5J0320485,,Android, 4.2.16,,,,,,
43,6/19/2018,48:43.0,0m 4.8s,4.8,39.96119162,-106.2164768,4.3,4.3,3.9,8132,0,1.5,0.5,0.5,0.5,0.5,0,0,-5.6,-1.2,-101.2,258.8,P-GPS,Auto Fly,,16,5,TRUE,,Mavic Pro,TRUE,FALSE,,Smart,RC,FALSE,TRUE,FALSE,,,TRUE,,FALSE,FALSE,FALSE,FALSE,FALSE,FALSE,FALSE,FALSE,FALSE,FALSE,0,Follow Yaw,-20.6,0,-101.6,258.4,FALSE,FALSE,FALSE,FALSE,FALSE,FALSE,,TRUE,Normal,,,1024,1024,1024,1024,0,FALSE,FALSE,FALSE,FALSE,FALSE,0,FALSE,FALSE,FALSE,FALSE,63,,,,11.661,FALSE,3.806,3.788,3.796,0.018,FALSE,FALSE,,,,,0,0,0,0,0,0,2196.49,,Idle,0,30,FALSE,10,TRUE,,Land,39.96118944,-106.2164844,2.3,8355.3,164,TRUE,1,1,FALSE,FALSE,FALSE,FALSE,0,TRUE,FALSE,FALSE,Course Lock,160.8,,16.4,Calm,45,Android, 4.2.16,DF020,08RDE5F001007H,08TLE4700X0040,,093AE5J0320485,414.3,859.8,72.2,5.7,5.1,0,333,DF020,08RDE5F001007H,08TLE4700X0040,,093AE5J0320485,,Android, 4.2.16,,,,,,
44,6/19/2018,48:43.0,0m 4.9s,4.9,39.96119184,-106.2164765,4.3,4.3,3.9,8132,0,1.5,0.2,0.5,0.5,0.5,0,0,-5.8,-1.7,-101.3,258.7,P-GPS,Auto Fly,,16,5,TRUE,,Mavic Pro,TRUE,FALSE,,Smart,RC,FALSE,TRUE,FALSE,,,TRUE,,FALSE,FALSE,FALSE,FALSE,FALSE,FALSE,FALSE,FALSE,FALSE,FALSE,0,Follow Yaw,-20.6,0,-101.6,258.4,FALSE,FALSE,FALSE,FALSE,FALSE,FALSE,,TRUE,Normal,,,1024,1024,1024,1024,0,FALSE,FALSE,FALSE,FALSE,FALSE,0,FALSE,FALSE,FALSE,FALSE,63,,,,11.661,FALSE,3.806,3.788,3.796,0.018,FALSE,FALSE,,,,,0,0,0,0,0,0,2196.49,,Idle,0,30,FALSE,10,TRUE,,Land,39.96118944,-106.2164844,2.4,8355.3,164,TRUE,1,1,FALSE,FALSE,FALSE,FALSE,0,TRUE,FALSE,FALSE,Course Lock,160.8,,16.4,Calm,45,Android, 4.2.16,DF020,08RDE5F001007H,08TLE4700X0040,,093AE5J0320485,414.3,859.8,72.2,5.7,5.1,0,333,DF020,08RDE5F001007H,08TLE4700X0040,,093AE5J0320485,,Android, 4.2.16,,,,,,
45,6/19/2018,48:43.1,0m 5.0s,5,39.96119205,-106.2164763,4.3,4.3,3.9,8132,0,1.5,0.5,0.5,0.5,0.5,0,0,-5.7,-1.6,-101.5,258.5,P-GPS,Auto Fly,,16,5,TRUE,,Mavic Pro,TRUE,FALSE,,Smart,RC,FALSE,TRUE,FALSE,,,TRUE,,FALSE,FALSE,FALSE,FALSE,FALSE,FALSE,FALSE,FALSE,FALSE,FALSE,0,Follow Yaw,-20.6,0,-101.6,258.4,FALSE,FALSE,FALSE,FALSE,FALSE,FALSE,,TRUE,Normal,,,1024,1024,1024,1024,0,FALSE,FALSE,FALSE,FALSE,FALSE,0,FALSE,FALSE,FALSE,FALSE,63,,,,11.39,FALSE,3.806,3.788,3.796,0.018,FALSE,FALSE,,,,,0,0,0,0,0,0,2196.49,,Idle,0,30,FALSE,10,TRUE,,Land,39.96118944,-106.2164844,2.5,8355.3,164,TRUE,1,1,FALSE,FALSE,FALSE,FALSE,0,TRUE,FALSE,FALSE,Course Lock,160.8,,16.4,Calm,45,Android, 4.2.16,DF020,08RDE5F001007H,08TLE4700X0040,,093AE5J0320485,414.3,859.8,72.2,5.7,5.1,0,333,DF020,08RDE5F001007H,08TLE4700X0040,,093AE5J0320485,,Android, 4.2.16,,,,,,
46,6/19/2018,48:43.2,0m 5.1s,5.1,39.96119229,-106.216476,4.3,4.3,3.9,8132,0,1.5,0.2,0.5,0.5,0.5,0,0,-4.1,-1.1,-101.3,258.7,P-GPS,Auto Fly,,16,5,TRUE,,Mavic Pro,TRUE,FALSE,,Smart,RC,FALSE,TRUE,FALSE,,,TRUE,,FALSE,FALSE,FALSE,FALSE,FALSE,FALSE,FALSE,FALSE,FALSE,FALSE,0,Follow Yaw,-20.6,0,-101.6,258.4,FALSE,FALSE,FALSE,FALSE,FALSE,FALSE,,TRUE,Normal,,,1024,1024,1024,1024,0,FALSE,FALSE,FALSE,FALSE,FALSE,0,FALSE,FALSE,FALSE,FALSE,63,,,,11.39,FALSE,3.806,3.788,3.796,0.018,FALSE,FALSE,,,,,0,0,0,0,0,0,2196.49,,Idle,0,30,FALSE,10,TRUE,,Land,39.96118944,-106.2164844,2.6,8355.3,164,TRUE,1,1,FALSE,FALSE,FALSE,FALSE,0,TRUE,FALSE,FALSE,Course Lock,160.8,,16.4,Calm,45,Android, 4.2.16,DF020,08RDE5F001007H,08TLE4700X0040,,093AE5J0320485,414.3,859.8,72.2,5.7,5.1,0,333,DF020,08RDE5F001007H,08TLE4700X0040,,093AE5J0320485,,Android, 4.2.16,,,,,,
47,6/19/2018,48:43.3,0m 5.2s,5.2,39.9611925,-106.2164757,4.3,4.3,3.9,8132,0,1.5,0.2,0.5,0.5,0.5,0,0,-3.9,-3.3,-101.3,258.7,P-GPS,Auto Fly,,16,5,TRUE,,Mavic Pro,TRUE,FALSE,,Smart,RC,FALSE,TRUE,FALSE,,,TRUE,,FALSE,FALSE,FALSE,FALSE,FALSE,FALSE,FALSE,FALSE,FALSE,FALSE,0,Follow Yaw,-20.6,0,-101.6,258.4,FALSE,FALSE,FALSE,FALSE,FALSE,FALSE,,TRUE,Normal,,,1024,1024,1024,1024,0,FALSE,FALSE,FALSE,FALSE,FALSE,0,FALSE,FALSE,FALSE,FALSE,63,,,,11.39,FALSE,3.806,3.788,3.796,0.018,FALSE,FALSE,,,,,0,0,0,0,0,0,2196.49,,Idle,0,30,FALSE,10,TRUE,,Land,39.96118944,-106.2164844,2.7,8355.3,164,TRUE,1,1,FALSE,FALSE,FALSE,FALSE,0,TRUE,FALSE,FALSE,Course Lock,160.8,,16.4,Calm,45,Android, 4.2.16,DF020,08RDE5F001007H,08TLE4700X0040,,093AE5J0320485,414.3,859.8,72.2,5.7,5.1,0,333,DF020,08RDE5F001007H,08TLE4700X0040,,093AE5J0320485,,Android, 4.2.16,,,,,,
48,6/19/2018,48:43.4,0m 5.3s,5.3,39.96119266,-106.2164754,4.3,4.3,3.9,8132,1.1,1.5,0.2,0.5,0.7,0.7,0,0,-7.9,-2.4,-101.6,258.4,P-GPS,Auto Fly,,16,5,TRUE,,Mavic Pro,TRUE,FALSE,,Smart,RC,FALSE,TRUE,FALSE,,,TRUE,,FALSE,FALSE,FALSE,FALSE,FALSE,FALSE,FALSE,FALSE,FALSE,FALSE,0,Follow Yaw,-20.6,0,-101.6,258.4,FALSE,FALSE,FALSE,FALSE,FALSE,FALSE,,TRUE,Normal,,,1024,1024,1024,1024,0,FALSE,FALSE,FALSE,FALSE,FALSE,0,FALSE,FALSE,FALSE,FALSE,63,,,,11.39,FALSE,3.806,3.788,3.796,0.018,FALSE,FALSE,,,,,0,0,0,0,0,0,2196.49,,Idle,0,30,FALSE,10,TRUE,,Land,39.96118944,-106.2164844,2.8,8355.3,164,TRUE,1,1,FALSE,FALSE,FALSE,FALSE,0,TRUE,FALSE,FALSE,Course Lock,160.8,,16.4,Calm,45,Android, 4.2.16,DF020,08RDE5F001007H,08TLE4700X0040,,093AE5J0320485,414.3,859.8,72.2,5.7,5.1,0,333,DF020,08RDE5F001007H,08TLE4700X0040,,093AE5J0320485,,Android, 4.2.16,,,,,,
49,6/19/2018,48:43.5,0m 5.4s,5.4,39.96119277,-106.2164751,4.3,4.3,3.9,8132,1.1,1.5,0,0.5,0.7,0.7,0,0,-8.5,0.1,-101.4,258.6,P-GPS,Auto Fly,,16,5,TRUE,,Mavic Pro,TRUE,FALSE,,Smart,RC,FALSE,TRUE,FALSE,,,TRUE,,FALSE,FALSE,FALSE,FALSE,FALSE,FALSE,FALSE,FALSE,FALSE,FALSE,0,Follow Yaw,-20.6,0,-101.6,258.4,FALSE,FALSE,FALSE,FALSE,FALSE,FALSE,,TRUE,Normal,,,1024,1024,1024,1024,0,FALSE,FALSE,FALSE,FALSE,FALSE,0,FALSE,FALSE,FALSE,FALSE,63,,,,11.39,FALSE,3.806,3.788,3.796,0.018,FALSE,FALSE,,,,,0,0,0,0,0,0,2196.49,,Idle,0,30,FALSE,10,TRUE,,Land,39.96118944,-106.2164844,2.9,8355.3,164,TRUE,1,1,FALSE,FALSE,FALSE,FALSE,0,TRUE,FALSE,FALSE,Course Lock,160.8,,16.4,Calm,45,Android, 4.2.16,DF020,08RDE5F001007H,08TLE4700X0040,,093AE5J0320485,414.3,859.8,72.2,5.7,5.1,0,333,DF020,08RDE5F001007H,08TLE4700X0040,,093AE5J0320485,,Android, 4.2.16,,,,,,
50,6/19/2018,48:43.6,0m 5.5s,5.5,39.96119291,-106.2164747,4.3,4.3,3.9,8132,1.5,1.5,0.2,0.5,0.5,0.7,0,0,-7.6,0.3,-101.2,258.8,P-GPS,Auto Fly,,16,5,TRUE,,Mavic Pro,TRUE,FALSE,,Smart,RC,FALSE,TRUE,FALSE,,,TRUE,,FALSE,FALSE,FALSE,FALSE,FALSE,FALSE,FALSE,FALSE,FALSE,FALSE,0,Follow Yaw,-20.6,0,-101.6,258.4,FALSE,FALSE,FALSE,FALSE,FALSE,FALSE,,TRUE,Normal,,,1024,1024,1024,1024,0,FALSE,FALSE,FALSE,FALSE,FALSE,0,FALSE,FALSE,FALSE,FALSE,63,,,,11.39,FALSE,3.806,3.788,3.796,0.018,FALSE,FALSE,,,,,0,0,0,0,0,0,2196.49,,Idle,0,30,FALSE,10,TRUE,,Land,39.96118944,-106.2164844,3,8355.3,164,TRUE,1,1,FALSE,FALSE,FALSE,FALSE,0,TRUE,FALSE,FALSE,Course Lock,160.8,,16.4,Calm,45,Android, 4.2.16,DF020,08RDE5F001007H,08TLE4700X0040,,093AE5J0320485,414.3,859.8,72.2,5.7,5.1,0,333,DF020,08RDE5F001007H,08TLE4700X0040,,093AE5J0320485,,Android, 4.2.16,,,,,,
51,6/19/2018,48:43.8,0m 5.6s,5.6,39.96119306,-106.2164743,3.9,4.3,3.9,8132,1.5,1.5,0.2,0.5,0.5,0.7,0,0,-7.3,-1.1,-101.1,258.9,P-GPS,Auto Fly,,16,5,TRUE,,Mavic Pro,TRUE,FALSE,,Smart,RC,FALSE,TRUE,FALSE,,,TRUE,,FALSE,FALSE,FALSE,FALSE,FALSE,FALSE,FALSE,FALSE,FALSE,FALSE,0,Follow Yaw,-20.6,0,-101.6,258.4,FALSE,FALSE,FALSE,FALSE,FALSE,FALSE,,TRUE,Normal,,,1024,1024,1024,1024,0,FALSE,FALSE,FALSE,FALSE,FALSE,0,FALSE,FALSE,FALSE,FALSE,63,,,,11.529,FALSE,3.806,3.788,3.796,0.018,FALSE,FALSE,,,,,0,0,0,0,0,0,3172.28,,Idle,0,30,FALSE,10,TRUE,,Land,39.96118944,-106.2164844,3.1,8355.3,164,TRUE,1,1,FALSE,FALSE,FALSE,FALSE,0,TRUE,FALSE,FALSE,Course Lock,160.8,,16.4,Calm,45,Android, 4.2.16,DF020,08RDE5F001007H,08TLE4700X0040,,093AE5J0320485,414.3,859.8,72.2,5.7,5.1,0,333,DF020,08RDE5F001007H,08TLE4700X0040,,093AE5J0320485,,Android, 4.2.16,,,,,,
52,6/19/2018,48:43.9,0m 5.7s,5.7,39.96119318,-106.2164741,3.9,4.3,3.9,8132,1.5,1.5,0.2,0.5,0.5,0.7,0,0,-7.1,-1,-101.1,258.9,P-GPS,Auto Fly,,16,5,TRUE,,Mavic Pro,TRUE,FALSE,,Smart,RC,FALSE,TRUE,FALSE,,,TRUE,,FALSE,FALSE,FALSE,FALSE,FALSE,FALSE,FALSE,FALSE,FALSE,FALSE,0,Follow Yaw,-20.6,0,-101.6,258.4,FALSE,FALSE,FALSE,FALSE,FALSE,FALSE,,TRUE,Normal,,,1024,1024,1024,1024,0,FALSE,FALSE,FALSE,FALSE,FALSE,0,FALSE,FALSE,FALSE,FALSE,63,,,,11.529,FALSE,3.806,3.788,3.796,0.018,FALSE,FALSE,,,,,0,0,0,0,0,0,3172.28,,Idle,0,30,FALSE,10,TRUE,,Land,39.96118944,-106.2164844,3.2,8355.3,164,TRUE,1,1,FALSE,FALSE,FALSE,FALSE,0,TRUE,FALSE,FALSE,Course Lock,160.8,,16.4,Calm,45,Android, 4.2.16,DF020,08RDE5F001007H,08TLE4700X0040,,093AE5J0320485,414.3,859.8,72.2,5.7,5.1,0,333,DF020,08RDE5F001007H,08TLE4700X0040,,093AE5J0320485,,Android, 4.2.16,,,,,,
53,6/19/2018,48:44.0,0m 5.8s,5.8,39.96119328,-106.2164738,3.9,4.3,3.9,8132,0,1.5,0,0.5,0.5,0.7,0,0,-7.6,0.7,-101,259,P-GPS,Auto Fly,,16,5,TRUE,,Mavic Pro,TRUE,FALSE,,Smart,RC,FALSE,TRUE,FALSE,,,TRUE,,FALSE,FALSE,FALSE,FALSE,FALSE,FALSE,FALSE,FALSE,FALSE,FALSE,0,Follow Yaw,-20.6,0,-101.6,258.4,FALSE,FALSE,FALSE,FALSE,FALSE,FALSE,,TRUE,Normal,,,1024,1024,1024,1024,0,FALSE,FALSE,FALSE,FALSE,FALSE,0,FALSE,FALSE,FALSE,FALSE,63,,,,11.529,FALSE,3.806,3.788,3.796,0.018,FALSE,FALSE,,,,,0,0,0,0,0,0,3172.28,,Idle,0,30,FALSE,10,TRUE,,Land,39.96118944,-106.2164844,3.3,8355.3,164,TRUE,1,1,FALSE,FALSE,FALSE,FALSE,0,TRUE,FALSE,FALSE,Course Lock,160.8,,16.4,Calm,45,Android, 4.2.16,DF020,08RDE5F001007H,08TLE4700X0040,,093AE5J0320485,414.3,859.8,72.2,5.7,5.1,0,333,DF020,08RDE5F001007H,08TLE4700X0040,,093AE5J0320485,,Android, 4.2.16,,,,,,
54,6/19/2018,48:44.1,0m 5.9s,5.9,39.96119341,-106.2164736,3.9,4.3,3.9,8132,0,1.5,0.2,0.5,0.2,0.7,0,0,-6.4,0,-100.9,259.1,P-GPS,Auto Fly,,16,5,TRUE,,Mavic Pro,TRUE,FALSE,,Smart,RC,FALSE,TRUE,FALSE,,,TRUE,,FALSE,FALSE,FALSE,FALSE,FALSE,FALSE,FALSE,FALSE,FALSE,FALSE,0,Follow Yaw,-20.6,0,-101.6,258.4,FALSE,FALSE,FALSE,FALSE,FALSE,FALSE,,TRUE,Normal,,,1024,1024,1024,1024,0,FALSE,FALSE,FALSE,FALSE,FALSE,0,FALSE,FALSE,FALSE,FALSE,63,,,,11.529,FALSE,3.806,3.788,3.796,0.018,FALSE,FALSE,,,,,0,0,0,0,0,0,3172.28,,Idle,0,30,FALSE,10,TRUE,,Land,39.96118944,-106.2164844,3.4,8355.3,164,TRUE,1,1,FALSE,FALSE,FALSE,FALSE,0,TRUE,FALSE,FALSE,Course Lock,160.8,,16.4,Calm,45,Android, 4.2.16,DF020,08RDE5F001007H,08TLE4700X0040,,093AE5J0320485,414.3,859.8,72.2,5.7,5.1,0,333,DF020,08RDE5F001007H,08TLE4700X0040,,093AE5J0320485,,Android, 4.2.16,,,,,,
55,6/19/2018,48:44.2,0m 6.0s,6,39.96119357,-106.2164733,3.9,4.3,3.9,8132,0,1.5,0.2,0.5,0.5,0.7,0,0,-6.5,-1.7,-100.9,259.1,P-GPS,Auto Fly,,16,5,TRUE,,Mavic Pro,TRUE,FALSE,,Smart,RC,FALSE,TRUE,FALSE,,,TRUE,,FALSE,FALSE,FALSE,FALSE,FALSE,FALSE,FALSE,FALSE,FALSE,FALSE,0,Follow Yaw,-20.6,0,-101.6,258.4,FALSE,FALSE,FALSE,FALSE,FALSE,FALSE,,TRUE,Normal,,,1024,1024,1024,1024,0,FALSE,FALSE,FALSE,FALSE,FALSE,0,FALSE,FALSE,FALSE,FALSE,63,,,,11.429,FALSE,3.817,3.802,3.81,0.018,FALSE,FALSE,,,,,0,0,0,0,0,0,3172.28,,Idle,0,30,FALSE,10,TRUE,,Land,39.96118944,-106.2164844,3.4,8355.3,164,TRUE,1,1,FALSE,FALSE,FALSE,FALSE,0,TRUE,FALSE,FALSE,Course Lock,160.8,,16.4,Calm,45,Android, 4.2.16,DF020,08RDE5F001007H,08TLE4700X0040,,093AE5J0320485,414.3,859.8,72.2,5.7,5.1,0,333,DF020,08RDE5F001007H,08TLE4700X0040,,093AE5J0320485,,Android, 4.2.16,,,,,,
56,6/19/2018,48:44.3,0m 6.1s,6.1,39.96119376,-106.2164731,3.9,4.3,3.9,8132,0,1.5,0.2,0.5,0.5,0.7,0,0,-7,-2.6,-101.1,258.9,P-GPS,Auto Fly,,16,5,TRUE,,Mavic Pro,TRUE,FALSE,,Smart,RC,FALSE,TRUE,FALSE,,,TRUE,,FALSE,FALSE,FALSE,FALSE,FALSE,FALSE,FALSE,FALSE,FALSE,FALSE,0,Follow Yaw,-20.6,0,-101.6,258.4,FALSE,FALSE,FALSE,FALSE,FALSE,FALSE,,TRUE,Normal,,,1024,1024,1024,1024,0,FALSE,FALSE,FALSE,FALSE,FALSE,0,FALSE,FALSE,FALSE,FALSE,63,,,,11.429,FALSE,3.817,3.802,3.81,0.018,FALSE,FALSE,,,,,0,0,0,0,0,0,3172.28,,Idle,0,30,FALSE,10,TRUE,,Land,39.96118944,-106.2164844,3.5,8355.3,164,TRUE,1,1,FALSE,FALSE,FALSE,FALSE,0,TRUE,FALSE,FALSE,Course Lock,160.8,,16.4,Calm,45,Android, 4.2.16,DF020,08RDE5F001007H,08TLE4700X0040,,093AE5J0320485,414.3,859.8,72.2,5.7,5.1,0,333,DF020,08RDE5F001007H,08TLE4700X0040,,093AE5J0320485,,Android, 4.2.16,,,,,,
57,6/19/2018,48:44.4,0m 6.2s,6.2,39.96119391,-106.2164729,3.9,4.3,3.9,8132,0,1.5,0.2,0.5,0.2,0.7,0,0,-7.6,-0.9,-100.9,259.1,P-GPS,Auto Fly,,16,5,TRUE,,Mavic Pro,TRUE,FALSE,,Smart,RC,FALSE,TRUE,FALSE,,,TRUE,,FALSE,FALSE,FALSE,FALSE,FALSE,FALSE,FALSE,FALSE,FALSE,FALSE,0,Follow Yaw,-20.6,0,-101.6,258.4,FALSE,FALSE,FALSE,FALSE,FALSE,FALSE,,TRUE,Normal,,,1024,1024,1024,1024,0,FALSE,FALSE,FALSE,FALSE,FALSE,0,FALSE,FALSE,FALSE,FALSE,63,,,,11.429,FALSE,3.817,3.802,3.81,0.018,FALSE,FALSE,,,,,0,0,0,0,0,0,3172.28,,Idle,0,30,FALSE,10,TRUE,,Land,39.96118944,-106.2164844,3.6,8355.3,164,TRUE,1,1,FALSE,FALSE,FALSE,FALSE,0,TRUE,FALSE,FALSE,Course Lock,160.8,,16.4,Calm,45,Android, 4.2.16,DF020,08RDE5F001007H,08TLE4700X0040,,093AE5J0320485,414.3,859.8,72.2,5.7,5.1,0,333,DF020,08RDE5F001007H,08TLE4700X0040,,093AE5J0320485,,Android, 4.2.16,,,,,,
58,6/19/2018,48:44.5,0m 6.3s,6.3,39.96119409,-106.2164728,3.9,4.3,3.9,8132,0,1.5,0.2,0.5,0.2,0.7,0,0,-7,0.2,-100.7,259.3,P-GPS,Auto Fly,,16,5,TRUE,,Mavic Pro,TRUE,FALSE,,Smart,RC,FALSE,TRUE,FALSE,,,TRUE,,FALSE,FALSE,FALSE,FALSE,FALSE,FALSE,FALSE,FALSE,FALSE,FALSE,0,Follow Yaw,-20.6,0,-101.6,258.4,FALSE,FALSE,FALSE,FALSE,FALSE,FALSE,,TRUE,Normal,,,1024,1024,1024,1024,0,FALSE,FALSE,FALSE,FALSE,FALSE,0,FALSE,FALSE,FALSE,FALSE,63,,,,11.429,FALSE,3.817,3.802,3.81,0.018,FALSE,FALSE,,,,,0,0,0,0,0,0,3172.28,,Idle,0,30,FALSE,10,TRUE,,Land,39.96118944,-106.2164844,3.7,8355.3,164,TRUE,1,1,FALSE,FALSE,FALSE,FALSE,0,TRUE,FALSE,FALSE,Course Lock,160.8,,16.4,Calm,45,Android, 4.2.16,DF020,08RDE5F001007H,08TLE4700X0040,,093AE5J0320485,414.3,859.8,72.2,5.7,5.1,0,333,DF020,08RDE5F001007H,08TLE4700X0040,,093AE5J0320485,,Android, 4.2.16,,,,,,
59,6/19/2018,48:44.6,0m 6.4s,6.4,39.96119429,-106.2164727,3.9,4.3,3.9,8132,0,1.5,0.5,0.5,0,0.7,0,0,-5.5,-1,-101,259,P-GPS,Auto Fly,,16,5,TRUE,,Mavic Pro,TRUE,FALSE,,Smart,RC,FALSE,TRUE,FALSE,,,TRUE,,FALSE,FALSE,FALSE,FALSE,FALSE,FALSE,FALSE,FALSE,FALSE,FALSE,0,Follow Yaw,-20.6,0,-101.6,258.4,FALSE,FALSE,FALSE,FALSE,FALSE,FALSE,,TRUE,Normal,,,1024,1024,1024,1024,0,FALSE,FALSE,FALSE,FALSE,FALSE,0,FALSE,FALSE,FALSE,FALSE,63,,,,11.429,FALSE,3.817,3.802,3.81,0.018,FALSE,FALSE,,,,,0,0,0,0,0,0,3172.28,,Idle,0,30,FALSE,10,TRUE,,Land,39.96118944,-106.2164844,3.7,8355.3,164,TRUE,1,1,FALSE,FALSE,FALSE,FALSE,0,TRUE,FALSE,FALSE,Course Lock,160.8,,16.4,Calm,45,Android, 4.2.16,DF020,08RDE5F001007H,08TLE4700X0040,,093AE5J0320485,414.3,859.8,72.2,5.7,5.1,0,333,DF020,08RDE5F001007H,08TLE4700X0040,,093AE5J0320485,,Android, 4.2.16,,,,,,
60,6/19/2018,48:44.8,0m 6.5s,6.5,39.96119451,-106.2164726,3.9,4.3,3.9,8132,0,1.5,0.5,0.5,0,0.7,0,0,-4.7,-2,-101.3,258.7,P-GPS,Auto Fly,,16,5,TRUE,,Mavic Pro,TRUE,FALSE,,Smart,RC,FALSE,TRUE,FALSE,,,TRUE,,FALSE,FALSE,FALSE,FALSE,FALSE,FALSE,FALSE,FALSE,FALSE,FALSE,0,Follow Yaw,-20.6,0,-101.6,258.4,FALSE,FALSE,FALSE,FALSE,FALSE,FALSE,,TRUE,Normal,,,1024,1024,1024,1024,0,FALSE,FALSE,FALSE,FALSE,FALSE,0,FALSE,FALSE,FALSE,FALSE,63,,,,11.429,FALSE,3.817,3.802,3.81,0.018,FALSE,FALSE,,,,,0,0,0,0,0,0,3172.28,,Idle,0,30,FALSE,10,TRUE,,Land,39.96118944,-106.2164844,3.8,8355.3,164,TRUE,1,1,FALSE,FALSE,FALSE,FALSE,0,TRUE,FALSE,FALSE,Course Lock,160.8,,16.4,Calm,45,Android, 4.2.16,DF020,08RDE5F001007H,08TLE4700X0040,,093AE5J0320485,414.3,859.8,72.2,5.7,5.1,0,333,DF020,08RDE5F001007H,08TLE4700X0040,,093AE5J0320485,,Android, 4.2.16,,,,,,
61,6/19/2018,48:44.8,0m 6.6s,6.6,39.96119473,-106.2164726,3.9,4.3,3.9,8132,1.1,1.5,0.2,0.5,0,0.7,0,0,-4.8,-4.5,-101.6,258.4,P-GPS,Auto Fly,,16,5,TRUE,,Mavic Pro,TRUE,FALSE,,Smart,RC,FALSE,TRUE,FALSE,,,TRUE,,FALSE,FALSE,FALSE,FALSE,FALSE,FALSE,FALSE,FALSE,FALSE,FALSE,0,Follow Yaw,-20.6,0,-101.6,258.4,FALSE,FALSE,FALSE,FALSE,FALSE,FALSE,,TRUE,Normal,,,1024,1024,1024,1024,0,FALSE,FALSE,FALSE,FALSE,FALSE,0,FALSE,FALSE,FALSE,FALSE,63,,,,11.599,FALSE,3.817,3.802,3.81,0.018,FALSE,FALSE,,,,,0,0,0,0,0,0,4332.7,,Idle,0,30,FALSE,10,TRUE,,Land,39.96118944,-106.2164844,3.8,8355.3,164,TRUE,1,1,FALSE,FALSE,FALSE,FALSE,0,TRUE,FALSE,FALSE,Course Lock,160.8,,16.4,Calm,45,Android, 4.2.16,DF020,08RDE5F001007H,08TLE4700X0040,,093AE5J0320485,414.3,859.8,72.2,5.7,5.1,0,333,DF020,08RDE5F001007H,08TLE4700X0040,,093AE5J0320485,,Android, 4.2.16,,,,,,
62,6/19/2018,48:44.9,0m 6.7s,6.7,39.96119495,-106.2164726,3.9,4.3,4.3,8132,0,1.5,0.2,0.5,0.2,0.7,0,0,-4.9,-4.4,-101.7,258.3,P-GPS,Auto Fly,,16,5,TRUE,,Mavic Pro,TRUE,FALSE,,Smart,RC,FALSE,TRUE,FALSE,,,TRUE,,FALSE,FALSE,FALSE,FALSE,FALSE,FALSE,FALSE,FALSE,FALSE,FALSE,0,Follow Yaw,-20.6,0,-101.6,258.4,FALSE,FALSE,FALSE,FALSE,FALSE,FALSE,,TRUE,Normal,,,1024,1024,1024,1024,0,FALSE,FALSE,FALSE,FALSE,FALSE,0,FALSE,FALSE,FALSE,FALSE,63,,,,11.599,FALSE,3.817,3.802,3.81,0.018,FALSE,FALSE,,,,,0,0,0,0,0,0,4332.7,,Idle,0,30,FALSE,10,TRUE,,Land,39.96118944,-106.2164844,3.9,8355.3,164,TRUE,1,1,FALSE,FALSE,FALSE,FALSE,0,TRUE,FALSE,FALSE,Course Lock,160.8,,16.4,Calm,45,Android, 4.2.16,DF020,08RDE5F001007H,08TLE4700X0040,,093AE5J0320485,414.3,859.8,72.2,5.7,5.1,0,333,DF020,08RDE5F001007H,08TLE4700X0040,,093AE5J0320485,,Android, 4.2.16,,,,,,
63,6/19/2018,48:44.9,0m 6.8s,6.8,39.9611951,-106.2164725,4.3,4.3,3.9,8132,1.1,1.5,0,0.5,0.2,0.7,0,0,-5.6,-2.7,-101.3,258.7,P-GPS,Auto Fly,,16,5,TRUE,,Mavic Pro,TRUE,FALSE,,Smart,RC,FALSE,TRUE,FALSE,,,TRUE,,FALSE,FALSE,FALSE,FALSE,FALSE,FALSE,FALSE,FALSE,FALSE,FALSE,0,Follow Yaw,-20.6,0,-101.6,258.4,FALSE,FALSE,FALSE,FALSE,FALSE,FALSE,,TRUE,Normal,,,1024,1024,1024,1024,0,FALSE,FALSE,FALSE,FALSE,FALSE,0,FALSE,FALSE,FALSE,FALSE,63,,,,11.599,FALSE,3.817,3.802,3.81,0.018,FALSE,FALSE,,,,,0,0,0,0,0,0,4332.7,,Idle,0,30,FALSE,10,TRUE,,Land,39.96118944,-106.2164844,3.9,8355.3,164,TRUE,1,1,FALSE,FALSE,FALSE,FALSE,0,TRUE,FALSE,FALSE,Course Lock,160.8,,16.4,Calm,45,Android, 4.2.16,DF020,08RDE5F001007H,08TLE4700X0040,,093AE5J0320485,414.3,859.8,72.2,5.7,5.1,0,333,DF020,08RDE5F001007H,08TLE4700X0040,,093AE5J0320485,,Android, 4.2.16,,,,,,
64,6/19/2018,48:45.1,0m 6.9s,6.9,39.96119523,-106.2164724,4.3,4.3,3.9,8132,0,1.5,0,0.5,0.2,0.7,0,0,-4.8,-0.6,-101.2,258.8,P-GPS,Auto Fly,,16,5,TRUE,,Mavic Pro,TRUE,FALSE,,Smart,RC,FALSE,TRUE,FALSE,,,TRUE,,FALSE,FALSE,FALSE,FALSE,FALSE,FALSE,FALSE,FALSE,FALSE,FALSE,0,Follow Yaw,-20.6,0,-101.6,258.4,FALSE,FALSE,FALSE,FALSE,FALSE,FALSE,,TRUE,Normal,,,1024,1024,1024,1024,0,FALSE,FALSE,FALSE,FALSE,FALSE,0,FALSE,FALSE,FALSE,FALSE,63,,,,11.599,FALSE,3.817,3.802,3.81,0.018,FALSE,FALSE,,,,,0,0,0,0,0,0,4332.7,,Idle,0,30,FALSE,10,TRUE,,Land,39.96118944,-106.2164844,4,8355.3,164,TRUE,1,1,FALSE,FALSE,FALSE,FALSE,0,TRUE,FALSE,FALSE,Course Lock,160.8,,16.4,Calm,45,Android, 4.2.16,DF020,08RDE5F001007H,08TLE4700X0040,,093AE5J0320485,414.3,859.8,72.2,5.7,5.1,0,333,DF020,08RDE5F001007H,08TLE4700X0040,,093AE5J0320485,,Android, 4.2.16,,,,,,
65,6/19/2018,48:45.1,0m 7.0s,7,39.96119534,-106.2164723,4.3,4.3,4.3,8132,0,1.5,0.2,0.5,0.2,0.7,0,0,-4.6,-0.8,-101.6,258.4,P-GPS,Auto Fly,,16,5,TRUE,,Mavic Pro,TRUE,FALSE,,Smart,RC,FALSE,TRUE,FALSE,,,TRUE,,FALSE,FALSE,FALSE,FALSE,FALSE,FALSE,FALSE,FALSE,FALSE,FALSE,0,Follow Yaw,-20.6,0,-101.6,258.4,FALSE,FALSE,FALSE,FALSE,FALSE,FALSE,,TRUE,Normal,,,1024,1024,1024,1024,0,FALSE,FALSE,FALSE,FALSE,FALSE,0,FALSE,FALSE,FALSE,FALSE,63,,,,11.599,FALSE,3.817,3.802,3.81,0.018,FALSE,FALSE,,,,,0,0,0,0,0,0,4332.7,,Idle,0,30,FALSE,10,TRUE,,Land,39.96118944,-106.2164844,4,8355.3,164,TRUE,1,1,FALSE,FALSE,FALSE,FALSE,0,TRUE,FALSE,FALSE,Course Lock,160.8,,16.4,Calm,45,Android, 4.2.16,DF020,08RDE5F001007H,08TLE4700X0040,,093AE5J0320485,414.3,859.8,72.2,5.7,5.1,0,333,DF020,08RDE5F001007H,08TLE4700X0040,,093AE5J0320485,,Android, 4.2.16,,,,,,
66,6/19/2018,48:45.2,0m 7.1s,7.1,39.96119544,-106.2164721,4.3,4.3,3.9,8132,0,1.5,0.2,0.5,0.2,0.7,0,0,-6,-2.2,-101.8,258.2,P-GPS,Auto Fly,,16,5,TRUE,,Mavic Pro,TRUE,FALSE,,Smart,RC,FALSE,TRUE,FALSE,,,TRUE,,FALSE,FALSE,FALSE,FALSE,FALSE,FALSE,FALSE,FALSE,FALSE,FALSE,0,Follow Yaw,-20.6,0,-101.6,258.4,FALSE,FALSE,FALSE,FALSE,FALSE,FALSE,,TRUE,Normal,,,1024,1024,1024,1024,0,FALSE,FALSE,FALSE,FALSE,FALSE,0,FALSE,FALSE,FALSE,FALSE,63,,,,11.399,FALSE,3.807,3.791,3.801,0.018,FALSE,FALSE,,,,,0,0,0,0,0,0,4332.7,,Idle,0,30,FALSE,10,TRUE,,Land,39.96118944,-106.2164844,4.1,8355.3,164,TRUE,1,1,FALSE,FALSE,FALSE,FALSE,0,TRUE,FALSE,FALSE,Course Lock,160.8,,16.4,Calm,45,Android, 4.2.16,DF020,08RDE5F001007H,08TLE4700X0040,,093AE5J0320485,414.3,859.8,72.2,5.7,5.1,0,333,DF020,08RDE5F001007H,08TLE4700X0040,,093AE5J0320485,,Android, 4.2.16,,,,,,
