#,CUSTOM.date [local], CUSTOM.updateTime [local], OSD.flyTime, OSD.flyTime [s], OSD.latitude, OSD.longitude, OSD.height [ft], OSD.heightMax [ft], OSD.vpsHeight [ft], OSD.altitude [ft], OSD.hSpeed [MPH], OSD.hSpeedMax [MPH], OSD.xSpeed [MPH], OSD.xSpeedMax [MPH], OSD.ySpeed [MPH], OSD.ySpeedMax [MPH], OSD.zSpeed [MPH], OSD.zSpeedMax [MPH], OSD.pitch, OSD.roll, OSD.yaw, OSD.yaw [360], OSD.flycState, OSD.flycCommand, OSD.flightAction, OSD.gpsNum, OSD.gpsLevel, OSD.isGPSUsed, OSD.nonGPSCause, OSD.droneType, OSD.isSwaveWork, OSD.waveError, OSD.goHomeStatus, OSD.batteryType, OSD.ctrlDevice, OSD.isOnGround, OSD.isMotorOn, OSD.isMotorBlocked, OSD.motorStartFailedCause, OSD.motorFailReason, OSD.isImuPreheated, OSD.imuInitFailReason, OSD.isAcceletorOverRange, OSD.isBarometerDeadInAir, OSD.isCompassError, OSD.isGoHomeHeightModified, OSD.canIOCWork, OSD.isNotEnoughForce, OSD.isOutOfLimit, OSD.isPropellerCatapult, OSD.isVibrating, OSD.isVisionUsed, OSD.voltageWarning, GIMBAL.mode, GIMBAL.pitch, GIMBAL.roll, GIMBAL.yaw, GIMBAL.yaw [360], GIMBAL.isPitchAtLimit, GIMBAL.isRollAtLimit, GIMBAL.isYawAtLimit, GIMBAL.isStuck, CAMERA.isPhoto, CAMERA.isVideo, CAMERA.filename, CAMERA.sdCardIsInserted, CAMERA.sdCardState, RC.downlinkSignal, RC.uplinkSignal, RC.aileron, RC.elevator, RC.throttle, RC.rudder, RC.mode, RC.goHomeDepressed, RC.recordDepressed, RC.shutterDepressed, RC.playbackDepressed, RC.wheelDepressed, RC.wheelOffset, RC.custom1Depressed, RC.custom2Depressed, RC.custom3Depressed, RC.custom4Depressed, BATTERY.chargeLevel, BATTERY.currentPV [V], BATTERY.currentCapacity [mAh], BATTERY.fullCapacity [mAh], BATTERY.voltage [V], BATTERY.isCellVoltageEstimated, BATTERY.cellVoltage1 [V], BATTERY.cellVoltage2 [V], BATTERY.cellVoltage3 [V], BATTERY.maxCellVoltageDeviation, BATTERY.isCellVoltageDeviationHigh, BATTERY.isVoltageLow, BATTERY.current [A], BATTERY.temperature [F], BATTERY.minTemperature [F], BATTERY.maxTemperature [F], BATTERY.usefulTime [s], BATTERY.goHomeTime [s], BATTERY.landTime [s], BATTERY.goHomeBattery, BATTERY.landBattery, BATTERY.safeFlyRadius, BATTERY.volumeConsume, BATTERY.status, BATTERY.goHomeStatus, BATTERY.goHomeCountdown, BATTERY.lowWarning, BATTERY.lowWarningGoHome, BATTERY.seriousLowWarning, BATTERY.seriousLowWarningLanding, BATTERY.timesCharged, MC.failSafeAction, HOME.latitude, HOME.longitude, HOME.distance [ft], HOME.height [ft], HOME.heightLimit [ft], HOME.isHomeRecord, HOME.goHomeMode, HOME.aircraftHeadDirection, HOME.isDynamicHomePointEnabled, HOME.isReachedLimitDistance, HOME.isReachedLimitHeight, HOME.isCompassCeleing, HOME.compassCeleStatus, HOME.isMultipleFlightModeEnabled, HOME.isBeginnerMode, HOME.isIOCEnabled, HOME.iocMode, HOME.goHomeHeight [ft], HOME.courseLockAngle, HOME.forceLandingHeight [ft], HOME.wind, HOME.dataRecorderFileIndex, RECOVER.appType, RECOVER.appVersion, RECOVER.aircraftName, RECOVER.aircraftSerial, RECOVER.cameraSerial, RECOVER.rcSerial, RECOVER.batterySerial, DETAILS.totalTime [s], DETAILS.totalDistance [ft], DETAILS.maxHeight [ft], DETAILS.maxHorizontalSpeed [MPH], DETAILS.maxVerticalSpeed [MPH], DETAILS.photoNum, DETAILS.videoTime [s], DETAILS.aircraftName, DETAILS.aircraftSerial, DETAILS.cameraSerial, DETAILS.rcSerial, DETAILS.batterySerial, DETAILS.appName, DETAILS.appType, DETAILS.appVersion, APPGPS.latitude, APPGPS.longitude, APPGPS.accuracy, APP.message, APP.tip, APP.warning
1,4/19/2018,39:47.1,0m 1.7s,1.7,39.96128726,-106.2165144,0,0,0.3,8128,0,0,0,0,0,0,0,0,4,-0.1,173.7,173.7,Auto Takeoff,Auto Fly,Takeoff (App Auto),16,5,TRUE,,Mavic Air,TRUE,FALSE,,Smart,RC,TRUE,TRUE,FALSE,,,TRUE,,FALSE,FALSE,FALSE,FALSE,FALSE,FALSE,FALSE,FALSE,FALSE,FALSE,0,Follow Yaw,0,0,173.8,173.8,FALSE,FALSE,FALSE,FALSE,FALSE,FALSE,,TRUE,Normal,,,1024,1024,1024,1024,0,FALSE,FALSE,FALSE,FALSE,FALSE,0,FALSE,FALSE,FALSE,FALSE,99,,,,12.59,FALSE,4.219,4.185,4.186,0.034,FALSE,FALSE,,,,,0,1,0,15,10,4774.5,1224.24,,Idle,0,30,FALSE,10,TRUE,,Go Home,39.96129245,-106.2165084,2.5,7921.4,393.7,TRUE,1,1,FALSE,FALSE,FALSE,FALSE,0,TRUE,FALSE,FALSE,Course Lock,98.4,303.3,16.4,Calm,29,Android, 4.2.8,dronefo...-Mavic Air,0K1DF313BD4PR1,,,0K4AF2SA35087J,71.9,752.4,99.1,20.2,4.5,0,55,dronefo...-Mavic Air,0K1DF313BD4PR1,,,0K4AF2SA35087J,,Android, 4.2.8,,,,Data Recorder File Index is 29.,Taking Off.,
2,4/19/2018,39:47.4,0m 1.8s,1.8,39.96128725,-106.2165144,0,0,0.3,8128,0,0,0,0,0,0,0,0,4,-0.1,173.7,173.7,Auto Takeoff,Auto Fly,Takeoff (App Auto),16,5,TRUE,,Mavic Air,TRUE,FALSE,,Smart,RC,TRUE,TRUE,FALSE,,,TRUE,,FALSE,FALSE,FALSE,FALSE,FALSE,FALSE,FALSE,FALSE,FALSE,FALSE,0,Follow Yaw,0,0,173.8,173.8,FALSE,FALSE,FALSE,FALSE,FALSE,FALSE,,TRUE,Normal,,,1024,1024,1024,1024,0,FALSE,FALSE,FALSE,FALSE,FALSE,0,FALSE,FALSE,FALSE,FALSE,99,,,,12.59,FALSE,4.219,4.185,4.186,0.034,FALSE,FALSE,,,,,0,1,0,15,10,4774.5,1224.24,,Idle,0,30,FALSE,10,TRUE,,Go Home,39.96129245,-106.2165084,2.5,7921.4,393.7,TRUE,1,1,FALSE,FALSE,FALSE,FALSE,0,TRUE,FALSE,FALSE,Course Lock,98.4,303.3,16.4,Calm,29,Android, 4.2.8,dronefo...-Mavic Air,0K1DF313BD4PR1,,,0K4AF2SA35087J,71.9,752.4,99.1,20.2,4.5,0,55,dronefo...-Mavic Air,0K1DF313BD4PR1,,,0K4AF2SA35087J,,Android, 4.2.8,,,,,,
3,4/19/2018,39:47.2,0m 1.9s,1.9,39.96128728,-106.2165143,0,0,0.3,8128,0,0,0,0,0,0,0,0,3.9,-0.1,173.7,173.7,Auto Takeoff,Auto Fly,Takeoff (App Auto),16,5,TRUE,,Mavic Air,TRUE,FALSE,,Smart,RC,TRUE,TRUE,FALSE,,,TRUE,,FALSE,FALSE,FALSE,FALSE,FALSE,FALSE,FALSE,FALSE,FALSE,FALSE,0,Follow Yaw,0,0,173.8,173.8,FALSE,FALSE,FALSE,FALSE,FALSE,FALSE,,TRUE,Normal,,,1024,1024,1024,1024,0,FALSE,FALSE,FALSE,FALSE,FALSE,0,FALSE,FALSE,FALSE,FALSE,99,,,,12.59,FALSE,4.219,4.185,4.186,0.034,FALSE,FALSE,,,,,0,1,0,15,10,4774.5,1224.24,,Idle,0,30,FALSE,10,TRUE,,Go Home,39.96129245,-106.2165084,2.5,7921.4,393.7,TRUE,1,1,FALSE,FALSE,FALSE,FALSE,0,TRUE,FALSE,FALSE,Course Lock,98.4,303.3,16.4,Calm,29,Android, 4.2.8,dronefo...-Mavic Air,0K1DF313BD4PR1,,,0K4AF2SA35087J,71.9,752.4,99.1,20.2,4.5,0,55,dronefo...-Mavic Air,0K1DF313BD4PR1,,,0K4AF2SA35087J,,Android, 4.2.8,,,,,,
4,4/19/2018,39:47.4,0m 2.0s,2,39.96128726,-106.2165143,0,0,0.3,8128,0,0,0,0,0,0,0,0,3.8,-0.3,173.7,173.7,Auto Takeoff,Auto Fly,Takeoff (App Auto),16,5,TRUE,,Mavic Air,TRUE,FALSE,,Smart,RC,TRUE,TRUE,FALSE,,,TRUE,,FALSE,FALSE,FALSE,FALSE,FALSE,FALSE,FALSE,FALSE,FALSE,FALSE,0,Follow Yaw,0,0,173.8,173.8,FALSE,FALSE,FALSE,FALSE,FALSE,FALSE,,TRUE,Normal,,,1024,1024,1024,1024,0,FALSE,FALSE,FALSE,FALSE,FALSE,0,FALSE,FALSE,FALSE,FALSE,99,,,,12.59,FALSE,4.219,4.185,4.186,0.034,FALSE,FALSE,,,,,0,1,0,15,10,4774.5,1224.24,,Idle,0,30,FALSE,10,TRUE,,Go Home,39.96129245,-106.2165084,2.5,7921.4,393.7,TRUE,1,1,FALSE,FALSE,FALSE,FALSE,0,TRUE,FALSE,FALSE,Course Lock,98.4,303.3,16.4,Calm,29,Android, 4.2.8,dronefo...-Mavic Air,0K1DF313BD4PR1,,,0K4AF2SA35087J,71.9,752.4,99.1,20.2,4.5,0,55,dronefo...-Mavic Air,0K1DF313BD4PR1,,,0K4AF2SA35087J,,Android, 4.2.8,,,,,,
5,4/19/2018,39:47.5,0m 2.1s,2.1,39.96128729,-106.2165143,0,0,0.3,8128,0,0,0,0,0,0,0,0,3.7,-0.2,173.8,173.8,Auto Takeoff,Auto Fly,Takeoff (App Auto),16,5,TRUE,,Mavic Air,TRUE,FALSE,,Smart,RC,TRUE,TRUE,FALSE,,,TRUE,,FALSE,FALSE,FALSE,FALSE,FALSE,FALSE,FALSE,FALSE,FALSE,FALSE,0,Follow Yaw,0,0,173.8,173.8,FALSE,FALSE,FALSE,FALSE,FALSE,FALSE,,TRUE,Normal,,,1024,1024,1024,1024,0,FALSE,FALSE,FALSE,FALSE,FALSE,0,FALSE,FALSE,FALSE,FALSE,99,,,,12.59,FALSE,4.219,4.185,4.186,0.034,FALSE,FALSE,,,,,0,1,0,15,10,4774.5,1224.24,,Idle,0,30,FALSE,10,TRUE,,Go Home,39.96129245,-106.2165084,2.5,7921.4,393.7,TRUE,1,1,FALSE,FALSE,FALSE,FALSE,0,TRUE,FALSE,FALSE,Course Lock,98.4,303.3,16.4,Calm,29,Android, 4.2.8,dronefo...-Mavic Air,0K1DF313BD4PR1,,,0K4AF2SA35087J,71.9,752.4,99.1,20.2,4.5,0,55,dronefo...-Mavic Air,0K1DF313BD4PR1,,,0K4AF2SA35087J,,Android, 4.2.8,,,,,,
6,4/19/2018,39:47.5,0m 2.2s,2.2,39.96128729,-106.2165143,0,0,0.3,8128,0,0,0,0,0,0,0,0,2,1.1,173.9,173.9,Auto Takeoff,Auto Fly,Takeoff (App Auto),16,5,TRUE,,Mavic Air,TRUE,FALSE,,Smart,RC,TRUE,TRUE,FALSE,,,TRUE,,FALSE,FALSE,FALSE,FALSE,FALSE,FALSE,FALSE,FALSE,FALSE,FALSE,0,Follow Yaw,0,0,173.8,173.8,FALSE,FALSE,FALSE,FALSE,FALSE,FALSE,,TRUE,Normal,,,1024,1024,1024,1024,0,FALSE,FALSE,FALSE,FALSE,FALSE,0,FALSE,FALSE,FALSE,FALSE,99,,,,12.59,FALSE,4.219,4.185,4.186,0.034,FALSE,FALSE,,,,,0,1,0,15,10,4774.5,1224.24,,Idle,0,30,FALSE,10,TRUE,,Go Home,39.96129245,-106.2165084,2.5,7921.4,393.7,TRUE,1,1,FALSE,FALSE,FALSE,FALSE,0,TRUE,FALSE,FALSE,Course Lock,98.4,303.3,16.4,Calm,29,Android, 4.2.8,dronefo...-Mavic Air,0K1DF313BD4PR1,,,0K4AF2SA35087J,71.9,752.4,99.1,20.2,4.5,0,55,dronefo...-Mavic Air,0K1DF313BD4PR1,,,0K4AF2SA35087J,,Android, 4.2.8,,,,,,
7,4/19/2018,39:47.6,0m 2.3s,2.3,39.96128718,-106.2165143,0,0,0.3,8128,0,0,0,0,0,0,-0.5,0,0.7,1.2,173.9,173.9,Auto Takeoff,Auto Fly,Takeoff (App Auto),16,5,TRUE,,Mavic Air,TRUE,FALSE,,Smart,RC,FALSE,TRUE,FALSE,,,TRUE,,FALSE,FALSE,FALSE,FALSE,FALSE,FALSE,FALSE,FALSE,FALSE,FALSE,0,Follow Yaw,0,0,173.8,173.8,FALSE,FALSE,FALSE,FALSE,FALSE,FALSE,,TRUE,Normal,,,1024,1024,1024,1024,0,FALSE,FALSE,FALSE,FALSE,FALSE,0,FALSE,FALSE,FALSE,FALSE,99,,,,12.59,FALSE,4.219,4.185,4.186,0.034,FALSE,FALSE,,,,,0,1,0,15,10,4774.5,1224.24,,Idle,0,30,FALSE,10,TRUE,,Go Home,39.96129245,-106.2165084,2.5,7921.4,393.7,TRUE,1,1,FALSE,FALSE,FALSE,FALSE,0,TRUE,FALSE,FALSE,Course Lock,98.4,303.3,16.4,Calm,29,Android, 4.2.8,dronefo...-Mavic Air,0K1DF313BD4PR1,,,0K4AF2SA35087J,71.9,752.4,99.1,20.2,4.5,0,55,dronefo...-Mavic Air,0K1DF313BD4PR1,,,0K4AF2SA35087J,,Android, 4.2.8,,,,,,
8,4/19/2018,39:47.7,0m 2.4s,2.4,39.96128716,-106.2165143,0,0,0.3,8128,0,0,0,0,0,0,-0.9,0,0.1,0.8,174,174,Auto Takeoff,Auto Fly,Takeoff (App Auto),16,5,TRUE,,Mavic Air,TRUE,FALSE,,Smart,RC,FALSE,TRUE,FALSE,,,TRUE,,FALSE,FALSE,FALSE,FALSE,FALSE,FALSE,FALSE,FALSE,FALSE,FALSE,0,Follow Yaw,0,0,173.8,173.8,FALSE,FALSE,FALSE,FALSE,FALSE,FALSE,,TRUE,Normal,,,1024,1024,1024,1024,0,FALSE,FALSE,FALSE,FALSE,FALSE,0,FALSE,FALSE,FALSE,FALSE,99,,,,12.59,FALSE,4.219,4.185,4.186,0.034,FALSE,FALSE,,,,,0,1,0,15,10,4774.5,1224.24,,Idle,0,30,FALSE,10,TRUE,,Go Home,39.96129245,-106.2165084,2.6,7921.4,393.7,TRUE,1,1,FALSE,FALSE,FALSE,FALSE,0,TRUE,FALSE,FALSE,Course Lock,98.4,303.3,16.4,Calm,29,Android, 4.2.8,dronefo...-Mavic Air,0K1DF313BD4PR1,,,0K4AF2SA35087J,71.9,752.4,99.1,20.2,4.5,0,55,dronefo...-Mavic Air,0K1DF313BD4PR1,,,0K4AF2SA35087J,,Android, 4.2.8,,,,,,
9,4/19/2018,39:47.8,0m 2.5s,2.5,39.96128718,-106.2165144,0,0,0.7,8128,0,0,0,0,0,0,-1.1,0,0,-0.3,174,174,Auto Takeoff,Auto Fly,Takeoff (App Auto),16,5,TRUE,,Mavic Air,TRUE,FALSE,,Smart,RC,FALSE,TRUE,FALSE,,,TRUE,,FALSE,FALSE,FALSE,FALSE,FALSE,FALSE,FALSE,FALSE,FALSE,FALSE,0,Follow Yaw,0,0,173.8,173.8,FALSE,FALSE,FALSE,FALSE,FALSE,FALSE,,TRUE,Normal,,,1024,1024,1024,1024,0,FALSE,FALSE,FALSE,FALSE,FALSE,0,FALSE,FALSE,FALSE,FALSE,99,,,,12.59,FALSE,4.219,4.185,4.186,0.034,FALSE,FALSE,,,,,0,1,0,15,10,4774.5,1224.24,,Idle,0,30,FALSE,10,TRUE,,Go Home,39.96129245,-106.2165084,2.6,7921.4,393.7,TRUE,1,1,FALSE,FALSE,FALSE,FALSE,0,TRUE,FALSE,FALSE,Course Lock,98.4,303.3,16.4,Calm,29,Android, 4.2.8,dronefo...-Mavic Air,0K1DF313BD4PR1,,,0K4AF2SA35087J,71.9,752.4,99.1,20.2,4.5,0,55,dronefo...-Mavic Air,0K1DF313BD4PR1,,,0K4AF2SA35087J,,Android, 4.2.8,,,,,,
10,4/19/2018,39:47.9,0m 2.6s,2.6,39.96128714,-106.2165144,0.3,0.3,0.7,8128,0,0,0,0,0,0,-1.1,0,0.3,-0.2,174,174,Auto Takeoff,Auto Fly,Takeoff (App Auto),16,5,TRUE,,Mavic Air,TRUE,FALSE,,Smart,RC,FALSE,TRUE,FALSE,,,TRUE,,FALSE,FALSE,FALSE,FALSE,FALSE,FALSE,FALSE,FALSE,FALSE,FALSE,0,Follow Yaw,0,0,173.8,173.8,FALSE,FALSE,FALSE,FALSE,FALSE,FALSE,,TRUE,Normal,,,1024,1024,1024,1024,0,FALSE,FALSE,FALSE,FALSE,FALSE,0,FALSE,FALSE,FALSE,FALSE,99,,,,12.59,FALSE,4.219,4.185,4.186,0.034,FALSE,FALSE,,,,,0,1,0,15,10,4774.5,1224.24,,Idle,0,30,FALSE,10,TRUE,,Go Home,39.96129245,-106.2165084,2.6,7921.4,393.7,TRUE,1,1,FALSE,FALSE,FALSE,FALSE,0,TRUE,FALSE,FALSE,Course Lock,98.4,303.3,16.4,Calm,29,Android, 4.2.8,dronefo...-Mavic Air,0K1DF313BD4PR1,,,0K4AF2SA35087J,71.9,752.4,99.1,20.2,4.5,0,55,dronefo...-Mavic Air,0K1DF313BD4PR1,,,0K4AF2SA35087J,,Android, 4.2.8,,,,,,
11,4/19/2018,39:48.0,0m 2.7s,2.7,39.96128708,-106.2165146,0.7,0.7,0.7,8129,0,0,0,0,0,0,-0.9,0,0.9,-0.2,173.9,173.9,Auto Takeoff,Auto Fly,Takeoff (App Auto),16,5,TRUE,,Mavic Air,TRUE,FALSE,,Smart,RC,FALSE,TRUE,FALSE,,,TRUE,,FALSE,FALSE,FALSE,FALSE,FALSE,FALSE,FALSE,FALSE,FALSE,FALSE,0,Follow Yaw,0,0,173.8,173.8,FALSE,FALSE,FALSE,FALSE,FALSE,FALSE,,TRUE,Normal,,,1024,1024,1024,1024,0,FALSE,FALSE,FALSE,FALSE,FALSE,0,FALSE,FALSE,FALSE,FALSE,99,,,,12.576,FALSE,4.219,4.185,4.186,0.034,FALSE,FALSE,,,,,0,0,0,15,10,5497.7,1409.67,,Idle,0,30,FALSE,10,TRUE,,Go Home,39.96128718,-106.2165143,0,7921.4,393.7,TRUE,1,1,FALSE,FALSE,FALSE,FALSE,0,TRUE,FALSE,FALSE,Course Lock,98.4,303.3,16.4,Calm,29,Android, 4.2.8,dronefo...-Mavic Air,0K1DF313BD4PR1,,,0K4AF2SA35087J,71.9,752.4,99.1,20.2,4.5,0,55,dronefo...-Mavic Air,0K1DF313BD4PR1,,,0K4AF2SA35087J,,Android, 4.2.8,,,,Home Point Updated.,,
12,4/19/2018,39:48.1,0m 2.8s,2.8,39.96128703,-106.2165146,0.7,0.7,0.7,8129,0,0,0,0,0,0,-0.9,0,1,0,173.9,173.9,Auto Takeoff,Auto Fly,Takeoff (App Auto),16,5,TRUE,,Mavic Air,TRUE,FALSE,,Smart,RC,FALSE,TRUE,FALSE,,,TRUE,,FALSE,FALSE,FALSE,FALSE,FALSE,FALSE,FALSE,FALSE,FALSE,FALSE,0,Follow Yaw,0,0,173.8,173.8,FALSE,FALSE,FALSE,FALSE,FALSE,FALSE,,TRUE,Normal,,,1024,1024,1024,1024,0,FALSE,FALSE,FALSE,FALSE,FALSE,0,FALSE,FALSE,FALSE,FALSE,99,,,,12.632,FALSE,4.236,4.199,4.197,0.039,FALSE,FALSE,,,,,0,0,0,15,10,5497.7,1409.67,,Idle,0,30,FALSE,10,TRUE,,Go Home,39.96128718,-106.2165143,0.4,7921.4,393.7,TRUE,1,1,FALSE,FALSE,FALSE,FALSE,0,TRUE,FALSE,FALSE,Course Lock,98.4,303.3,16.4,Calm,29,Android, 4.2.8,dronefo...-Mavic Air,0K1DF313BD4PR1,,,0K4AF2SA35087J,71.9,752.4,99.1,20.2,4.5,0,55,dronefo...-Mavic Air,0K1DF313BD4PR1,,,0K4AF2SA35087J,,Android, 4.2.8,,,,,,
13,4/19/2018,39:48.3,0m 2.9s,2.9,39.96128705,-106.2165145,0.7,0.7,1,8129,0,0,0,0,0,0,-0.9,0,0.8,0.6,173.8,173.8,Auto Takeoff,Auto Fly,Takeoff (App Auto),16,5,TRUE,,Mavic Air,TRUE,FALSE,,Smart,RC,FALSE,TRUE,FALSE,,,TRUE,,FALSE,FALSE,FALSE,FALSE,FALSE,FALSE,FALSE,FALSE,FALSE,FALSE,0,Follow Yaw,0,0,173.8,173.8,FALSE,FALSE,FALSE,FALSE,FALSE,FALSE,,TRUE,Normal,,,1024,1024,1024,1024,0,FALSE,FALSE,FALSE,FALSE,FALSE,0,FALSE,FALSE,FALSE,FALSE,99,,,,12.632,FALSE,4.236,4.199,4.197,0.039,FALSE,FALSE,,,,,0,0,0,15,10,5497.7,1409.67,,Idle,0,30,FALSE,10,TRUE,,Go Home,39.96128718,-106.2165143,0,7921.4,393.7,TRUE,1,1,FALSE,FALSE,FALSE,FALSE,0,TRUE,FALSE,FALSE,Course Lock,98.4,303.3,16.4,Calm,29,Android, 4.2.8,dronefo...-Mavic Air,0K1DF313BD4PR1,,,0K4AF2SA35087J,71.9,752.4,99.1,20.2,4.5,0,55,dronefo...-Mavic Air,0K1DF313BD4PR1,,,0K4AF2SA35087J,,Android, 4.2.8,,,,,,
14,4/19/2018,39:48.4,0m 3.0s,3,39.96128699,-106.2165145,1,1,1,8129,1.1,1.1,0,0,0,0,-0.7,0,0.9,0.7,173.9,173.9,Auto Takeoff,Auto Fly,Takeoff (App Auto),16,5,TRUE,,Mavic Air,TRUE,FALSE,,Smart,RC,FALSE,TRUE,FALSE,,,TRUE,,FALSE,FALSE,FALSE,FALSE,FALSE,FALSE,FALSE,FALSE,FALSE,FALSE,0,Follow Yaw,0,0,173.8,173.8,FALSE,FALSE,FALSE,FALSE,FALSE,FALSE,,TRUE,Normal,,,1024,1024,1024,1024,0,FALSE,FALSE,FALSE,FALSE,FALSE,0,FALSE,FALSE,FALSE,FALSE,99,,,,12.632,FALSE,4.236,4.199,4.197,0.039,FALSE,FALSE,,,,,0,0,0,15,10,5497.7,1409.67,,Idle,0,30,FALSE,10,TRUE,,Go Home,39.96128718,-106.2165143,0,7921.4,393.7,TRUE,1,1,FALSE,FALSE,FALSE,FALSE,0,TRUE,FALSE,FALSE,Course Lock,98.4,303.3,16.4,Calm,29,Android, 4.2.8,dronefo...-Mavic Air,0K1DF313BD4PR1,,,0K4AF2SA35087J,71.9,752.4,99.1,20.2,4.5,0,55,dronefo...-Mavic Air,0K1DF313BD4PR1,,,0K4AF2SA35087J,,Android, 4.2.8,,,,,,
15,4/19/2018,39:48.5,0m 3.1s,3.1,39.96128707,-106.2165143,1,1,1.3,8129,0,1.1,0,0,0,0,-0.7,0,1,0.7,173.9,173.9,Auto Takeoff,Auto Fly,Takeoff (App Auto),16,5,TRUE,,Mavic Air,TRUE,FALSE,,Smart,RC,FALSE,TRUE,FALSE,,,TRUE,,FALSE,FALSE,FALSE,FALSE,FALSE,FALSE,FALSE,FALSE,FALSE,FALSE,0,Follow Yaw,0,0,173.8,173.8,FALSE,FALSE,FALSE,FALSE,FALSE,FALSE,,TRUE,Normal,,,1024,1024,1024,1024,0,FALSE,FALSE,FALSE,FALSE,FALSE,0,FALSE,FALSE,FALSE,FALSE,99,,,,12.632,FALSE,4.236,4.199,4.197,0.039,FALSE,FALSE,,,,,0,0,0,15,10,5497.7,1409.67,,Idle,0,30,FALSE,10,TRUE,,Go Home,39.96128718,-106.2165143,0,7921.4,393.7,TRUE,1,1,FALSE,FALSE,FALSE,FALSE,0,TRUE,FALSE,FALSE,Course Lock,98.4,303.3,16.4,Calm,29,Android, 4.2.8,dronefo...-Mavic Air,0K1DF313BD4PR1,,,0K4AF2SA35087J,71.9,752.4,99.1,20.2,4.5,0,55,dronefo...-Mavic Air,0K1DF313BD4PR1,,,0K4AF2SA35087J,,Android, 4.2.8,,,,,,
16,4/19/2018,39:48.6,0m 3.2s,3.2,39.96128701,-106.2165143,1.3,1.3,1.3,8129,0,1.1,0,0,0,0,-0.9,0,1.2,0.3,174,174,Auto Takeoff,Auto Fly,Takeoff (App Auto),16,5,TRUE,,Mavic Air,TRUE,FALSE,,Smart,RC,FALSE,TRUE,FALSE,,,TRUE,,FALSE,FALSE,FALSE,FALSE,FALSE,FALSE,FALSE,FALSE,FALSE,FALSE,0,Follow Yaw,0,0,173.8,173.8,FALSE,FALSE,FALSE,FALSE,FALSE,FALSE,,TRUE,Normal,,,1024,1024,1024,1024,0,FALSE,FALSE,FALSE,FALSE,FALSE,0,FALSE,FALSE,FALSE,FALSE,99,,,,12.632,FALSE,4.236,4.199,4.197,0.039,FALSE,FALSE,,,,,0,0,0,15,10,5497.7,1409.67,,Idle,0,30,FALSE,10,TRUE,,Go Home,39.96128718,-106.2165143,0,7921.4,393.7,TRUE,1,1,FALSE,FALSE,FALSE,FALSE,0,TRUE,FALSE,FALSE,Course Lock,98.4,303.3,16.4,Calm,29,Android, 4.2.8,dronefo...-Mavic Air,0K1DF313BD4PR1,,,0K4AF2SA35087J,71.9,752.4,99.1,20.2,4.5,0,55,dronefo...-Mavic Air,0K1DF313BD4PR1,,,0K4AF2SA35087J,,Android, 4.2.8,,,,,,
17,4/19/2018,39:48.6,0m 3.3s,3.3,39.96128693,-106.2165145,1.3,1.3,1.6,8129,0,1.1,0,0,0,0,-0.9,0,1.1,-0.2,174.1,174.1,Auto Takeoff,Auto Fly,Takeoff (App Auto),16,5,TRUE,,Mavic Air,TRUE,FALSE,,Smart,RC,FALSE,TRUE,FALSE,,,TRUE,,FALSE,FALSE,FALSE,FALSE,FALSE,FALSE,FALSE,FALSE,FALSE,FALSE,0,Follow Yaw,0,0,173.8,173.8,FALSE,FALSE,FALSE,FALSE,FALSE,FALSE,,TRUE,Normal,,,1024,1024,1024,1024,0,FALSE,FALSE,FALSE,FALSE,FALSE,0,FALSE,FALSE,FALSE,FALSE,99,,,,12.632,FALSE,4.236,4.199,4.197,0.039,FALSE,FALSE,,,,,0,0,0,15,10,5497.7,1409.67,,Idle,0,30,FALSE,10,TRUE,,Go Home,39.96128718,-106.2165143,0,7921.4,393.7,TRUE,1,1,FALSE,FALSE,FALSE,FALSE,0,TRUE,FALSE,FALSE,Course Lock,98.4,303.3,16.4,Calm,29,Android, 4.2.8,dronefo...-Mavic Air,0K1DF313BD4PR1,,,0K4AF2SA35087J,71.9,752.4,99.1,20.2,4.5,0,55,dronefo...-Mavic Air,0K1DF313BD4PR1,,,0K4AF2SA35087J,,Android, 4.2.8,,,,,,
18,4/19/2018,39:48.7,0m 3.4s,3.4,39.96128687,-106.2165145,1.3,1.3,1.6,8129,0,1.1,0,0,0,0,-0.9,0,1,-0.3,174,174,Auto Takeoff,Auto Fly,Takeoff (App Auto),16,5,TRUE,,Mavic Air,TRUE,FALSE,,Smart,RC,FALSE,TRUE,FALSE,,,TRUE,,FALSE,FALSE,FALSE,FALSE,FALSE,FALSE,FALSE,FALSE,FALSE,FALSE,0,Follow Yaw,0,0,173.8,173.8,FALSE,FALSE,FALSE,FALSE,FALSE,FALSE,,TRUE,Normal,,,1024,1024,1024,1024,0,FALSE,FALSE,FALSE,FALSE,FALSE,0,FALSE,FALSE,FALSE,FALSE,99,,,,12.632,FALSE,4.236,4.199,4.197,0.039,FALSE,FALSE,,,,,0,0,0,15,10,5497.7,1409.67,,Idle,0,30,FALSE,10,TRUE,,Go Home,39.96128718,-106.2165143,0,7921.4,393.7,TRUE,1,1,FALSE,FALSE,FALSE,FALSE,0,TRUE,FALSE,FALSE,Course Lock,98.4,303.3,16.4,Calm,29,Android, 4.2.8,dronefo...-Mavic Air,0K1DF313BD4PR1,,,0K4AF2SA35087J,71.9,752.4,99.1,20.2,4.5,0,55,dronefo...-Mavic Air,0K1DF313BD4PR1,,,0K4AF2SA35087J,,Android, 4.2.8,,,,,,
19,4/19/2018,39:48.8,0m 3.5s,3.5,39.96128667,-106.2165143,1.6,1.6,2,8130,0,1.1,0,0,0,0,-0.9,0,1.3,0.2,173.9,173.9,Auto Takeoff,Auto Fly,Takeoff (App Auto),16,5,TRUE,,Mavic Air,TRUE,FALSE,,Smart,RC,FALSE,TRUE,FALSE,,,TRUE,,FALSE,FALSE,FALSE,FALSE,FALSE,FALSE,FALSE,FALSE,FALSE,FALSE,0,Follow Yaw,0,0,173.8,173.8,FALSE,FALSE,FALSE,FALSE,FALSE,FALSE,,TRUE,Normal,,,1024,1024,1024,1024,0,FALSE,FALSE,FALSE,FALSE,FALSE,0,FALSE,FALSE,FALSE,FALSE,99,,,,12.632,FALSE,4.236,4.199,4.197,0.039,FALSE,FALSE,,,,,0,0,0,15,10,5497.7,1409.67,,Idle,0,30,FALSE,10,TRUE,,Go Home,39.96128718,-106.2165143,0,7921.4,393.7,TRUE,1,1,FALSE,FALSE,FALSE,FALSE,0,TRUE,FALSE,FALSE,Course Lock,98.4,303.3,16.4,Calm,29,Android, 4.2.8,dronefo...-Mavic Air,0K1DF313BD4PR1,,,0K4AF2SA35087J,71.9,752.4,99.1,20.2,4.5,0,55,dronefo...-Mavic Air,0K1DF313BD4PR1,,,0K4AF2SA35087J,,Android, 4.2.8,,,,,,
20,4/19/2018,39:48.9,0m 3.6s,3.6,39.96128659,-106.2165143,1.6,1.6,2,8130,0,1.1,0,0,0,0,-0.9,0,1.5,0.4,173.9,173.9,Auto Takeoff,Auto Fly,Takeoff (App Auto),16,5,TRUE,,Mavic Air,TRUE,FALSE,,Smart,RC,FALSE,TRUE,FALSE,,,TRUE,,FALSE,FALSE,FALSE,FALSE,FALSE,FALSE,FALSE,FALSE,FALSE,FALSE,0,Follow Yaw,0,0,173.8,173.8,FALSE,FALSE,FALSE,FALSE,FALSE,FALSE,,TRUE,Normal,,,1024,1024,1024,1024,0,FALSE,FALSE,FALSE,FALSE,FALSE,0,FALSE,FALSE,FALSE,FALSE,99,,,,12.632,FALSE,4.236,4.199,4.197,0.039,FALSE,FALSE,,,,,0,0,0,15,10,5497.7,1409.67,,Idle,0,30,FALSE,10,TRUE,,Go Home,39.96128718,-106.2165143,0.3,7921.4,393.7,TRUE,1,1,FALSE,FALSE,FALSE,FALSE,0,TRUE,FALSE,FALSE,Course Lock,98.4,303.3,16.4,Calm,29,Android, 4.2.8,dronefo...-Mavic Air,0K1DF313BD4PR1,,,0K4AF2SA35087J,71.9,752.4,99.1,20.2,4.5,0,55,dronefo...-Mavic Air,0K1DF313BD4PR1,,,0K4AF2SA35087J,,Android, 4.2.8,,,,,,
21,4/19/2018,39:49.0,0m 3.7s,3.7,39.96128642,-106.2165144,2,2,2.3,8130,0,1.1,0,0,0,0,-0.9,0,1.6,0.6,173.9,173.9,Auto Takeoff,Auto Fly,Takeoff (App Auto),16,5,TRUE,,Mavic Air,TRUE,FALSE,,Smart,RC,FALSE,TRUE,FALSE,,,TRUE,,FALSE,FALSE,FALSE,FALSE,FALSE,FALSE,FALSE,FALSE,FALSE,FALSE,0,Follow Yaw,0,0,173.8,173.8,FALSE,FALSE,FALSE,FALSE,FALSE,FALSE,,TRUE,Normal,,,1024,1024,1024,1024,0,FALSE,FALSE,FALSE,FALSE,FALSE,0,FALSE,FALSE,FALSE,FALSE,99,,,,12.282,FALSE,4.131,4.082,4.069,0.062,FALSE,FALSE,,,,,0,0,0,15,10,6865.7,1760.43,,Idle,0,30,FALSE,10,TRUE,,Go Home,39.96128718,-106.2165143,0.3,7921.4,393.7,TRUE,1,1,FALSE,FALSE,FALSE,FALSE,0,TRUE,FALSE,FALSE,Course Lock,98.4,303.3,16.4,Calm,29,Android, 4.2.8,dronefo...-Mavic Air,0K1DF313BD4PR1,,,0K4AF2SA35087J,71.9,752.4,99.1,20.2,4.5,0,55,dronefo...-Mavic Air,0K1DF313BD4PR1,,,0K4AF2SA35087J,,Android, 4.2.8,,,,,,
22,4/19/2018,39:49.0,0m 3.8s,3.8,39.96128634,-106.2165143,2,2,2.6,8130,0,1.1,0,0,0,0,-1.1,0,1.9,1,174,174,Auto Takeoff,Auto Fly,Takeoff (App Auto),16,5,TRUE,,Mavic Air,TRUE,FALSE,,Smart,RC,FALSE,TRUE,FALSE,,,TRUE,,FALSE,FALSE,FALSE,FALSE,FALSE,FALSE,FALSE,FALSE,FALSE,FALSE,0,Follow Yaw,0,0,173.8,173.8,FALSE,FALSE,FALSE,FALSE,FALSE,FALSE,,TRUE,Normal,,,1024,1024,1024,1024,0,FALSE,FALSE,FALSE,FALSE,FALSE,0,FALSE,FALSE,FALSE,FALSE,99,,,,12.282,FALSE,4.131,4.082,4.069,0.062,FALSE,FALSE,,,,,0,0,0,15,10,6865.7,1760.43,,Idle,0,30,FALSE,10,TRUE,,Go Home,39.96128718,-106.2165143,0.3,7921.4,393.7,TRUE,1,1,FALSE,FALSE,FALSE,FALSE,0,TRUE,FALSE,FALSE,Course Lock,98.4,303.3,16.4,Calm,29,Android, 4.2.8,dronefo...-Mavic Air,0K1DF313BD4PR1,,,0K4AF2SA35087J,71.9,752.4,99.1,20.2,4.5,0,55,dronefo...-Mavic Air,0K1DF313BD4PR1,,,0K4AF2SA35087J,,Android, 4.2.8,,,,,,
23,4/19/2018,39:49.1,0m 3.9s,3.9,39.96128651,-106.2165145,2.3,2.3,2.6,8130,0,1.1,0,0,0,0,-1.1,0,2,1.2,174,174,Auto Takeoff,Auto Fly,Takeoff (App Auto),16,5,TRUE,,Mavic Air,TRUE,FALSE,,Smart,RC,FALSE,TRUE,FALSE,,,TRUE,,FALSE,FALSE,FALSE,FALSE,FALSE,FALSE,FALSE,FALSE,FALSE,FALSE,0,Follow Yaw,0,0,173.8,173.8,FALSE,FALSE,FALSE,FALSE,FALSE,FALSE,,TRUE,Normal,,,1024,1047,1024,1024,1,FALSE,FALSE,FALSE,FALSE,FALSE,0,FALSE,FALSE,FALSE,FALSE,99,,,,12.282,FALSE,4.131,4.082,4.069,0.062,FALSE,FALSE,,,,,0,0,0,15,10,6865.7,1760.43,,Idle,0,30,FALSE,10,TRUE,,Go Home,39.96128718,-106.2165143,0,7921.4,393.7,TRUE,1,1,FALSE,FALSE,FALSE,FALSE,0,TRUE,FALSE,FALSE,Course Lock,98.4,303.3,16.4,Calm,29,Android, 4.2.8,dronefo...-Mavic Air,0K1DF313BD4PR1,,,0K4AF2SA35087J,71.9,752.4,99.1,20.2,4.5,0,55,dronefo...-Mavic Air,0K1DF313BD4PR1,,,0K4AF2SA35087J,,Android, 4.2.8,,,,,,
24,4/19/2018,39:49.2,0m 4.0s,4,39.96128646,-106.2165145,2.3,2.3,3,8130,0,1.1,0,0,0,0,-1.1,0,1.9,1.1,173.9,173.9,Auto Takeoff,Auto Fly,Takeoff (App Auto),16,5,TRUE,,Mavic Air,TRUE,FALSE,,Smart,RC,FALSE,TRUE,FALSE,,,TRUE,,FALSE,FALSE,FALSE,FALSE,FALSE,FALSE,FALSE,FALSE,FALSE,FALSE,0,Follow Yaw,0,0,173.8,173.8,FALSE,FALSE,FALSE,FALSE,FALSE,FALSE,,TRUE,Normal,,,1024,1639,1024,1024,1,FALSE,FALSE,FALSE,FALSE,FALSE,0,FALSE,FALSE,FALSE,FALSE,99,,,,12.282,FALSE,4.131,4.082,4.069,0.062,FALSE,FALSE,,,,,0,0,0,15,10,6865.7,1760.43,,Idle,0,30,FALSE,10,TRUE,,Go Home,39.96128718,-106.2165143,0,7921.4,393.7,TRUE,1,1,FALSE,FALSE,FALSE,FALSE,0,TRUE,FALSE,FALSE,Course Lock,98.4,303.3,16.4,Calm,29,Android, 4.2.8,dronefo...-Mavic Air,0K1DF313BD4PR1,,,0K4AF2SA35087J,71.9,752.4,99.1,20.2,4.5,0,55,dronefo...-Mavic Air,0K1DF313BD4PR1,,,0K4AF2SA35087J,,Android, 4.2.8,,,,,,
25,4/19/2018,39:49.2,0m 4.1s,4.1,39.96128662,-106.2165144,2.6,2.6,3,8131,0,1.1,0,0,0,0,-1.1,0,1.4,1.4,173.8,173.8,Auto Takeoff,Auto Fly,Takeoff (App Auto),16,5,TRUE,,Mavic Air,TRUE,FALSE,,Smart,RC,FALSE,TRUE,FALSE,,,TRUE,,FALSE,FALSE,FALSE,FALSE,FALSE,FALSE,FALSE,FALSE,FALSE,FALSE,0,Follow Yaw,0,0,173.8,173.8,FALSE,FALSE,FALSE,FALSE,FALSE,FALSE,,TRUE,Normal,,,1024,1684,1024,1024,1,FALSE,FALSE,FALSE,FALSE,FALSE,0,FALSE,FALSE,FALSE,FALSE,99,,,,12.282,FALSE,4.131,4.082,4.069,0.062,FALSE,FALSE,,,,,0,0,0,15,10,6865.7,1760.43,,Idle,0,30,FALSE,10,TRUE,,Go Home,39.96128718,-106.2165143,0.3,7921.4,393.7,TRUE,1,1,FALSE,FALSE,FALSE,FALSE,0,TRUE,FALSE,FALSE,Course Lock,98.4,303.3,16.4,Calm,29,Android, 4.2.8,dronefo...-Mavic Air,0K1DF313BD4PR1,,,0K4AF2SA35087J,71.9,752.4,99.1,20.2,4.5,0,55,dronefo...-Mavic Air,0K1DF313BD4PR1,,,0K4AF2SA35087J,,Android, 4.2.8,,,,,,
26,4/19/2018,39:49.4,0m 4.2s,4.2,39.9612866,-106.2165144,2.6,2.6,3.3,8131,0,1.1,0,0,0,0,-1.1,0,-5.6,0.8,173.8,173.8,Auto Takeoff,Auto Fly,Takeoff (App Auto),16,5,TRUE,,Mavic Air,TRUE,FALSE,,Smart,RC,FALSE,TRUE,FALSE,,,TRUE,,FALSE,FALSE,FALSE,FALSE,FALSE,FALSE,FALSE,FALSE,FALSE,FALSE,0,Follow Yaw,0,0,173.8,173.8,FALSE,FALSE,FALSE,FALSE,FALSE,FALSE,,TRUE,Normal,,,1024,1684,1024,1024,1,FALSE,FALSE,FALSE,FALSE,FALSE,0,FALSE,FALSE,FALSE,FALSE,99,,,,12.282,FALSE,4.131,4.082,4.069,0.062,FALSE,FALSE,,,,,0,0,0,15,10,6865.7,1760.43,,Idle,0,30,FALSE,10,TRUE,,Go Home,39.96128718,-106.2165143,0,7921.4,393.7,TRUE,1,1,FALSE,FALSE,FALSE,FALSE,0,TRUE,FALSE,FALSE,Course Lock,98.4,303.3,16.4,Calm,29,Android, 4.2.8,dronefo...-Mavic Air,0K1DF313BD4PR1,,,0K4AF2SA35087J,71.9,752.4,99.1,20.2,4.5,0,55,dronefo...-Mavic Air,0K1DF313BD4PR1,,,0K4AF2SA35087J,,Android, 4.2.8,,,,,,
27,4/19/2018,39:49.5,0m 4.3s,4.3,39.96128616,-106.2165143,3,3,3.3,8131,0,1.1,-0.5,0,0,0,-1.1,0,-12.9,0.1,173.8,173.8,Auto Takeoff,Auto Fly,Takeoff (App Auto),16,5,TRUE,,Mavic Air,TRUE,FALSE,,Smart,RC,FALSE,TRUE,FALSE,,,TRUE,,FALSE,FALSE,FALSE,FALSE,FALSE,FALSE,FALSE,FALSE,FALSE,FALSE,0,Follow Yaw,0,0,173.8,173.8,FALSE,FALSE,FALSE,FALSE,FALSE,FALSE,,TRUE,Normal,,,1024,1684,1024,1024,1,FALSE,FALSE,FALSE,FALSE,FALSE,0,FALSE,FALSE,FALSE,FALSE,99,,,,12.282,FALSE,4.131,4.082,4.069,0.062,FALSE,FALSE,,,,,0,0,0,15,10,6865.7,1760.43,,Idle,0,30,FALSE,10,TRUE,,Go Home,39.96128718,-106.2165143,0.4,7921.4,393.7,TRUE,1,1,FALSE,FALSE,FALSE,FALSE,0,TRUE,FALSE,FALSE,Course Lock,98.4,303.3,16.4,Calm,29,Android, 4.2.8,dronefo...-Mavic Air,0K1DF313BD4PR1,,,0K4AF2SA35087J,71.9,752.4,99.1,20.2,4.5,0,55,dronefo...-Mavic Air,0K1DF313BD4PR1,,,0K4AF2SA35087J,,Android, 4.2.8,,,,,,
28,4/19/2018,39:49.7,0m 4.4s,4.4,39.96128582,-106.2165143,3,3,3.6,8131,1.1,1.1,-0.9,0,0,0,-0.9,0,-14.6,0,173.9,173.9,Auto Takeoff,Auto Fly,Takeoff (App Auto),16,5,TRUE,,Mavic Air,TRUE,FALSE,,Smart,RC,FALSE,TRUE,FALSE,,,TRUE,,FALSE,FALSE,FALSE,FALSE,FALSE,FALSE,FALSE,FALSE,FALSE,FALSE,0,Follow Yaw,0,0,173.8,173.8,FALSE,FALSE,FALSE,FALSE,FALSE,FALSE,,TRUE,Normal,,,1024,1684,1024,1024,1,FALSE,FALSE,FALSE,FALSE,FALSE,0,FALSE,FALSE,FALSE,FALSE,99,,,,12.282,FALSE,4.131,4.082,4.069,0.062,FALSE,FALSE,,,,,0,0,0,15,10,6865.7,1760.43,,Idle,0,30,FALSE,10,TRUE,,Go Home,39.96128718,-106.2165143,0.6,7921.4,393.7,TRUE,1,1,FALSE,FALSE,FALSE,FALSE,0,TRUE,FALSE,FALSE,Course Lock,98.4,303.3,16.4,Calm,29,Android, 4.2.8,dronefo...-Mavic Air,0K1DF313BD4PR1,,,0K4AF2SA35087J,71.9,752.4,99.1,20.2,4.5,0,55,dronefo...-Mavic Air,0K1DF313BD4PR1,,,0K4AF2SA35087J,,Android, 4.2.8,,,,,,
29,4/19/2018,39:49.8,0m 4.5s,4.5,39.96128539,-106.2165141,3.3,3.3,3.6,8131,0,1.1,-1.6,0,0,0,-0.9,0,-14.3,0,173.8,173.8,P-GPS,Auto Fly,,16,5,TRUE,,Mavic Air,TRUE,FALSE,,Smart,RC,FALSE,TRUE,FALSE,,,TRUE,,FALSE,FALSE,FALSE,FALSE,FALSE,FALSE,FALSE,FALSE,FALSE,FALSE,0,Follow Yaw,0,0,173.8,173.8,FALSE,FALSE,FALSE,FALSE,FALSE,FALSE,,TRUE,Normal,,,1024,1684,1024,1024,1,FALSE,FALSE,FALSE,FALSE,FALSE,0,FALSE,FALSE,FALSE,FALSE,99,,,,12.282,FALSE,4.131,4.082,4.069,0.062,FALSE,FALSE,,,,,0,0,0,15,10,6865.7,1760.43,,Idle,0,30,FALSE,10,TRUE,,Go Home,39.96128718,-106.2165143,0.6,7921.4,393.7,TRUE,1,1,FALSE,FALSE,FALSE,FALSE,0,TRUE,FALSE,FALSE,Course Lock,98.4,303.3,16.4,Calm,29,Android, 4.2.8,dronefo...-Mavic Air,0K1DF313BD4PR1,,,0K4AF2SA35087J,71.9,752.4,99.1,20.2,4.5,0,55,dronefo...-Mavic Air,0K1DF313BD4PR1,,,0K4AF2SA35087J,,Android, 4.2.8,,,,,,
30,4/19/2018,39:49.9,0m 4.6s,4.6,39.96128458,-106.2165141,3.3,3.3,3.9,8131,1.5,1.5,-2,0,0,0,-0.7,0,-14,-0.2,175.2,175.2,P-GPS,Auto Fly,,16,5,TRUE,,Mavic Air,TRUE,FALSE,,Smart,RC,FALSE,TRUE,FALSE,,,TRUE,,FALSE,FALSE,FALSE,FALSE,FALSE,FALSE,FALSE,FALSE,FALSE,FALSE,0,Follow Yaw,0,0,173.8,173.8,FALSE,FALSE,FALSE,FALSE,FALSE,FALSE,,TRUE,Normal,,,1024,1684,1024,1024,1,FALSE,FALSE,FALSE,FALSE,FALSE,0,FALSE,FALSE,FALSE,FALSE,99,,,,12.282,FALSE,4.131,4.082,4.069,0.062,FALSE,FALSE,,,,,0,0,0,15,10,6865.7,1760.43,,Idle,0,30,FALSE,10,TRUE,,Go Home,39.96128718,-106.2165143,1,7921.4,393.7,TRUE,1,1,FALSE,FALSE,FALSE,FALSE,0,TRUE,FALSE,FALSE,Course Lock,98.4,303.3,16.4,Calm,29,Android, 4.2.8,dronefo...-Mavic Air,0K1DF313BD4PR1,,,0K4AF2SA35087J,71.9,752.4,99.1,20.2,4.5,0,55,dronefo...-Mavic Air,0K1DF313BD4PR1,,,0K4AF2SA35087J,,Android, 4.2.8,,,,,,
31,4/19/2018,39:50.0,0m 4.7s,4.7,39.96128276,-106.2165144,3.6,3.6,3.9,8132,3.2,3.2,-2.7,0,0,0,-0.5,0,-14.2,0,174,174,P-GPS,Auto Fly,,16,5,TRUE,,Mavic Air,TRUE,FALSE,,Smart,RC,FALSE,TRUE,FALSE,,,TRUE,,FALSE,FALSE,FALSE,FALSE,FALSE,FALSE,FALSE,FALSE,FALSE,FALSE,0,Follow Yaw,0,0,173.8,173.8,FALSE,FALSE,FALSE,FALSE,FALSE,FALSE,,TRUE,Normal,,,1024,1684,1024,1024,1,FALSE,FALSE,FALSE,FALSE,FALSE,0,FALSE,FALSE,FALSE,FALSE,99,,,,12.269,FALSE,4.131,4.082,4.069,0.062,FALSE,FALSE,,,,,0,1,0,15,10,9209.5,2361.41,,Idle,0,30,FALSE,10,TRUE,,Go Home,39.96128718,-106.2165143,1.6,7921.4,393.7,TRUE,1,1,FALSE,FALSE,FALSE,FALSE,0,TRUE,FALSE,FALSE,Course Lock,98.4,303.3,16.4,Calm,29,Android, 4.2.8,dronefo...-Mavic Air,0K1DF313BD4PR1,,,0K4AF2SA35087J,71.9,752.4,99.1,20.2,4.5,0,55,dronefo...-Mavic Air,0K1DF313BD4PR1,,,0K4AF2SA35087J,,Android, 4.2.8,,,,,,
32,4/19/2018,39:50.0,0m 4.8s,4.8,39.96128148,-106.2165142,3.6,3.6,3.9,8132,4,4,-3.1,0,0.2,0.2,-0.2,0,-14.4,0.3,172.3,172.3,P-GPS,Auto Fly,,16,5,TRUE,,Mavic Air,TRUE,FALSE,,Smart,RC,FALSE,TRUE,FALSE,,,TRUE,,FALSE,FALSE,FALSE,FALSE,FALSE,FALSE,FALSE,FALSE,FALSE,FALSE,0,Follow Yaw,0,0,173.8,173.8,FALSE,FALSE,FALSE,FALSE,FALSE,FALSE,,TRUE,Normal,,,1024,1684,1024,1024,1,FALSE,FALSE,FALSE,FALSE,FALSE,0,FALSE,FALSE,FALSE,FALSE,99,,,,12.246,FALSE,4.12,4.065,4.061,0.062,FALSE,FALSE,,,,,0,1,0,15,10,9209.5,2361.41,,Idle,0,30,FALSE,10,TRUE,,Go Home,39.96128718,-106.2165143,2.1,7921.4,393.7,TRUE,1,1,FALSE,FALSE,FALSE,FALSE,0,TRUE,FALSE,FALSE,Course Lock,98.4,303.3,16.4,Calm,29,Android, 4.2.8,dronefo...-Mavic Air,0K1DF313BD4PR1,,,0K4AF2SA35087J,71.9,752.4,99.1,20.2,4.5,0,55,dronefo...-Mavic Air,0K1DF313BD4PR1,,,0K4AF2SA35087J,,Android, 4.2.8,,,,,,
33,4/19/2018,39:50.3,0m 4.9s,4.9,39.9612798,-106.2165139,3.6,3.6,3.9,8132,3.5,4,-3.6,0,0.5,0.5,0,0,-14.1,0.2,173.6,173.6,P-GPS,Auto Fly,,16,5,TRUE,,Mavic Air,TRUE,FALSE,,Smart,RC,FALSE,TRUE,FALSE,,,TRUE,,FALSE,FALSE,FALSE,FALSE,FALSE,FALSE,FALSE,FALSE,FALSE,FALSE,0,Follow Yaw,0,0,173.8,173.8,FALSE,FALSE,FALSE,FALSE,FALSE,FALSE,,TRUE,Normal,,,1024,1684,1024,1024,1,FALSE,FALSE,FALSE,FALSE,FALSE,0,FALSE,FALSE,FALSE,FALSE,99,,,,12.246,FALSE,4.12,4.065,4.061,0.062,FALSE,FALSE,,,,,0,1,0,15,10,9209.5,2361.41,,Idle,0,30,FALSE,10,TRUE,,Go Home,39.96128718,-106.2165143,2.7,7921.4,393.7,TRUE,1,1,FALSE,FALSE,FALSE,FALSE,0,TRUE,FALSE,FALSE,Course Lock,98.4,303.3,16.4,Calm,29,Android, 4.2.8,dronefo...-Mavic Air,0K1DF313BD4PR1,,,0K4AF2SA35087J,71.9,752.4,99.1,20.2,4.5,0,55,dronefo...-Mavic Air,0K1DF313BD4PR1,,,0K4AF2SA35087J,,Android, 4.2.8,,,,,,
34,4/19/2018,39:50.4,0m 5.0s,5,39.96127808,-106.2165137,3.6,3.6,3.9,8132,4.2,4.2,-4.3,0,0.5,0.5,0,0,-14.1,0,174.5,174.5,P-GPS,Auto Fly,,16,5,TRUE,,Mavic Air,TRUE,FALSE,,Smart,RC,FALSE,TRUE,FALSE,,,TRUE,,FALSE,FALSE,FALSE,FALSE,FALSE,FALSE,FALSE,FALSE,FALSE,FALSE,0,Follow Yaw,0,0,173.8,173.8,FALSE,FALSE,FALSE,FALSE,FALSE,FALSE,,TRUE,Normal,,,1024,1684,1024,1024,1,FALSE,FALSE,FALSE,FALSE,FALSE,0,FALSE,FALSE,FALSE,FALSE,99,,,,12.246,FALSE,4.12,4.065,4.061,0.062,FALSE,FALSE,,,,,0,1,0,15,10,9209.5,2361.41,,Idle,0,30,FALSE,10,TRUE,,Go Home,39.96128718,-106.2165143,3.3,7921.4,393.7,TRUE,1,1,FALSE,FALSE,FALSE,FALSE,0,TRUE,FALSE,FALSE,Course Lock,98.4,303.3,16.4,Calm,29,Android, 4.2.8,dronefo...-Mavic Air,0K1DF313BD4PR1,,,0K4AF2SA35087J,71.9,752.4,99.1,20.2,4.5,0,55,dronefo...-Mavic Air,0K1DF313BD4PR1,,,0K4AF2SA35087J,,Android, 4.2.8,,,,,,
35,4/19/2018,39:50.5,0m 5.1s,5.1,39.96127599,-106.2165136,3.6,3.6,3.9,8132,4.6,4.6,-4.7,0,0.5,0.5,0,0,-14,-0.1,173.9,173.9,P-GPS,Auto Fly,,16,5,TRUE,,Mavic Air,TRUE,FALSE,,Smart,RC,FALSE,TRUE,FALSE,,,TRUE,,FALSE,FALSE,FALSE,FALSE,FALSE,FALSE,FALSE,FALSE,FALSE,FALSE,0,Follow Yaw,0,0,173.8,173.8,FALSE,FALSE,FALSE,FALSE,FALSE,FALSE,,TRUE,Normal,,,1024,1684,1024,1024,1,FALSE,FALSE,FALSE,FALSE,FALSE,0,FALSE,FALSE,FALSE,FALSE,99,,,,12.246,FALSE,4.12,4.065,4.061,0.062,FALSE,FALSE,,,,,0,1,0,15,10,9209.5,2361.41,,Idle,0,30,FALSE,10,TRUE,,Go Home,39.96128718,-106.2165143,4.1,7921.4,393.7,TRUE,1,1,FALSE,FALSE,FALSE,FALSE,0,TRUE,FALSE,FALSE,Course Lock,98.4,303.3,16.4,Calm,29,Android, 4.2.8,dronefo...-Mavic Air,0K1DF313BD4PR1,,,0K4AF2SA35087J,71.9,752.4,99.1,20.2,4.5,0,55,dronefo...-Mavic Air,0K1DF313BD4PR1,,,0K4AF2SA35087J,,Android, 4.2.8,,,,,,
36,4/19/2018,39:50.6,0m 5.2s,5.2,39.96127383,-106.2165134,3.6,3.6,3.9,8132,5.2,5.2,-5.1,0,0.5,0.5,0,0,-13.8,-0.4,174.7,174.7,P-GPS,Auto Fly,,16,5,TRUE,,Mavic Air,TRUE,FALSE,,Smart,RC,FALSE,TRUE,FALSE,,,TRUE,,FALSE,FALSE,FALSE,FALSE,FALSE,FALSE,FALSE,FALSE,FALSE,FALSE,0,Follow Yaw,0,0,173.8,173.8,FALSE,FALSE,FALSE,FALSE,FALSE,FALSE,,TRUE,Normal,,,1024,1684,1024,1024,1,FALSE,FALSE,FALSE,FALSE,FALSE,0,FALSE,FALSE,FALSE,FALSE,99,,,,12.246,FALSE,4.12,4.065,4.061,0.062,FALSE,FALSE,,,,,0,1,0,15,10,9209.5,2361.41,,Idle,0,30,FALSE,10,TRUE,,Go Home,39.96128718,-106.2165143,4.9,7921.4,393.7,TRUE,1,1,FALSE,FALSE,FALSE,FALSE,0,TRUE,FALSE,FALSE,Course Lock,98.4,303.3,16.4,Calm,29,Android, 4.2.8,dronefo...-Mavic Air,0K1DF313BD4PR1,,,0K4AF2SA35087J,71.9,752.4,99.1,20.2,4.5,0,55,dronefo...-Mavic Air,0K1DF313BD4PR1,,,0K4AF2SA35087J,,Android, 4.2.8,,,,,,
37,4/19/2018,39:50.7,0m 5.3s,5.3,39.96127126,-106.2165133,3.6,3.6,3.9,8132,5.8,5.8,-5.6,0,0.5,0.5,0,0,-13.9,0,174.2,174.2,P-GPS,Auto Fly,,16,5,TRUE,,Mavic Air,TRUE,FALSE,,Smart,RC,FALSE,TRUE,FALSE,,,TRUE,,FALSE,FALSE,FALSE,FALSE,FALSE,FALSE,FALSE,FALSE,FALSE,FALSE,0,Follow Yaw,0,0,173.8,173.8,FALSE,FALSE,FALSE,FALSE,FALSE,FALSE,,TRUE,Normal,,,1024,1684,1024,1024,1,FALSE,FALSE,FALSE,FALSE,FALSE,0,FALSE,FALSE,FALSE,FALSE,99,,,,12.246,FALSE,4.12,4.065,4.061,0.062,FALSE,FALSE,,,,,0,1,0,15,10,9209.5,2361.41,,Idle,0,30,FALSE,10,TRUE,,Go Home,39.96128718,-106.2165143,5.8,7921.4,393.7,TRUE,1,1,FALSE,FALSE,FALSE,FALSE,0,TRUE,FALSE,FALSE,Course Lock,98.4,303.3,16.4,Calm,29,Android, 4.2.8,dronefo...-Mavic Air,0K1DF313BD4PR1,,,0K4AF2SA35087J,71.9,752.4,99.1,20.2,4.5,0,55,dronefo...-Mavic Air,0K1DF313BD4PR1,,,0K4AF2SA35087J,,Android, 4.2.8,,,,,,
38,4/19/2018,39:50.7,0m 5.4s,5.4,39.96126869,-106.216513,3.6,3.6,3.9,8132,6.4,6.4,-6,0,0.5,0.5,0,0,-14,0.8,173.8,173.8,P-GPS,Auto Fly,,16,5,TRUE,,Mavic Air,TRUE,FALSE,,Smart,RC,FALSE,TRUE,FALSE,,,TRUE,,FALSE,FALSE,FALSE,FALSE,FALSE,FALSE,FALSE,FALSE,FALSE,FALSE,0,Follow Yaw,0,0,173.8,173.8,FALSE,FALSE,FALSE,FALSE,FALSE,FALSE,,TRUE,Normal,,,1024,1684,1024,1024,1,FALSE,FALSE,FALSE,FALSE,FALSE,0,FALSE,FALSE,FALSE,FALSE,99,,,,12.246,FALSE,4.12,4.065,4.061,0.062,FALSE,FALSE,,,,,0,1,0,15,10,9209.5,2361.41,,Idle,0,30,FALSE,10,TRUE,,Go Home,39.96128718,-106.2165143,6.8,7921.4,393.7,TRUE,1,1,FALSE,FALSE,FALSE,FALSE,0,TRUE,FALSE,FALSE,Course Lock,98.4,303.3,16.4,Calm,29,Android, 4.2.8,dronefo...-Mavic Air,0K1DF313BD4PR1,,,0K4AF2SA35087J,71.9,752.4,99.1,20.2,4.5,0,55,dronefo...-Mavic Air,0K1DF313BD4PR1,,,0K4AF2SA35087J,,Android, 4.2.8,,,,,,
39,4/19/2018,39:50.8,0m 5.5s,5.5,39.96126598,-106.2165128,3.6,3.6,3.9,8132,6.5,6.5,-6.7,0,0.5,0.5,0,0,-13.9,1.1,173.9,173.9,P-GPS,Auto Fly,,16,5,TRUE,,Mavic Air,TRUE,FALSE,,Smart,RC,FALSE,TRUE,FALSE,,,TRUE,,FALSE,FALSE,FALSE,FALSE,FALSE,FALSE,FALSE,FALSE,FALSE,FALSE,0,Follow Yaw,0,0,173.8,173.8,FALSE,FALSE,FALSE,FALSE,FALSE,FALSE,,TRUE,Normal,,,1024,1684,1024,1024,1,FALSE,FALSE,FALSE,FALSE,FALSE,0,FALSE,FALSE,FALSE,FALSE,99,,,,12.246,FALSE,4.12,4.065,4.061,0.062,FALSE,FALSE,,,,,0,1,0,15,10,9209.5,2361.41,,Idle,0,30,FALSE,10,TRUE,,Go Home,39.96128718,-106.2165143,7.7,7921.4,393.7,TRUE,1,1,FALSE,FALSE,FALSE,FALSE,0,TRUE,FALSE,FALSE,Course Lock,98.4,303.3,16.4,Calm,29,Android, 4.2.8,dronefo...-Mavic Air,0K1DF313BD4PR1,,,0K4AF2SA35087J,71.9,752.4,99.1,20.2,4.5,0,55,dronefo...-Mavic Air,0K1DF313BD4PR1,,,0K4AF2SA35087J,,Android, 4.2.8,,,,,,
40,4/19/2018,39:50.9,0m 5.6s,5.6,39.96126302,-106.2165125,3.6,3.6,3.6,8132,7,7,-7.2,0,0.5,0.5,0,0,-13.8,0.4,174.3,174.3,P-GPS,Auto Fly,,16,5,TRUE,,Mavic Air,TRUE,FALSE,,Smart,RC,FALSE,TRUE,FALSE,,,TRUE,,FALSE,FALSE,FALSE,FALSE,FALSE,FALSE,FALSE,FALSE,FALSE,FALSE,0,Follow Yaw,0,0,173.8,173.8,FALSE,FALSE,FALSE,FALSE,FALSE,FALSE,,TRUE,Normal,,,1024,1684,1024,1024,1,FALSE,FALSE,FALSE,FALSE,FALSE,0,FALSE,FALSE,FALSE,FALSE,99,,,,12.246,FALSE,4.12,4.065,4.061,0.062,FALSE,FALSE,,,,,0,1,0,15,10,9209.5,2361.41,,Idle,0,30,FALSE,10,TRUE,,Go Home,39.96128718,-106.2165143,8.8,7921.4,393.7,TRUE,1,1,FALSE,FALSE,FALSE,FALSE,0,TRUE,FALSE,FALSE,Course Lock,98.4,303.3,16.4,Calm,29,Android, 4.2.8,dronefo...-Mavic Air,0K1DF313BD4PR1,,,0K4AF2SA35087J,71.9,752.4,99.1,20.2,4.5,0,55,dronefo...-Mavic Air,0K1DF313BD4PR1,,,0K4AF2SA35087J,,Android, 4.2.8,,,,,,
41,4/19/2018,39:50.9,0m 5.7s,5.7,39.96125967,-106.2165125,3.6,3.6,3.6,8132,7.9,7.9,-7.6,0,0.5,0.5,0,0,-13.6,0,173.9,173.9,P-GPS,Auto Fly,,16,5,TRUE,,Mavic Air,TRUE,FALSE,,Smart,RC,FALSE,TRUE,FALSE,,,TRUE,,FALSE,FALSE,FALSE,FALSE,FALSE,FALSE,FALSE,FALSE,FALSE,FALSE,0,Follow Yaw,0,0,173.8,173.8,FALSE,FALSE,FALSE,FALSE,FALSE,FALSE,,TRUE,Normal,,,1024,1684,1024,1024,1,FALSE,FALSE,FALSE,FALSE,FALSE,0,FALSE,FALSE,FALSE,FALSE,99,,,,12.239,FALSE,4.12,4.065,4.061,0.062,FALSE,FALSE,,,,,0,6,0,16,10,12425.4,3186,,Idle,0,30,FALSE,10,TRUE,,Go Home,39.96128718,-106.2165143,10,7921.4,393.7,TRUE,1,1,FALSE,FALSE,FALSE,FALSE,0,TRUE,FALSE,FALSE,Course Lock,98.4,303.3,16.4,Calm,29,Android, 4.2.8,dronefo...-Mavic Air,0K1DF313BD4PR1,,,0K4AF2SA35087J,71.9,752.4,99.1,20.2,4.5,0,55,dronefo...-Mavic Air,0K1DF313BD4PR1,,,0K4AF2SA35087J,,Android, 4.2.8,,,,,,
42,4/19/2018,39:51.1,0m 5.8s,5.8,39.96125634,-106.2165122,3.6,3.6,3.6,8132,8.3,8.3,-8.1,0,0.7,0.7,0,0,-13.6,0,173.6,173.6,P-GPS,Auto Fly,,16,5,TRUE,,Mavic Air,TRUE,FALSE,,Smart,RC,FALSE,TRUE,FALSE,,,TRUE,,FALSE,FALSE,FALSE,FALSE,FALSE,FALSE,FALSE,FALSE,FALSE,FALSE,0,Follow Yaw,0,0,173.8,173.8,FALSE,FALSE,FALSE,FALSE,FALSE,FALSE,,TRUE,Normal,,,1024,1684,1024,1024,1,FALSE,FALSE,FALSE,FALSE,FALSE,0,FALSE,FALSE,FALSE,FALSE,99,,,,12.226,FALSE,4.113,4.06,4.053,0.062,FALSE,FALSE,,,,,0,6,0,16,10,12425.4,3186,,Idle,0,30,FALSE,10,TRUE,,Go Home,39.96128718,-106.2165143,11.3,7921.4,393.7,TRUE,1,1,FALSE,FALSE,FALSE,FALSE,0,TRUE,FALSE,FALSE,Course Lock,98.4,303.3,16.4,Calm,29,Android, 4.2.8,dronefo...-Mavic Air,0K1DF313BD4PR1,,,0K4AF2SA35087J,71.9,752.4,99.1,20.2,4.5,0,55,dronefo...-Mavic Air,0K1DF313BD4PR1,,,0K4AF2SA35087J,,Android, 4.2.8,,,,,,
43,4/19/2018,39:51.2,0m 5.9s,5.9,39.96125297,-106.216512,3.6,3.6,3.6,8132,8.4,8.4,-8.3,0,0.7,0.7,0,0,-13.9,0,173.8,173.8,P-GPS,Auto Fly,,16,5,TRUE,,Mavic Air,TRUE,FALSE,,Smart,RC,FALSE,TRUE,FALSE,,,TRUE,,FALSE,FALSE,FALSE,FALSE,FALSE,FALSE,FALSE,FALSE,FALSE,FALSE,0,Follow Yaw,0,0,173.8,173.8,FALSE,FALSE,FALSE,FALSE,FALSE,FALSE,,TRUE,Normal,,,1024,1684,1024,1024,1,FALSE,FALSE,FALSE,FALSE,FALSE,0,FALSE,FALSE,FALSE,FALSE,99,,,,12.226,FALSE,4.113,4.06,4.053,0.062,FALSE,FALSE,,,,,0,6,0,16,10,12425.4,3186,,Idle,0,30,FALSE,10,TRUE,,Go Home,39.96128718,-106.2165143,12.5,7921.4,393.7,TRUE,1,1,FALSE,FALSE,FALSE,FALSE,0,TRUE,FALSE,FALSE,Course Lock,98.4,303.3,16.4,Calm,29,Android, 4.2.8,dronefo...-Mavic Air,0K1DF313BD4PR1,,,0K4AF2SA35087J,71.9,752.4,99.1,20.2,4.5,0,55,dronefo...-Mavic Air,0K1DF313BD4PR1,,,0K4AF2SA35087J,,Android, 4.2.8,,,,,,
44,4/19/2018,39:51.3,0m 6.0s,6,39.96124932,-106.2165116,3.6,3.6,3.6,8132,8.8,8.8,-8.7,0,0.7,0.7,0,0,-14.1,0.4,173.9,173.9,P-GPS,Auto Fly,,16,5,TRUE,,Mavic Air,TRUE,FALSE,,Smart,RC,FALSE,TRUE,FALSE,,,TRUE,,FALSE,FALSE,FALSE,FALSE,FALSE,FALSE,FALSE,FALSE,FALSE,FALSE,0,Follow Yaw,0,0,173.8,173.8,FALSE,FALSE,FALSE,FALSE,FALSE,FALSE,,TRUE,Normal,,,1024,1684,1024,1024,1,FALSE,FALSE,FALSE,FALSE,FALSE,0,FALSE,FALSE,FALSE,FALSE,99,,,,12.226,FALSE,4.113,4.06,4.053,0.062,FALSE,FALSE,,,,,0,6,0,16,10,12425.4,3186,,Idle,0,30,FALSE,10,TRUE,,Go Home,39.96128718,-106.2165143,13.8,7921.4,393.7,TRUE,1,1,FALSE,FALSE,FALSE,FALSE,0,TRUE,FALSE,FALSE,Course Lock,98.4,303.3,16.4,Calm,29,Android, 4.2.8,dronefo...-Mavic Air,0K1DF313BD4PR1,,,0K4AF2SA35087J,71.9,752.4,99.1,20.2,4.5,0,55,dronefo...-Mavic Air,0K1DF313BD4PR1,,,0K4AF2SA35087J,,Android, 4.2.8,,,,,,
45,4/19/2018,39:51.4,0m 6.1s,6.1,39.96124593,-106.2165113,3.6,3.6,3.6,8132,8.9,8.9,-9.2,0,0.7,0.7,0,0,-14.4,0.1,173.9,173.9,P-GPS,Auto Fly,,16,5,TRUE,,Mavic Air,TRUE,FALSE,,Smart,RC,FALSE,TRUE,FALSE,,,TRUE,,FALSE,FALSE,FALSE,FALSE,FALSE,FALSE,FALSE,FALSE,FALSE,FALSE,0,Follow Yaw,0,0,173.8,173.8,FALSE,FALSE,FALSE,FALSE,FALSE,FALSE,,TRUE,Normal,,,1024,1684,1024,1024,1,FALSE,FALSE,FALSE,FALSE,FALSE,0,FALSE,FALSE,FALSE,FALSE,99,,,,12.226,FALSE,4.113,4.06,4.053,0.062,FALSE,FALSE,,,,,0,6,0,16,10,12425.4,3186,,Idle,0,30,FALSE,10,TRUE,,Go Home,39.96128718,-106.2165143,15.1,7921.4,393.7,TRUE,1,1,FALSE,FALSE,FALSE,FALSE,0,TRUE,FALSE,FALSE,Course Lock,98.4,303.3,16.4,Calm,29,Android, 4.2.8,dronefo...-Mavic Air,0K1DF313BD4PR1,,,0K4AF2SA35087J,71.9,752.4,99.1,20.2,4.5,0,55,dronefo...-Mavic Air,0K1DF313BD4PR1,,,0K4AF2SA35087J,,Android, 4.2.8,,,,,,
46,4/19/2018,39:51.7,0m 6.2s,6.2,39.96124201,-106.2165109,3.6,3.6,3.9,8132,9.1,9.1,-9.6,0,0.9,0.9,0,0,-14.2,0,173.8,173.8,P-GPS,Auto Fly,,16,5,TRUE,,Mavic Air,TRUE,FALSE,,Smart,RC,FALSE,TRUE,FALSE,,,TRUE,,FALSE,FALSE,FALSE,FALSE,FALSE,FALSE,FALSE,FALSE,FALSE,FALSE,0,Follow Yaw,0,0,173.8,173.8,FALSE,FALSE,FALSE,FALSE,FALSE,FALSE,,TRUE,Normal,,,1024,1684,1024,1024,1,FALSE,FALSE,FALSE,FALSE,FALSE,0,FALSE,FALSE,FALSE,FALSE,99,,,,12.226,FALSE,4.113,4.06,4.053,0.062,FALSE,FALSE,,,,,0,6,0,16,10,12425.4,3186,,Idle,0,30,FALSE,10,TRUE,,Go Home,39.96128718,-106.2165143,16.5,7921.4,393.7,TRUE,1,1,FALSE,FALSE,FALSE,FALSE,0,TRUE,FALSE,FALSE,Course Lock,98.4,303.3,16.4,Calm,29,Android, 4.2.8,dronefo...-Mavic Air,0K1DF313BD4PR1,,,0K4AF2SA35087J,71.9,752.4,99.1,20.2,4.5,0,55,dronefo...-Mavic Air,0K1DF313BD4PR1,,,0K4AF2SA35087J,,Android, 4.2.8,,,,,,
47,4/19/2018,39:51.7,0m 6.3s,6.3,39.96123785,-106.2165105,3.6,3.6,3.9,8132,10.1,10.1,-9.8,0,0.9,0.9,0,0,-14.3,0,173.9,173.9,P-GPS,Auto Fly,,16,5,TRUE,,Mavic Air,TRUE,FALSE,,Smart,RC,FALSE,TRUE,FALSE,,,TRUE,,FALSE,FALSE,FALSE,FALSE,FALSE,FALSE,FALSE,FALSE,FALSE,FALSE,0,Follow Yaw,0,0,173.8,173.8,FALSE,FALSE,FALSE,FALSE,FALSE,FALSE,,TRUE,Normal,,,1024,1684,1024,1024,1,FALSE,FALSE,FALSE,FALSE,FALSE,0,FALSE,FALSE,FALSE,FALSE,99,,,,12.226,FALSE,4.113,4.06,4.053,0.062,FALSE,FALSE,,,,,0,6,0,16,10,12425.4,3186,,Idle,0,30,FALSE,10,TRUE,,Go Home,39.96128718,-106.2165143,18,7921.4,393.7,TRUE,1,1,FALSE,FALSE,FALSE,FALSE,0,TRUE,FALSE,FALSE,Course Lock,98.4,303.3,16.4,Calm,29,Android, 4.2.8,dronefo...-Mavic Air,0K1DF313BD4PR1,,,0K4AF2SA35087J,71.9,752.4,99.1,20.2,4.5,0,55,dronefo...-Mavic Air,0K1DF313BD4PR1,,,0K4AF2SA35087J,,Android, 4.2.8,,,,,,
48,4/19/2018,39:51.8,0m 6.4s,6.4,39.96123362,-106.2165101,3.6,3.6,3.6,8132,10.4,10.4,-10.3,0,0.9,0.9,0,0,-14.3,0,174.1,174.1,P-GPS,Auto Fly,,16,5,TRUE,,Mavic Air,TRUE,FALSE,,Smart,RC,FALSE,TRUE,FALSE,,,TRUE,,FALSE,FALSE,FALSE,FALSE,FALSE,FALSE,FALSE,FALSE,FALSE,FALSE,0,Follow Yaw,0,0,173.8,173.8,FALSE,FALSE,FALSE,FALSE,FALSE,FALSE,,TRUE,Normal,,,1024,1684,1024,1024,1,FALSE,FALSE,FALSE,FALSE,FALSE,0,FALSE,FALSE,FALSE,FALSE,99,,,,12.226,FALSE,4.113,4.06,4.053,0.062,FALSE,FALSE,,,,,0,6,0,16,10,12425.4,3186,,Idle,0,30,FALSE,10,TRUE,,Go Home,39.96128718,-106.2165143,19.6,7921.4,393.7,TRUE,1,1,FALSE,FALSE,FALSE,FALSE,0,TRUE,FALSE,FALSE,Course Lock,98.4,303.3,16.4,Calm,29,Android, 4.2.8,dronefo...-Mavic Air,0K1DF313BD4PR1,,,0K4AF2SA35087J,71.9,752.4,99.1,20.2,4.5,0,55,dronefo...-Mavic Air,0K1DF313BD4PR1,,,0K4AF2SA35087J,,Android, 4.2.8,,,,,,
49,4/19/2018,39:51.9,0m 6.5s,6.5,39.96122949,-106.2165099,3.6,3.6,3.6,8132,10.4,10.4,-10.5,0,0.9,0.9,0,0,-14,-0.1,174,174,P-GPS,Auto Fly,,16,5,TRUE,,Mavic Air,TRUE,FALSE,,Smart,RC,FALSE,TRUE,FALSE,,,TRUE,,FALSE,FALSE,FALSE,FALSE,FALSE,FALSE,FALSE,FALSE,FALSE,FALSE,0,Follow Yaw,0,0,173.8,173.8,FALSE,FALSE,FALSE,FALSE,FALSE,FALSE,,TRUE,Normal,,,1024,1684,1024,1024,1,FALSE,FALSE,FALSE,FALSE,FALSE,0,FALSE,FALSE,FALSE,FALSE,99,,,,12.226,FALSE,4.113,4.06,4.053,0.062,FALSE,FALSE,,,,,0,6,0,16,10,12425.4,3186,,Idle,0,30,FALSE,10,TRUE,,Go Home,39.96128718,-106.2165143,21.1,7921.4,393.7,TRUE,1,1,FALSE,FALSE,FALSE,FALSE,0,TRUE,FALSE,FALSE,Course Lock,98.4,303.3,16.4,Calm,29,Android, 4.2.8,dronefo...-Mavic Air,0K1DF313BD4PR1,,,0K4AF2SA35087J,71.9,752.4,99.1,20.2,4.5,0,55,dronefo...-Mavic Air,0K1DF313BD4PR1,,,0K4AF2SA35087J,,Android, 4.2.8,,,,,,
50,4/19/2018,39:52.0,0m 6.6s,6.6,39.96122501,-106.2165094,3.6,3.6,3.9,8132,10.7,10.7,-11,0,0.9,0.9,0,0,-14.1,0.1,173.7,173.7,P-GPS,Auto Fly,,16,5,TRUE,,Mavic Air,TRUE,FALSE,,Smart,RC,FALSE,TRUE,FALSE,,,TRUE,,FALSE,FALSE,FALSE,FALSE,FALSE,FALSE,FALSE,FALSE,FALSE,FALSE,0,Follow Yaw,0,0,173.8,173.8,FALSE,FALSE,FALSE,FALSE,FALSE,FALSE,,TRUE,Normal,,,1024,1684,1064,1024,1,FALSE,FALSE,FALSE,FALSE,FALSE,0,FALSE,FALSE,FALSE,FALSE,99,,,,12.226,FALSE,4.113,4.06,4.053,0.062,FALSE,FALSE,,,,,0,6,0,16,10,12425.4,3186,,Idle,0,30,FALSE,10,TRUE,,Go Home,39.96128718,-106.2165143,22.7,7921.4,393.7,TRUE,1,1,FALSE,FALSE,FALSE,FALSE,0,TRUE,FALSE,FALSE,Course Lock,98.4,303.3,16.4,Calm,29,Android, 4.2.8,dronefo...-Mavic Air,0K1DF313BD4PR1,,,0K4AF2SA35087J,71.9,752.4,99.1,20.2,4.5,0,55,dronefo...-Mavic Air,0K1DF313BD4PR1,,,0K4AF2SA35087J,,Android, 4.2.8,,,,,,
51,4/19/2018,39:52.1,0m 6.7s,6.7,39.96122045,-106.2165088,3.6,3.6,3.9,8132,11.3,11.3,-11.2,0,0.9,0.9,0,0,-14.8,0,173.8,173.8,P-GPS,Auto Fly,,16,5,TRUE,,Mavic Air,TRUE,FALSE,,Smart,RC,FALSE,TRUE,FALSE,,,TRUE,,FALSE,FALSE,FALSE,FALSE,FALSE,FALSE,FALSE,FALSE,FALSE,FALSE,0,Follow Yaw,0,0,173.8,173.8,FALSE,FALSE,FALSE,FALSE,FALSE,FALSE,,TRUE,Normal,,,1024,1684,1207,1024,1,FALSE,FALSE,FALSE,FALSE,FALSE,0,FALSE,FALSE,FALSE,FALSE,99,,,,12.216,FALSE,4.108,4.056,4.052,0.062,FALSE,FALSE,,,,,0,15,0,17,10,15960,4092.3,,Idle,0,30,FALSE,10,TRUE,,Go Home,39.96128718,-106.2165143,24.4,7921.4,393.7,TRUE,1,1,FALSE,FALSE,FALSE,FALSE,0,TRUE,FALSE,FALSE,Course Lock,98.4,303.3,16.4,Calm,29,Android, 4.2.8,dronefo...-Mavic Air,0K1DF313BD4PR1,,,0K4AF2SA35087J,71.9,752.4,99.1,20.2,4.5,0,55,dronefo...-Mavic Air,0K1DF313BD4PR1,,,0K4AF2SA35087J,,Android, 4.2.8,,,,,,
52,4/19/2018,39:52.2,0m 6.8s,6.8,39.96121571,-106.2165083,3.6,3.6,3.9,8132,11.7,11.7,-11.6,0,1.1,1.1,0,0,-14.8,-0.1,174,174,P-GPS,Auto Fly,,16,5,TRUE,,Mavic Air,TRUE,FALSE,,Smart,RC,FALSE,TRUE,FALSE,,,TRUE,,FALSE,FALSE,FALSE,FALSE,FALSE,FALSE,FALSE,FALSE,FALSE,FALSE,0,Follow Yaw,0,0,173.8,173.8,FALSE,FALSE,FALSE,FALSE,FALSE,FALSE,,TRUE,Normal,,,1024,1684,1479,1024,1,FALSE,FALSE,FALSE,FALSE,FALSE,0,FALSE,FALSE,FALSE,FALSE,99,,,,12.216,FALSE,4.108,4.056,4.052,0.062,FALSE,FALSE,,,,,0,15,0,17,10,15960,4092.3,,Idle,0,30,FALSE,10,TRUE,,Go Home,39.96128718,-106.2165143,26.1,7921.4,393.7,TRUE,1,1,FALSE,FALSE,FALSE,FALSE,0,TRUE,FALSE,FALSE,Course Lock,98.4,303.3,16.4,Calm,29,Android, 4.2.8,dronefo...-Mavic Air,0K1DF313BD4PR1,,,0K4AF2SA35087J,71.9,752.4,99.1,20.2,4.5,0,55,dronefo...-Mavic Air,0K1DF313BD4PR1,,,0K4AF2SA35087J,,Android, 4.2.8,,,,,,
53,4/19/2018,39:52.3,0m 6.9s,6.9,39.96121096,-106.2165076,3.6,3.6,4.3,8132,11.9,11.9,-12.1,0,1.1,1.1,0,0,-14.6,-0.1,173.9,173.9,P-GPS,Auto Fly,,16,5,TRUE,,Mavic Air,TRUE,FALSE,,Smart,RC,FALSE,TRUE,FALSE,,,TRUE,,FALSE,FALSE,FALSE,FALSE,FALSE,FALSE,FALSE,FALSE,FALSE,FALSE,0,Follow Yaw,0,0,173.8,173.8,FALSE,FALSE,FALSE,FALSE,FALSE,FALSE,,TRUE,Normal,,,1024,1684,1664,1024,1,FALSE,FALSE,FALSE,FALSE,FALSE,0,FALSE,FALSE,FALSE,FALSE,99,,,,12.216,FALSE,4.108,4.056,4.052,0.062,FALSE,FALSE,,,,,0,15,0,17,10,15960,4092.3,,Idle,0,30,FALSE,10,TRUE,,Go Home,39.96128718,-106.2165143,27.9,7921.4,393.7,TRUE,1,1,FALSE,FALSE,FALSE,FALSE,0,TRUE,FALSE,FALSE,Course Lock,98.4,303.3,16.4,Calm,29,Android, 4.2.8,dronefo...-Mavic Air,0K1DF313BD4PR1,,,0K4AF2SA35087J,71.9,752.4,99.1,20.2,4.5,0,55,dronefo...-Mavic Air,0K1DF313BD4PR1,,,0K4AF2SA35087J,,Android, 4.2.8,,,,,,
54,4/19/2018,39:52.4,0m 7.0s,7,39.96120595,-106.216507,3.6,3.6,4.6,8132,12.2,12.2,-12.3,0,1.3,1.3,-0.2,0,-14.4,0.1,173.7,173.7,P-GPS,Auto Fly,,16,5,TRUE,,Mavic Air,TRUE,FALSE,,Smart,RC,FALSE,TRUE,FALSE,,,TRUE,,FALSE,FALSE,FALSE,FALSE,FALSE,FALSE,FALSE,FALSE,FALSE,FALSE,0,Follow Yaw,0,0,173.8,173.8,FALSE,FALSE,FALSE,FALSE,FALSE,FALSE,,TRUE,Normal,,,1024,1684,1684,1024,1,FALSE,FALSE,FALSE,FALSE,FALSE,0,FALSE,FALSE,FALSE,FALSE,99,,,,12.216,FALSE,4.108,4.056,4.052,0.062,FALSE,FALSE,,,,,0,15,0,17,10,15960,4092.3,,Idle,0,30,FALSE,10,TRUE,,Go Home,39.96128718,-106.2165143,29.7,7921.4,393.7,TRUE,1,1,FALSE,FALSE,FALSE,FALSE,0,TRUE,FALSE,FALSE,Course Lock,98.4,303.3,16.4,Calm,29,Android, 4.2.8,dronefo...-Mavic Air,0K1DF313BD4PR1,,,0K4AF2SA35087J,71.9,752.4,99.1,20.2,4.5,0,55,dronefo...-Mavic Air,0K1DF313BD4PR1,,,0K4AF2SA35087J,,Android, 4.2.8,,,,,,
55,4/19/2018,39:52.4,0m 7.1s,7.1,39.96120124,-106.2165061,3.6,3.6,4.6,8132,12.2,12.2,-12.8,0,1.3,1.3,-0.7,0,-14.9,0.3,173.8,173.8,P-GPS,Auto Fly,,16,5,TRUE,,Mavic Air,TRUE,FALSE,,Smart,RC,FALSE,TRUE,FALSE,,,TRUE,,FALSE,FALSE,FALSE,FALSE,FALSE,FALSE,FALSE,FALSE,FALSE,FALSE,0,Follow Yaw,0,0,173.8,173.8,FALSE,FALSE,FALSE,FALSE,FALSE,FALSE,,TRUE,Normal,,,1024,1684,1684,1024,1,FALSE,FALSE,FALSE,FALSE,FALSE,0,FALSE,FALSE,FALSE,FALSE,99,,,,12.216,FALSE,4.108,4.056,4.052,0.062,FALSE,FALSE,,,,,0,15,0,17,10,15960,4092.3,,Idle,0,30,FALSE,10,TRUE,,Go Home,39.96128718,-106.2165143,31.4,7921.4,393.7,TRUE,1,1,FALSE,FALSE,FALSE,FALSE,0,TRUE,FALSE,FALSE,Course Lock,98.4,303.3,16.4,Calm,29,Android, 4.2.8,dronefo...-Mavic Air,0K1DF313BD4PR1,,,0K4AF2SA35087J,71.9,752.4,99.1,20.2,4.5,0,55,dronefo...-Mavic Air,0K1DF313BD4PR1,,,0K4AF2SA35087J,,Android, 4.2.8,,,,,,
56,4/19/2018,39:52.6,0m 7.2s,7.2,39.96119593,-106.2165055,3.9,3.9,4.9,8132,12.6,12.6,-13.4,0,1.1,1.3,-1.6,0,-15.1,0.4,174.2,174.2,P-GPS,Auto Fly,,16,5,TRUE,,Mavic Air,TRUE,FALSE,,Smart,RC,FALSE,TRUE,FALSE,,,TRUE,,FALSE,FALSE,FALSE,FALSE,FALSE,FALSE,FALSE,FALSE,FALSE,FALSE,0,Follow Yaw,0,0,173.8,173.8,FALSE,FALSE,FALSE,FALSE,FALSE,FALSE,,TRUE,Normal,,,1024,1684,1684,1024,1,FALSE,FALSE,FALSE,FALSE,FALSE,0,FALSE,FALSE,FALSE,FALSE,99,,,,12.216,FALSE,4.108,4.056,4.052,0.062,FALSE,FALSE,,,,,0,15,0,17,10,15960,4092.3,,Idle,0,30,FALSE,10,TRUE,,Go Home,39.96128718,-106.2165143,33.4,7921.4,393.7,TRUE,1,1,FALSE,FALSE,FALSE,FALSE,0,TRUE,FALSE,FALSE,Course Lock,98.4,303.3,16.4,Calm,29,Android, 4.2.8,dronefo...-Mavic Air,0K1DF313BD4PR1,,,0K4AF2SA35087J,71.9,752.4,99.1,20.2,4.5,0,55,dronefo...-Mavic Air,0K1DF313BD4PR1,,,0K4AF2SA35087J,,Android, 4.2.8,,,,,,
57,4/19/2018,39:52.7,0m 7.4s,7.4,39.9611848,-106.2165043,4.6,4.6,5.6,8133,13.7,13.7,-14.3,0,1.3,1.3,-3.1,0,-15.5,0.2,173.8,173.8,P-GPS,Auto Fly,,16,5,TRUE,,Mavic Air,TRUE,FALSE,,Smart,RC,FALSE,TRUE,FALSE,,,TRUE,,FALSE,FALSE,FALSE,FALSE,FALSE,FALSE,FALSE,FALSE,FALSE,FALSE,0,Follow Yaw,0,0,173.8,173.8,FALSE,FALSE,FALSE,FALSE,FALSE,FALSE,,TRUE,Normal,,,1024,1684,1684,1024,1,FALSE,FALSE,FALSE,FALSE,FALSE,0,FALSE,FALSE,FALSE,FALSE,99,,,,12.216,FALSE,4.108,4.056,4.052,0.062,FALSE,FALSE,,,,,0,15,0,17,10,15960,4092.3,,Idle,0,30,FALSE,10,TRUE,,Go Home,39.96128718,-106.2165143,37.5,7921.4,393.7,TRUE,1,1,FALSE,FALSE,FALSE,FALSE,0,TRUE,FALSE,FALSE,Course Lock,98.4,303.3,16.4,Calm,29,Android, 4.2.8,dronefo...-Mavic Air,0K1DF313BD4PR1,,,0K4AF2SA35087J,71.9,752.4,99.1,20.2,4.5,0,55,dronefo...-Mavic Air,0K1DF313BD4PR1,,,0K4AF2SA35087J,,Android, 4.2.8,,,,,,
58,4/19/2018,39:52.8,0m 7.5s,7.5,39.96117867,-106.2165038,5.2,5.2,6.2,8133,14.3,14.3,-14.8,0,1.3,1.3,-3.8,0,-15.4,0,173.8,173.8,P-GPS,Auto Fly,,16,5,TRUE,,Mavic Air,TRUE,FALSE,,Smart,RC,FALSE,TRUE,FALSE,,,TRUE,,FALSE,FALSE,FALSE,FALSE,FALSE,FALSE,FALSE,FALSE,FALSE,FALSE,0,Follow Yaw,0,0,173.8,173.8,FALSE,FALSE,FALSE,FALSE,FALSE,FALSE,,TRUE,Normal,,,1024,1684,1684,1024,1,FALSE,FALSE,FALSE,FALSE,FALSE,0,FALSE,FALSE,FALSE,FALSE,99,,,,12.216,FALSE,4.108,4.056,4.052,0.062,FALSE,FALSE,,,,,0,15,0,17,10,15960,4092.3,,Idle,0,30,FALSE,10,TRUE,,Go Home,39.96128718,-106.2165143,39.7,7921.4,393.7,TRUE,1,1,FALSE,FALSE,FALSE,FALSE,0,TRUE,FALSE,FALSE,Course Lock,98.4,303.3,16.4,Calm,29,Android, 4.2.8,dronefo...-Mavic Air,0K1DF313BD4PR1,,,0K4AF2SA35087J,71.9,752.4,99.1,20.2,4.5,0,55,dronefo...-Mavic Air,0K1DF313BD4PR1,,,0K4AF2SA35087J,,Android, 4.2.8,,,,,,
59,4/19/2018,39:52.9,0m 7.6s,7.6,39.9611726,-106.216503,5.6,5.6,6.9,8134,15.2,15.2,-15.2,0,1.6,1.6,-4.3,0,-15.1,-0.1,173.3,173.3,P-GPS,Auto Fly,,16,5,TRUE,,Mavic Air,TRUE,FALSE,,Smart,RC,FALSE,TRUE,FALSE,,,TRUE,,FALSE,FALSE,FALSE,FALSE,FALSE,FALSE,FALSE,FALSE,FALSE,FALSE,0,Follow Yaw,0,0,173.8,173.8,FALSE,FALSE,FALSE,FALSE,FALSE,FALSE,,TRUE,Normal,,,1024,1684,1684,1024,1,FALSE,FALSE,FALSE,FALSE,FALSE,0,FALSE,FALSE,FALSE,FALSE,99,,,,12.216,FALSE,4.108,4.056,4.052,0.062,FALSE,FALSE,,,,,0,15,0,17,10,15960,4092.3,,Idle,0,30,FALSE,10,TRUE,,Go Home,39.96128718,-106.2165143,41.9,7921.4,393.7,TRUE,1,1,FALSE,FALSE,FALSE,FALSE,0,TRUE,FALSE,FALSE,Course Lock,98.4,303.3,16.4,Calm,29,Android, 4.2.8,dronefo...-Mavic Air,0K1DF313BD4PR1,,,0K4AF2SA35087J,71.9,752.4,99.1,20.2,4.5,0,55,dronefo...-Mavic Air,0K1DF313BD4PR1,,,0K4AF2SA35087J,,Android, 4.2.8,,,,,,
60,4/19/2018,39:53.0,0m 7.7s,7.7,39.96116647,-106.2165021,6.2,6.2,7.9,8134,15.2,15.2,-15.4,0,1.6,1.6,-4.5,0,-15.2,-0.3,173.7,173.7,P-GPS,Auto Fly,,16,5,TRUE,,Mavic Air,TRUE,FALSE,,Smart,RC,FALSE,TRUE,FALSE,,,TRUE,,FALSE,FALSE,FALSE,FALSE,FALSE,FALSE,FALSE,FALSE,FALSE,FALSE,0,Follow Yaw,0,0,173.8,173.8,FALSE,FALSE,FALSE,FALSE,FALSE,FALSE,,TRUE,Normal,,,1024,1684,1684,1024,1,FALSE,FALSE,FALSE,FALSE,FALSE,0,FALSE,FALSE,FALSE,FALSE,99,,,,12.042,FALSE,4.069,4.009,3.964,0.105,TRUE,FALSE,,,,,0,28,0,18,10,19503.5,5000.89,,Idle,0,30,FALSE,10,TRUE,,Go Home,39.96128718,-106.2165143,44.2,7921.4,393.7,TRUE,1,1,FALSE,FALSE,FALSE,FALSE,0,TRUE,FALSE,FALSE,Course Lock,98.4,303.3,16.4,Calm,29,Android, 4.2.8,dronefo...-Mavic Air,0K1DF313BD4PR1,,,0K4AF2SA35087J,71.9,752.4,99.1,20.2,4.5,0,55,dronefo...-Mavic Air,0K1DF313BD4PR1,,,0K4AF2SA35087J,,Android, 4.2.8,,,,,,
61,4/19/2018,39:53.1,0m 7.8s,7.8,39.96116014,-106.2165013,7.2,7.2,8.9,8135,15.5,15.5,-15.9,0,1.8,1.8,-4.5,0,-15.3,-0.1,173.8,173.8,P-GPS,Auto Fly,,16,5,TRUE,,Mavic Air,TRUE,FALSE,,Smart,RC,FALSE,TRUE,FALSE,,,TRUE,,FALSE,FALSE,FALSE,FALSE,FALSE,FALSE,FALSE,FALSE,FALSE,FALSE,0,Follow Yaw,0,0,173.8,173.8,FALSE,FALSE,FALSE,FALSE,FALSE,FALSE,,TRUE,Normal,,,1024,1684,1684,1024,1,FALSE,FALSE,FALSE,FALSE,FALSE,0,FALSE,FALSE,FALSE,FALSE,99,,,,12.042,FALSE,4.069,4.009,3.964,0.105,TRUE,FALSE,,,,,0,28,0,18,10,19503.5,5000.89,,Idle,0,30,FALSE,10,TRUE,,Go Home,39.96128718,-106.2165143,46.5,7921.4,393.7,TRUE,1,1,FALSE,FALSE,FALSE,FALSE,0,TRUE,FALSE,FALSE,Course Lock,98.4,303.3,16.4,Calm,29,Android, 4.2.8,dronefo...-Mavic Air,0K1DF313BD4PR1,,,0K4AF2SA35087J,71.9,752.4,99.1,20.2,4.5,0,55,dronefo...-Mavic Air,0K1DF313BD4PR1,,,0K4AF2SA35087J,,Android, 4.2.8,,,,,,
62,4/19/2018,39:53.2,0m 7.9s,7.9,39.96115387,-106.2165004,7.9,7.9,9.5,8136,15.7,15.7,-15.9,0,1.8,1.8,-4.5,0,-15.3,0,173.8,173.8,P-GPS,Auto Fly,,16,5,TRUE,,Mavic Air,TRUE,FALSE,,Smart,RC,FALSE,TRUE,FALSE,,,TRUE,,FALSE,FALSE,FALSE,FALSE,FALSE,FALSE,FALSE,FALSE,FALSE,FALSE,0,Follow Yaw,0,0,173.8,173.8,FALSE,FALSE,FALSE,FALSE,FALSE,FALSE,,TRUE,Normal,,,1024,1684,1684,1024,1,FALSE,FALSE,FALSE,FALSE,FALSE,0,FALSE,FALSE,FALSE,FALSE,99,,,,12.042,FALSE,4.069,4.009,3.964,0.105,TRUE,FALSE,,,,,0,28,0,18,10,19503.5,5000.89,,Idle,0,30,FALSE,10,TRUE,,Go Home,39.96128718,-106.2165143,48.8,7921.4,393.7,TRUE,1,1,FALSE,FALSE,FALSE,FALSE,0,TRUE,FALSE,FALSE,Course Lock,98.4,303.3,16.4,Calm,29,Android, 4.2.8,dronefo...-Mavic Air,0K1DF313BD4PR1,,,0K4AF2SA35087J,71.9,752.4,99.1,20.2,4.5,0,55,dronefo...-Mavic Air,0K1DF313BD4PR1,,,0K4AF2SA35087J,,Android, 4.2.8,,,,,,
63,4/19/2018,39:53.4,0m 8.0s,8,39.96114733,-106.2164995,8.5,8.5,10.5,8137,16,16,-16.3,0,1.8,1.8,-4.5,0,-15.4,0.1,173.9,173.9,P-GPS,Auto Fly,,16,5,TRUE,,Mavic Air,TRUE,FALSE,,Smart,RC,FALSE,TRUE,FALSE,,,TRUE,,FALSE,FALSE,FALSE,FALSE,FALSE,FALSE,FALSE,FALSE,FALSE,FALSE,0,Follow Yaw,0,0,173.8,173.8,FALSE,FALSE,FALSE,FALSE,FALSE,FALSE,,TRUE,Normal,,,1024,1684,1684,1024,1,FALSE,FALSE,FALSE,FALSE,FALSE,0,FALSE,FALSE,FALSE,FALSE,99,,,,12.042,FALSE,4.069,4.009,3.964,0.105,TRUE,FALSE,,,,,0,28,0,18,10,19503.5,5000.89,,Idle,0,30,FALSE,10,TRUE,,Go Home,39.96128718,-106.2165143,51.2,7921.4,393.7,TRUE,1,1,FALSE,FALSE,FALSE,FALSE,0,TRUE,FALSE,FALSE,Course Lock,98.4,303.3,16.4,Calm,29,Android, 4.2.8,dronefo...-Mavic Air,0K1DF313BD4PR1,,,0K4AF2SA35087J,71.9,752.4,99.1,20.2,4.5,0,55,dronefo...-Mavic Air,0K1DF313BD4PR1,,,0K4AF2SA35087J,,Android, 4.2.8,,,,,,
64,4/19/2018,39:53.5,0m 8.1s,8.1,39.96114083,-106.2164988,9.2,9.2,11.2,8137,16.3,16.3,-16.6,0,1.8,1.8,-4.5,0,-15.2,0.2,173.8,173.8,P-GPS,Auto Fly,,16,5,TRUE,,Mavic Air,TRUE,FALSE,,Smart,RC,FALSE,TRUE,FALSE,,,TRUE,,FALSE,FALSE,FALSE,FALSE,FALSE,FALSE,FALSE,FALSE,FALSE,FALSE,0,Follow Yaw,0,0,173.8,173.8,FALSE,FALSE,FALSE,FALSE,FALSE,FALSE,,TRUE,Normal,,,1024,1684,1684,1024,1,FALSE,FALSE,FALSE,FALSE,FALSE,0,FALSE,FALSE,FALSE,FALSE,99,,,,12.042,FALSE,4.069,4.009,3.964,0.105,TRUE,FALSE,,,,,0,28,0,18,10,19503.5,5000.89,,Idle,0,30,FALSE,10,TRUE,,Go Home,39.96128718,-106.2165143,53.6,7921.4,393.7,TRUE,1,1,FALSE,FALSE,FALSE,FALSE,0,TRUE,FALSE,FALSE,Course Lock,98.4,303.3,16.4,Calm,29,Android, 4.2.8,dronefo...-Mavic Air,0K1DF313BD4PR1,,,0K4AF2SA35087J,71.9,752.4,99.1,20.2,4.5,0,55,dronefo...-Mavic Air,0K1DF313BD4PR1,,,0K4AF2SA35087J,,Android, 4.2.8,,,,,,
65,4/19/2018,39:53.6,0m 8.2s,8.2,39.9611341,-106.2164979,9.8,9.8,11.8,8138,16.5,16.5,-16.8,0,1.8,1.8,-4.5,0,-14.9,0.2,173.7,173.7,P-GPS,Auto Fly,,16,5,TRUE,,Mavic Air,TRUE,FALSE,,Smart,RC,FALSE,TRUE,FALSE,,,TRUE,,FALSE,FALSE,FALSE,FALSE,FALSE,FALSE,FALSE,FALSE,FALSE,FALSE,0,Follow Yaw,0,0,173.8,173.8,FALSE,FALSE,FALSE,FALSE,FALSE,FALSE,,TRUE,Normal,,,1024,1684,1684,1024,1,FALSE,FALSE,FALSE,FALSE,FALSE,0,FALSE,FALSE,FALSE,FALSE,99,,,,12.042,FALSE,4.069,4.009,3.964,0.105,TRUE,FALSE,,,,,0,28,0,18,10,19503.5,5000.89,,Idle,0,30,FALSE,10,TRUE,,Go Home,39.96128718,-106.2165143,56,7921.4,393.7,TRUE,1,1,FALSE,FALSE,FALSE,FALSE,0,TRUE,FALSE,FALSE,Course Lock,98.4,303.3,16.4,Calm,29,Android, 4.2.8,dronefo...-Mavic Air,0K1DF313BD4PR1,,,0K4AF2SA35087J,71.9,752.4,99.1,20.2,4.5,0,55,dronefo...-Mavic Air,0K1DF313BD4PR1,,,0K4AF2SA35087J,,Android, 4.2.8,,,,,,
66,4/19/2018,39:53.7,0m 8.3s,8.3,39.96112734,-106.2164969,10.5,10.5,12.5,8139,16.9,16.9,-17,0,1.8,1.8,-4.5,0,-14.7,0.1,173.8,173.8,P-GPS,Auto Fly,,16,5,TRUE,,Mavic Air,TRUE,FALSE,,Smart,RC,FALSE,TRUE,FALSE,,,TRUE,,FALSE,FALSE,FALSE,FALSE,FALSE,FALSE,FALSE,FALSE,FALSE,FALSE,0,Follow Yaw,0,0,173.8,173.8,FALSE,FALSE,FALSE,FALSE,FALSE,FALSE,,TRUE,Normal,,,1024,1684,1684,1024,1,FALSE,FALSE,FALSE,FALSE,FALSE,0,FALSE,FALSE,FALSE,FALSE,99,,,,12.042,FALSE,4.069,4.009,3.964,0.105,TRUE,FALSE,,,,,0,28,0,18,10,19503.5,5000.89,,Idle,0,30,FALSE,10,TRUE,,Go Home,39.96128718,-106.2165143,58.5,7921.4,393.7,TRUE,1,1,FALSE,FALSE,FALSE,FALSE,0,TRUE,FALSE,FALSE,Course Lock,98.4,303.3,16.4,Calm,29,Android, 4.2.8,dronefo...-Mavic Air,0K1DF313BD4PR1,,,0K4AF2SA35087J,71.9,752.4,99.1,20.2,4.5,0,55,dronefo...-Mavic Air,0K1DF313BD4PR1,,,0K4AF2SA35087J,,Android, 4.2.8,,,,,,
